{"packet_index": 15, "message": {"header": {"component_id": 1, "sequence": 182, "system_id": 1}, "message": {"autopilot": {"type": "MAV_AUTOPILOT_ARDUPILOTMEGA"}, "base_mode": {"bits": 137}, "custom_mode": 15, "mavlink_version": 3, "mavtype": {"type": "MAV_TYPE_SURFACE_BOAT"}, "system_status": {"type": "MAV_STATE_ACTIVE"}, "type": "HEARTBEAT"}}}
{"packet_index": 91, "message": {"header": {"component_id": 1, "sequence": 215, "system_id": 1}, "message": {"airspeed": 0.08500000089406967, "alt": 15.460000038146973, "climb": 0.040729910135269165, "groundspeed": 0.13091808557510376, "heading": 117, "throttle": 0, "type": "VFR_HUD"}}}
{"packet_index": 189, "message": {"header": {"component_id": 1, "sequence": 21, "system_id": 1}, "message": {"airspeed": 0.12000000476837158, "alt": 15.420000076293945, "climb": 0.037442054599523544, "groundspeed": 0.10201665014028549, "heading": 117, "throttle": 0, "type": "VFR_HUD"}}}
{"packet_index": 255, "message": {"header": {"component_id": 1, "sequence": 59, "system_id": 1}, "message": {"altitude": 32970, "latitude": 634405552, "longitude": 103484873, "time_usec": 7936367470, "type": "GPS_GLOBAL_ORIGIN"}}}
{"packet_index": 256, "message": {"header": {"component_id": 1, "sequence": 60, "system_id": 1}, "message": {"altitude": 6860, "approach_x": 0.0, "approach_y": 0.0, "approach_z": 0.0, "latitude": 634405553, "longitude": 103484876, "q": [null, null, null, null], "time_usec": 7936367475, "type": "HOME_POSITION", "x": 0.011131884530186653, "y": 0.01493206899613142, "z": 26.10999870300293}}}
{"packet_index": 302, "message": {"header": {"component_id": 1, "sequence": 91, "system_id": 1}, "message": {"airspeed": 0.10400000214576721, "alt": 15.429999351501465, "climb": 0.12708385288715363, "groundspeed": 0.09929276257753372, "heading": 118, "throttle": 0, "type": "VFR_HUD"}}}
{"packet_index": 330, "message": {"header": {"component_id": 1, "sequence": 109, "system_id": 1}, "message": {"autopilot": {"type": "MAV_AUTOPILOT_ARDUPILOTMEGA"}, "base_mode": {"bits": 137}, "custom_mode": 15, "mavlink_version": 3, "mavtype": {"type": "MAV_TYPE_SURFACE_BOAT"}, "system_status": {"type": "MAV_STATE_ACTIVE"}, "type": "HEARTBEAT"}}}
{"packet_index": 410, "message": {"header": {"component_id": 1, "sequence": 144, "system_id": 1}, "message": {"airspeed": 0.10000000149011612, "alt": 15.380000114440918, "climb": -0.006058102007955313, "groundspeed": 0.10759589821100235, "heading": 118, "throttle": 0, "type": "VFR_HUD"}}}
{"packet_index": 508, "message": {"header": {"component_id": 1, "sequence": 206, "system_id": 1}, "message": {"airspeed": 0.125, "alt": 15.359999656677246, "climb": -0.07365909218788147, "groundspeed": 0.10991091281175613, "heading": 118, "throttle": 0, "type": "VFR_HUD"}}}
{"packet_index": 571, "message": {"header": {"component_id": 1, "sequence": 241, "system_id": 1}, "message": {"altitude": 32970, "latitude": 634405552, "longitude": 103484873, "time_usec": 7937367469, "type": "GPS_GLOBAL_ORIGIN"}}}
{"packet_index": 572, "message": {"header": {"component_id": 1, "sequence": 242, "system_id": 1}, "message": {"altitude": 6860, "approach_x": 0.0, "approach_y": 0.0, "approach_z": 0.0, "latitude": 634405553, "longitude": 103484876, "q": [null, null, null, null], "time_usec": 7937367474, "type": "HOME_POSITION", "x": 0.011131884530186653, "y": 0.01493206899613142, "z": 26.10999870300293}}}
{"packet_index": 618, "message": {"header": {"component_id": 1, "sequence": 17, "system_id": 1}, "message": {"airspeed": 0.11600000411272049, "alt": 15.4399995803833, "climb": 0.016762210056185722, "groundspeed": 0.10390728712081909, "heading": 118, "throttle": 0, "type": "VFR_HUD"}}}
{"packet_index": 649, "message": {"header": {"component_id": 1, "sequence": 38, "system_id": 1}, "message": {"autopilot": {"type": "MAV_AUTOPILOT_ARDUPILOTMEGA"}, "base_mode": {"bits": 137}, "custom_mode": 15, "mavlink_version": 3, "mavtype": {"type": "MAV_TYPE_SURFACE_BOAT"}, "system_status": {"type": "MAV_STATE_ACTIVE"}, "type": "HEARTBEAT"}}}
{"packet_index": 726, "message": {"header": {"component_id": 1, "sequence": 70, "system_id": 1}, "message": {"airspeed": 0.10200000554323196, "alt": 15.429999351501465, "climb": -0.0631202980875969, "groundspeed": 0.09591888636350632, "heading": 118, "throttle": 0, "type": "VFR_HUD"}}}
{"packet_index": 824, "message": {"header": {"component_id": 1, "sequence": 132, "system_id": 1}, "message": {"airspeed": 0.08400000631809235, "alt": 15.4399995803833, "climb": -0.08521309494972229, "groundspeed": 0.05914702266454697, "heading": 118, "throttle": 0, "type": "VFR_HUD"}}}
{"packet_index": 887, "message": {"header": {"component_id": 1, "sequence": 167, "system_id": 1}, "message": {"altitude": 32970, "latitude": 634405552, "longitude": 103484873, "time_usec": 7938367424, "type": "GPS_GLOBAL_ORIGIN"}}}
{"packet_index": 888, "message": {"header": {"component_id": 1, "sequence": 168, "system_id": 1}, "message": {"altitude": 6860, "approach_x": 0.0, "approach_y": 0.0, "approach_z": 0.0, "latitude": 634405553, "longitude": 103484876, "q": [null, null, null, null], "time_usec": 7938367431, "type": "HOME_POSITION", "x": 0.011131884530186653, "y": 0.01493206899613142, "z": 26.10999870300293}}}
{"packet_index": 933, "message": {"header": {"component_id": 1, "sequence": 199, "system_id": 1}, "message": {"airspeed": 0.04100000113248825, "alt": 15.489999771118164, "climb": -0.06970660388469696, "groundspeed": 0.05868421122431755, "heading": 118, "throttle": 0, "type": "VFR_HUD"}}}
{"packet_index": 965, "message": {"header": {"component_id": 1, "sequence": 220, "system_id": 1}, "message": {"autopilot": {"type": "MAV_AUTOPILOT_ARDUPILOTMEGA"}, "base_mode": {"bits": 137}, "custom_mode": 15, "mavlink_version": 3, "mavtype": {"type": "MAV_TYPE_SURFACE_BOAT"}, "system_status": {"type": "MAV_STATE_ACTIVE"}, "type": "HEARTBEAT"}}}
{"packet_index": 1042, "message": {"header": {"component_id": 1, "sequence": 252, "system_id": 1}, "message": {"airspeed": 0.04800000041723251, "alt": 15.460000038146973, "climb": -0.0005711129051633179, "groundspeed": 0.07193876802921295, "heading": 117, "throttle": 0, "type": "VFR_HUD"}}}
{"packet_index": 1150, "message": {"header": {"component_id": 1, "sequence": 58, "system_id": 1}, "message": {"airspeed": 0.04800000041723251, "alt": 15.40999984741211, "climb": -0.05575798079371452, "groundspeed": 0.08582107722759247, "heading": 117, "throttle": 0, "type": "VFR_HUD"}}}
{"packet_index": 1204, "message": {"header": {"component_id": 1, "sequence": 93, "system_id": 1}, "message": {"altitude": 32970, "latitude": 634405552, "longitude": 103484873, "time_usec": 7939367381, "type": "GPS_GLOBAL_ORIGIN"}}}
{"packet_index": 1205, "message": {"header": {"component_id": 1, "sequence": 94, "system_id": 1}, "message": {"altitude": 6860, "approach_x": 0.0, "approach_y": 0.0, "approach_z": 0.0, "latitude": 634405553, "longitude": 103484876, "q": [null, null, null, null], "time_usec": 7939367388, "type": "HOME_POSITION", "x": 0.011131884530186653, "y": 0.01493206899613142, "z": 26.10999870300293}}}
{"packet_index": 1250, "message": {"header": {"component_id": 1, "sequence": 125, "system_id": 1}, "message": {"airspeed": 0.08500000089406967, "alt": 15.479999542236328, "climb": 0.11165951937437057, "groundspeed": 0.09014143794775009, "heading": 117, "throttle": 0, "type": "VFR_HUD"}}}
{"packet_index": 1281, "message": {"header": {"component_id": 1, "sequence": 146, "system_id": 1}, "message": {"autopilot": {"type": "MAV_AUTOPILOT_ARDUPILOTMEGA"}, "base_mode": {"bits": 137}, "custom_mode": 15, "mavlink_version": 3, "mavtype": {"type": "MAV_TYPE_SURFACE_BOAT"}, "system_status": {"type": "MAV_STATE_ACTIVE"}, "type": "HEARTBEAT"}}}
{"packet_index": 1359, "message": {"header": {"component_id": 1, "sequence": 178, "system_id": 1}, "message": {"airspeed": 0.0950000062584877, "alt": 15.469999313354492, "climb": 0.1030886173248291, "groundspeed": 0.10734580457210541, "heading": 117, "throttle": 0, "type": "VFR_HUD"}}}
{"packet_index": 1460, "message": {"header": {"component_id": 1, "sequence": 243, "system_id": 1}, "message": {"airspeed": 0.1300000101327896, "alt": 15.420000076293945, "climb": -0.0032547912560403347, "groundspeed": 0.12453069537878036, "heading": 117, "throttle": 0, "type": "VFR_HUD"}}}
{"packet_index": 1522, "message": {"header": {"component_id": 1, "sequence": 22, "system_id": 1}, "message": {"altitude": 32970, "latitude": 634405552, "longitude": 103484873, "time_usec": 7940367434, "type": "GPS_GLOBAL_ORIGIN"}}}
{"packet_index": 1523, "message": {"header": {"component_id": 1, "sequence": 23, "system_id": 1}, "message": {"altitude": 6860, "approach_x": 0.0, "approach_y": 0.0, "approach_z": 0.0, "latitude": 634405553, "longitude": 103484876, "q": [null, null, null, null], "time_usec": 7940367439, "type": "HOME_POSITION", "x": 0.011131884530186653, "y": 0.01493206899613142, "z": 26.10999870300293}}}
{"packet_index": 1569, "message": {"header": {"component_id": 1, "sequence": 54, "system_id": 1}, "message": {"airspeed": 0.09800000488758087, "alt": 15.479999542236328, "climb": -0.03110402636229992, "groundspeed": 0.11477300524711609, "heading": 118, "throttle": 0, "type": "VFR_HUD"}}}
{"packet_index": 1597, "message": {"header": {"component_id": 1, "sequence": 72, "system_id": 1}, "message": {"autopilot": {"type": "MAV_AUTOPILOT_ARDUPILOTMEGA"}, "base_mode": {"bits": 137}, "custom_mode": 15, "mavlink_version": 3, "mavtype": {"type": "MAV_TYPE_SURFACE_BOAT"}, "system_status": {"type": "MAV_STATE_ACTIVE"}, "type": "HEARTBEAT"}}}
{"packet_index": 1669, "message": {"header": {"component_id": 1, "sequence": 107, "system_id": 1}, "message": {"airspeed": 0.11300000548362732, "alt": 15.569999694824219, "climb": -0.01879662275314331, "groundspeed": 0.06064462289214134, "heading": 118, "throttle": 0, "type": "VFR_HUD"}}}
{"packet_index": 1679, "message": {"header": {"component_id": 1, "sequence": 116, "system_id": 1}, "message": {"param_count": 990, "param_id": ["S", "T", "A", "T", "_", "F", "L", "T", "T", "I", "M", "E", "\u0000", "\u0000", "\u0000", "\u0000"], "param_index": 65535, "param_type": {"type": "MAV_PARAM_TYPE_INT32"}, "param_value": 3950.0, "type": "PARAM_VALUE"}}}
{"packet_index": 1680, "message": {"header": {"component_id": 1, "sequence": 117, "system_id": 1}, "message": {"param_count": 990, "param_id": ["S", "T", "A", "T", "_", "R", "U", "N", "T", "I", "M", "E", "\u0000", "\u0000", "\u0000", "\u0000"], "param_index": 65535, "param_type": {"type": "MAV_PARAM_TYPE_INT32"}, "param_value": 49801.0, "type": "PARAM_VALUE"}}}
{"packet_index": 1778, "message": {"header": {"component_id": 1, "sequence": 171, "system_id": 1}, "message": {"airspeed": 0.0690000057220459, "alt": 15.449999809265137, "climb": -0.11211524903774261, "groundspeed": 0.05848519504070282, "heading": 118, "throttle": 0, "type": "VFR_HUD"}}}
{"packet_index": 1841, "message": {"header": {"component_id": 1, "sequence": 206, "system_id": 1}, "message": {"altitude": 32970, "latitude": 634405552, "longitude": 103484873, "time_usec": 7941367546, "type": "GPS_GLOBAL_ORIGIN"}}}
{"packet_index": 1842, "message": {"header": {"component_id": 1, "sequence": 207, "system_id": 1}, "message": {"altitude": 6860, "approach_x": 0.0, "approach_y": 0.0, "approach_z": 0.0, "latitude": 634405553, "longitude": 103484876, "q": [null, null, null, null], "time_usec": 7941367552, "type": "HOME_POSITION", "x": 0.011131884530186653, "y": 0.01493206899613142, "z": 26.10999870300293}}}
{"packet_index": 1887, "message": {"header": {"component_id": 1, "sequence": 238, "system_id": 1}, "message": {"airspeed": 0.03400000184774399, "alt": 15.469999313354492, "climb": -0.01456622313708067, "groundspeed": 0.045801546424627304, "heading": 118, "throttle": 0, "type": "VFR_HUD"}}}
{"packet_index": 1919, "message": {"header": {"component_id": 1, "sequence": 3, "system_id": 1}, "message": {"autopilot": {"type": "MAV_AUTOPILOT_ARDUPILOTMEGA"}, "base_mode": {"bits": 137}, "custom_mode": 15, "mavlink_version": 3, "mavtype": {"type": "MAV_TYPE_SURFACE_BOAT"}, "system_status": {"type": "MAV_STATE_ACTIVE"}, "type": "HEARTBEAT"}}}
{"packet_index": 1987, "message": {"header": {"component_id": 1, "sequence": 35, "system_id": 1}, "message": {"airspeed": 0.020000001415610313, "alt": 15.569999694824219, "climb": 0.015234818682074547, "groundspeed": 0.10373985022306442, "heading": 118, "throttle": 0, "type": "VFR_HUD"}}}
{"packet_index": 2094, "message": {"header": {"component_id": 1, "sequence": 97, "system_id": 1}, "message": {"airspeed": 0.08900000154972076, "alt": 15.469999313354492, "climb": 0.018850771710276604, "groundspeed": 0.1276574581861496, "heading": 118, "throttle": 0, "type": "VFR_HUD"}}}
{"packet_index": 2167, "message": {"header": {"component_id": 1, "sequence": 132, "system_id": 1}, "message": {"altitude": 32970, "latitude": 634405552, "longitude": 103484873, "time_usec": 7942367538, "type": "GPS_GLOBAL_ORIGIN"}}}
{"packet_index": 2168, "message": {"header": {"component_id": 1, "sequence": 133, "system_id": 1}, "message": {"altitude": 6860, "approach_x": 0.0, "approach_y": 0.0, "approach_z": 0.0, "latitude": 634405553, "longitude": 103484876, "q": [null, null, null, null], "time_usec": 7942367545, "type": "HOME_POSITION", "x": 0.011131884530186653, "y": 0.01493206899613142, "z": 26.10999870300293}}}
{"packet_index": 2204, "message": {"header": {"component_id": 1, "sequence": 164, "system_id": 1}, "message": {"airspeed": 0.12200000882148743, "alt": 15.380000114440918, "climb": -0.02708113193511963, "groundspeed": 0.10089631378650665, "heading": 118, "throttle": 0, "type": "VFR_HUD"}}}
{"packet_index": 2236, "message": {"header": {"component_id": 1, "sequence": 185, "system_id": 1}, "message": {"autopilot": {"type": "MAV_AUTOPILOT_ARDUPILOTMEGA"}, "base_mode": {"bits": 137}, "custom_mode": 15, "mavlink_version": 3, "mavtype": {"type": "MAV_TYPE_SURFACE_BOAT"}, "system_status": {"type": "MAV_STATE_ACTIVE"}, "type": "HEARTBEAT"}}}
{"packet_index": 2303, "message": {"header": {"component_id": 1, "sequence": 217, "system_id": 1}, "message": {"airspeed": 0.09000000357627869, "alt": 15.5, "climb": 0.11700166761875153, "groundspeed": 0.08581604808568954, "heading": 118, "throttle": 0, "type": "VFR_HUD"}}}
{"packet_index": 2410, "message": {"header": {"component_id": 1, "sequence": 23, "system_id": 1}, "message": {"airspeed": 0.08500000089406967, "alt": 15.429999351501465, "climb": 0.010993191041052341, "groundspeed": 0.06732139736413956, "heading": 118, "throttle": 0, "type": "VFR_HUD"}}}
{"packet_index": 2476, "message": {"header": {"component_id": 1, "sequence": 61, "system_id": 1}, "message": {"altitude": 32970, "latitude": 634405552, "longitude": 103484873, "time_usec": 7943367408, "type": "GPS_GLOBAL_ORIGIN"}}}
{"packet_index": 2477, "message": {"header": {"component_id": 1, "sequence": 62, "system_id": 1}, "message": {"altitude": 6860, "approach_x": 0.0, "approach_y": 0.0, "approach_z": 0.0, "latitude": 634405553, "longitude": 103484876, "q": [null, null, null, null], "time_usec": 7943367413, "type": "HOME_POSITION", "x": 0.011131884530186653, "y": 0.01493206899613142, "z": 26.10999870300293}}}
{"packet_index": 2519, "message": {"header": {"component_id": 1, "sequence": 90, "system_id": 1}, "message": {"airspeed": 0.07800000160932541, "alt": 15.329999923706055, "climb": 0.009050370194017887, "groundspeed": 0.08950294554233551, "heading": 118, "throttle": 0, "type": "VFR_HUD"}}}
{"packet_index": 2551, "message": {"header": {"component_id": 1, "sequence": 111, "system_id": 1}, "message": {"autopilot": {"type": "MAV_AUTOPILOT_ARDUPILOTMEGA"}, "base_mode": {"bits": 137}, "custom_mode": 15, "mavlink_version": 3, "mavtype": {"type": "MAV_TYPE_SURFACE_BOAT"}, "system_status": {"type": "MAV_STATE_ACTIVE"}, "type": "HEARTBEAT"}}}
{"packet_index": 2622, "message": {"header": {"component_id": 1, "sequence": 146, "system_id": 1}, "message": {"airspeed": 0.08000000566244125, "alt": 15.389999389648438, "climb": -0.036943309009075165, "groundspeed": 0.11117614805698395, "heading": 118, "throttle": 0, "type": "VFR_HUD"}}}
{"packet_index": 2729, "message": {"header": {"component_id": 1, "sequence": 208, "system_id": 1}, "message": {"airspeed": 0.1120000034570694, "alt": 15.460000038146973, "climb": -0.051888369023799896, "groundspeed": 0.09480907768011093, "heading": 118, "throttle": 0, "type": "VFR_HUD"}}}
{"packet_index": 2792, "message": {"header": {"component_id": 1, "sequence": 243, "system_id": 1}, "message": {"altitude": 32970, "latitude": 634405552, "longitude": 103484873, "time_usec": 7944367442, "type": "GPS_GLOBAL_ORIGIN"}}}
{"packet_index": 2793, "message": {"header": {"component_id": 1, "sequence": 244, "system_id": 1}, "message": {"altitude": 6860, "approach_x": 0.0, "approach_y": 0.0, "approach_z": 0.0, "latitude": 634405553, "longitude": 103484876, "q": [null, null, null, null], "time_usec": 7944367447, "type": "HOME_POSITION", "x": 0.011131884530186653, "y": 0.01493206899613142, "z": 26.10999870300293}}}
{"packet_index": 2838, "message": {"header": {"component_id": 1, "sequence": 19, "system_id": 1}, "message": {"airspeed": 0.09000000357627869, "alt": 15.359999656677246, "climb": -0.09195207804441452, "groundspeed": 0.06020812317728996, "heading": 117, "throttle": 0, "type": "VFR_HUD"}}}
{"packet_index": 2870, "message": {"header": {"component_id": 1, "sequence": 40, "system_id": 1}, "message": {"autopilot": {"type": "MAV_AUTOPILOT_ARDUPILOTMEGA"}, "base_mode": {"bits": 137}, "custom_mode": 15, "mavlink_version": 3, "mavtype": {"type": "MAV_TYPE_SURFACE_BOAT"}, "system_status": {"type": "MAV_STATE_ACTIVE"}, "type": "HEARTBEAT"}}}
{"packet_index": 2938, "message": {"header": {"component_id": 1, "sequence": 72, "system_id": 1}, "message": {"airspeed": 0.06599999964237213, "alt": 15.319999694824219, "climb": -0.07103455066680908, "groundspeed": 0.03733193874359131, "heading": 117, "throttle": 0, "type": "VFR_HUD"}}}
{"packet_index": 3045, "message": {"header": {"component_id": 1, "sequence": 134, "system_id": 1}, "message": {"airspeed": 0.024000000208616257, "alt": 15.420000076293945, "climb": 0.006495628040283918, "groundspeed": 0.0699932649731636, "heading": 117, "throttle": 0, "type": "VFR_HUD"}}}
{"packet_index": 3108, "message": {"header": {"component_id": 1, "sequence": 169, "system_id": 1}, "message": {"altitude": 32970, "latitude": 634405552, "longitude": 103484873, "time_usec": 7945367435, "type": "GPS_GLOBAL_ORIGIN"}}}
{"packet_index": 3109, "message": {"header": {"component_id": 1, "sequence": 170, "system_id": 1}, "message": {"altitude": 6860, "approach_x": 0.0, "approach_y": 0.0, "approach_z": 0.0, "latitude": 634405553, "longitude": 103484876, "q": [null, null, null, null], "time_usec": 7945367442, "type": "HOME_POSITION", "x": 0.011131884530186653, "y": 0.01493206899613142, "z": 26.10999870300293}}}
{"packet_index": 3154, "message": {"header": {"component_id": 1, "sequence": 201, "system_id": 1}, "message": {"airspeed": 0.0560000017285347, "alt": 15.369999885559082, "climb": -0.010031716898083687, "groundspeed": 0.08945047110319138, "heading": 117, "throttle": 0, "type": "VFR_HUD"}}}
{"packet_index": 3186, "message": {"header": {"component_id": 1, "sequence": 222, "system_id": 1}, "message": {"autopilot": {"type": "MAV_AUTOPILOT_ARDUPILOTMEGA"}, "base_mode": {"bits": 137}, "custom_mode": 15, "mavlink_version": 3, "mavtype": {"type": "MAV_TYPE_SURFACE_BOAT"}, "system_status": {"type": "MAV_STATE_ACTIVE"}, "type": "HEARTBEAT"}}}
{"packet_index": 3254, "message": {"header": {"component_id": 1, "sequence": 254, "system_id": 1}, "message": {"airspeed": 0.06599999964237213, "alt": 15.269999504089355, "climb": 0.004198267124593258, "groundspeed": 0.09945803135633469, "heading": 117, "throttle": 0, "type": "VFR_HUD"}}}
{"packet_index": 3361, "message": {"header": {"component_id": 1, "sequence": 61, "system_id": 1}, "message": {"airspeed": 0.07300000637769699, "alt": 15.309999465942383, "climb": 0.10778618603944778, "groundspeed": 0.08268073201179504, "heading": 117, "throttle": 4, "type": "VFR_HUD"}}}
{"packet_index": 3427, "message": {"header": {"component_id": 1, "sequence": 99, "system_id": 1}, "message": {"altitude": 32970, "latitude": 634405552, "longitude": 103484873, "time_usec": 7946367441, "type": "GPS_GLOBAL_ORIGIN"}}}
{"packet_index": 3428, "message": {"header": {"component_id": 1, "sequence": 100, "system_id": 1}, "message": {"altitude": 6860, "approach_x": 0.0, "approach_y": 0.0, "approach_z": 0.0, "latitude": 634405553, "longitude": 103484876, "q": [null, null, null, null], "time_usec": 7946367446, "type": "HOME_POSITION", "x": 0.011131884530186653, "y": 0.01493206899613142, "z": 26.10999870300293}}}
{"packet_index": 3471, "message": {"header": {"component_id": 1, "sequence": 128, "system_id": 1}, "message": {"airspeed": 0.08500000089406967, "alt": 15.329999923706055, "climb": -0.002535679377615452, "groundspeed": 0.15689347684383392, "heading": 118, "throttle": 4, "type": "VFR_HUD"}}}
{"packet_index": 3502, "message": {"header": {"component_id": 1, "sequence": 149, "system_id": 1}, "message": {"autopilot": {"type": "MAV_AUTOPILOT_ARDUPILOTMEGA"}, "base_mode": {"bits": 137}, "custom_mode": 15, "mavlink_version": 3, "mavtype": {"type": "MAV_TYPE_SURFACE_BOAT"}, "system_status": {"type": "MAV_STATE_ACTIVE"}, "type": "HEARTBEAT"}}}
{"packet_index": 3570, "message": {"header": {"component_id": 1, "sequence": 181, "system_id": 1}, "message": {"airspeed": 0.12600000202655792, "alt": 15.289999961853027, "climb": 0.0044639394618570805, "groundspeed": 0.19132931530475616, "heading": 123, "throttle": 8, "type": "VFR_HUD"}}}
{"packet_index": 3677, "message": {"header": {"component_id": 1, "sequence": 243, "system_id": 1}, "message": {"airspeed": 0.1720000058412552, "alt": 15.25, "climb": -0.13432009518146515, "groundspeed": 0.18980847299098969, "heading": 133, "throttle": 3, "type": "VFR_HUD"}}}
{"packet_index": 3743, "message": {"header": {"component_id": 1, "sequence": 25, "system_id": 1}, "message": {"altitude": 32970, "latitude": 634405552, "longitude": 103484873, "time_usec": 7947367540, "type": "GPS_GLOBAL_ORIGIN"}}}
{"packet_index": 3744, "message": {"header": {"component_id": 1, "sequence": 26, "system_id": 1}, "message": {"altitude": 6860, "approach_x": 0.0, "approach_y": 0.0, "approach_z": 0.0, "latitude": 634405553, "longitude": 103484876, "q": [null, null, null, null], "time_usec": 7947367545, "type": "HOME_POSITION", "x": 0.011131884530186653, "y": 0.01493206899613142, "z": 26.10999870300293}}}
{"packet_index": 3788, "message": {"header": {"component_id": 1, "sequence": 57, "system_id": 1}, "message": {"airspeed": 0.16500000655651093, "alt": 15.359999656677246, "climb": -0.06778648495674133, "groundspeed": 0.12559226155281067, "heading": 143, "throttle": 0, "type": "VFR_HUD"}}}
{"packet_index": 3822, "message": {"header": {"component_id": 1, "sequence": 78, "system_id": 1}, "message": {"autopilot": {"type": "MAV_AUTOPILOT_ARDUPILOTMEGA"}, "base_mode": {"bits": 137}, "custom_mode": 15, "mavlink_version": 3, "mavtype": {"type": "MAV_TYPE_SURFACE_BOAT"}, "system_status": {"type": "MAV_STATE_ACTIVE"}, "type": "HEARTBEAT"}}}
{"packet_index": 3889, "message": {"header": {"component_id": 1, "sequence": 110, "system_id": 1}, "message": {"airspeed": 0.1290000081062317, "alt": 15.369999885559082, "climb": -0.04770665243268013, "groundspeed": 0.10017036646604538, "heading": 156, "throttle": 0, "type": "VFR_HUD"}}}
{"packet_index": 3996, "message": {"header": {"component_id": 1, "sequence": 172, "system_id": 1}, "message": {"airspeed": 0.0950000062584877, "alt": 15.34999942779541, "climb": 0.03975073620676994, "groundspeed": 0.07657710462808609, "heading": 168, "throttle": 0, "type": "VFR_HUD"}}}
{"packet_index": 4059, "message": {"header": {"component_id": 1, "sequence": 207, "system_id": 1}, "message": {"altitude": 32970, "latitude": 634405552, "longitude": 103484873, "time_usec": 7948367379, "type": "GPS_GLOBAL_ORIGIN"}}}
{"packet_index": 4060, "message": {"header": {"component_id": 1, "sequence": 208, "system_id": 1}, "message": {"altitude": 6860, "approach_x": 0.0, "approach_y": 0.0, "approach_z": 0.0, "latitude": 634405553, "longitude": 103484876, "q": [null, null, null, null], "time_usec": 7948367386, "type": "HOME_POSITION", "x": 0.011131884530186653, "y": 0.01493206899613142, "z": 26.10999870300293}}}
{"packet_index": 4100, "message": {"header": {"component_id": 1, "sequence": 239, "system_id": 1}, "message": {"airspeed": 0.11500000208616257, "alt": 15.40999984741211, "climb": 0.04865824058651924, "groundspeed": 0.10608420521020889, "heading": 179, "throttle": 2, "type": "VFR_HUD"}}}
{"packet_index": 4137, "message": {"header": {"component_id": 1, "sequence": 4, "system_id": 1}, "message": {"autopilot": {"type": "MAV_AUTOPILOT_ARDUPILOTMEGA"}, "base_mode": {"bits": 137}, "custom_mode": 15, "mavlink_version": 3, "mavtype": {"type": "MAV_TYPE_SURFACE_BOAT"}, "system_status": {"type": "MAV_STATE_ACTIVE"}, "type": "HEARTBEAT"}}}
{"packet_index": 4205, "message": {"header": {"component_id": 1, "sequence": 36, "system_id": 1}, "message": {"airspeed": 0.07300000637769699, "alt": 15.449999809265137, "climb": 0.035270147025585175, "groundspeed": 0.03553551807999611, "heading": 191, "throttle": 3, "type": "VFR_HUD"}}}
{"packet_index": 4312, "message": {"header": {"component_id": 1, "sequence": 98, "system_id": 1}, "message": {"airspeed": 0.02800000086426735, "alt": 15.519999504089355, "climb": 0.05857806280255318, "groundspeed": 0.03548292815685272, "heading": 199, "throttle": 8, "type": "VFR_HUD"}}}
{"packet_index": 4378, "message": {"header": {"component_id": 1, "sequence": 136, "system_id": 1}, "message": {"altitude": 32970, "latitude": 634405552, "longitude": 103484873, "time_usec": 7949367446, "type": "GPS_GLOBAL_ORIGIN"}}}
{"packet_index": 4379, "message": {"header": {"component_id": 1, "sequence": 137, "system_id": 1}, "message": {"altitude": 6860, "approach_x": 0.0, "approach_y": 0.0, "approach_z": 0.0, "latitude": 634405553, "longitude": 103484876, "q": [null, null, null, null], "time_usec": 7949367451, "type": "HOME_POSITION", "x": 0.011131884530186653, "y": 0.01493206899613142, "z": 26.10999870300293}}}
{"packet_index": 4412, "message": {"header": {"component_id": 1, "sequence": 165, "system_id": 1}, "message": {"airspeed": 0.01600000075995922, "alt": 15.529999732971191, "climb": -0.03591349720954895, "groundspeed": 0.04343448951840401, "heading": 205, "throttle": 9, "type": "VFR_HUD"}}}
{"packet_index": 4453, "message": {"header": {"component_id": 1, "sequence": 186, "system_id": 1}, "message": {"autopilot": {"type": "MAV_AUTOPILOT_ARDUPILOTMEGA"}, "base_mode": {"bits": 137}, "custom_mode": 15, "mavlink_version": 3, "mavtype": {"type": "MAV_TYPE_SURFACE_BOAT"}, "system_status": {"type": "MAV_STATE_ACTIVE"}, "type": "HEARTBEAT"}}}
{"packet_index": 4521, "message": {"header": {"component_id": 1, "sequence": 218, "system_id": 1}, "message": {"airspeed": 0.032999999821186066, "alt": 15.579999923706055, "climb": 0.06338704377412796, "groundspeed": 0.11767634749412537, "heading": 208, "throttle": 2, "type": "VFR_HUD"}}}
{"packet_index": 4628, "message": {"header": {"component_id": 1, "sequence": 24, "system_id": 1}, "message": {"airspeed": 0.11800000816583633, "alt": 15.589999198913574, "climb": 0.02943793684244156, "groundspeed": 0.08907554298639297, "heading": 208, "throttle": 0, "type": "VFR_HUD"}}}
{"packet_index": 4694, "message": {"header": {"component_id": 1, "sequence": 62, "system_id": 1}, "message": {"altitude": 32970, "latitude": 634405552, "longitude": 103484873, "time_usec": 7950367568, "type": "GPS_GLOBAL_ORIGIN"}}}
{"packet_index": 4695, "message": {"header": {"component_id": 1, "sequence": 63, "system_id": 1}, "message": {"altitude": 6860, "approach_x": 0.0, "approach_y": 0.0, "approach_z": 0.0, "latitude": 634405553, "longitude": 103484876, "q": [null, null, null, null], "time_usec": 7950367573, "type": "HOME_POSITION", "x": 0.011131884530186653, "y": 0.01493206899613142, "z": 26.10999870300293}}}
{"packet_index": 4734, "message": {"header": {"component_id": 1, "sequence": 91, "system_id": 1}, "message": {"airspeed": 0.09200000762939453, "alt": 15.5, "climb": -0.07043452560901642, "groundspeed": 0.08691743016242981, "heading": 207, "throttle": 1, "type": "VFR_HUD"}}}
{"packet_index": 4836, "message": {"header": {"component_id": 1, "sequence": 151, "system_id": 1}, "message": {"airspeed": 0.09300000220537186, "alt": 15.5, "climb": 0.0629153847694397, "groundspeed": 0.046429622918367386, "heading": 205, "throttle": 0, "type": "VFR_HUD"}}}
{"packet_index": 4946, "message": {"header": {"component_id": 1, "sequence": 216, "system_id": 1}, "message": {"airspeed": 0.05700000375509262, "alt": 15.429999351501465, "climb": -0.008624110370874405, "groundspeed": 0.0629878118634224, "heading": 203, "throttle": 1, "type": "VFR_HUD"}}}
{"packet_index": 5009, "message": {"header": {"component_id": 1, "sequence": 251, "system_id": 1}, "message": {"altitude": 32970, "latitude": 634405552, "longitude": 103484873, "time_usec": 7951367425, "type": "GPS_GLOBAL_ORIGIN"}}}
{"packet_index": 5010, "message": {"header": {"component_id": 1, "sequence": 252, "system_id": 1}, "message": {"altitude": 6860, "approach_x": 0.0, "approach_y": 0.0, "approach_z": 0.0, "latitude": 634405553, "longitude": 103484876, "q": [null, null, null, null], "time_usec": 7951367432, "type": "HOME_POSITION", "x": 0.011131884530186653, "y": 0.01493206899613142, "z": 26.10999870300293}}}
{"packet_index": 5055, "message": {"header": {"component_id": 1, "sequence": 27, "system_id": 1}, "message": {"airspeed": 0.09000000357627869, "alt": 15.369999885559082, "climb": -0.041418932378292084, "groundspeed": 0.10116644948720932, "heading": 201, "throttle": 1, "type": "VFR_HUD"}}}
{"packet_index": 5075, "message": {"header": {"component_id": 1, "sequence": 45, "system_id": 1}, "message": {"autopilot": {"type": "MAV_AUTOPILOT_ARDUPILOTMEGA"}, "base_mode": {"bits": 137}, "custom_mode": 15, "mavlink_version": 3, "mavtype": {"type": "MAV_TYPE_SURFACE_BOAT"}, "system_status": {"type": "MAV_STATE_ACTIVE"}, "type": "HEARTBEAT"}}}
{"packet_index": 5155, "message": {"header": {"component_id": 1, "sequence": 80, "system_id": 1}, "message": {"airspeed": 0.10600000619888306, "alt": 15.380000114440918, "climb": -0.043695561587810516, "groundspeed": 0.10314696282148361, "heading": 200, "throttle": 0, "type": "VFR_HUD"}}}
{"packet_index": 5272, "message": {"header": {"component_id": 1, "sequence": 142, "system_id": 1}, "message": {"airspeed": 0.10900000482797623, "alt": 15.319999694824219, "climb": 0.025348059833049774, "groundspeed": 0.09835118055343628, "heading": 198, "throttle": 3, "type": "VFR_HUD"}}}
{"packet_index": 5325, "message": {"header": {"component_id": 1, "sequence": 177, "system_id": 1}, "message": {"altitude": 32970, "latitude": 634405552, "longitude": 103484873, "time_usec": 7952367383, "type": "GPS_GLOBAL_ORIGIN"}}}
{"packet_index": 5326, "message": {"header": {"component_id": 1, "sequence": 178, "system_id": 1}, "message": {"altitude": 6860, "approach_x": 0.0, "approach_y": 0.0, "approach_z": 0.0, "latitude": 634405553, "longitude": 103484876, "q": [null, null, null, null], "time_usec": 7952367393, "type": "HOME_POSITION", "x": 0.011131884530186653, "y": 0.01493206899613142, "z": 26.10999870300293}}}
{"packet_index": 5371, "message": {"header": {"component_id": 1, "sequence": 209, "system_id": 1}, "message": {"airspeed": 0.11400000751018524, "alt": 15.299999237060547, "climb": 0.021227747201919556, "groundspeed": 0.0633201003074646, "heading": 196, "throttle": 5, "type": "VFR_HUD"}}}
{"packet_index": 5394, "message": {"header": {"component_id": 1, "sequence": 230, "system_id": 1}, "message": {"autopilot": {"type": "MAV_AUTOPILOT_ARDUPILOTMEGA"}, "base_mode": {"bits": 137}, "custom_mode": 15, "mavlink_version": 3, "mavtype": {"type": "MAV_TYPE_SURFACE_BOAT"}, "system_status": {"type": "MAV_STATE_ACTIVE"}, "type": "HEARTBEAT"}}}
{"packet_index": 5471, "message": {"header": {"component_id": 1, "sequence": 6, "system_id": 1}, "message": {"airspeed": 0.11500000208616257, "alt": 15.329999923706055, "climb": 0.04596802219748497, "groundspeed": 0.015820441767573357, "heading": 194, "throttle": 5, "type": "VFR_HUD"}}}
{"packet_index": 5512, "message": {"header": {"component_id": 1, "sequence": 28, "system_id": 1}, "message": {"autopilot": {"type": "MAV_AUTOPILOT_ARDUPILOTMEGA"}, "base_mode": {"bits": 137}, "custom_mode": 10, "mavlink_version": 3, "mavtype": {"type": "MAV_TYPE_SURFACE_BOAT"}, "system_status": {"type": "MAV_STATE_ACTIVE"}, "type": "HEARTBEAT"}}}
{"packet_index": 5520, "message": {"header": {"component_id": 1, "sequence": 48, "system_id": 1}, "message": {"chunk_seq": 0, "id": 0, "severity": {"type": "MAV_SEVERITY_INFO"}, "text": ["M", "i", "s", "s", "i", "o", "n", ":", " ", "1", " ", "W", "P", "\u0000", "\u0000", "\u0000", "\u0000", "\u0000", "\u0000", "\u0000", "\u0000", "\u0000", "\u0000", "\u0000", "\u0000", "\u0000", "\u0000", "\u0000", "\u0000", "\u0000", "\u0000", "\u0000", "\u0000", "\u0000", "\u0000", "\u0000", "\u0000", "\u0000", "\u0000", "\u0000", "\u0000", "\u0000", "\u0000", "\u0000", "\u0000", "\u0000", "\u0000", "\u0000", "\u0000", "\u0000"], "type": "STATUSTEXT"}}}
{"packet_index": 5580, "message": {"header": {"component_id": 1, "sequence": 71, "system_id": 1}, "message": {"airspeed": 0.03400000184774399, "alt": 15.299999237060547, "climb": -0.05326169729232788, "groundspeed": 0.04560929536819458, "heading": 193, "throttle": 4, "type": "VFR_HUD"}}}
{"packet_index": 5646, "message": {"header": {"component_id": 1, "sequence": 109, "system_id": 1}, "message": {"altitude": 32970, "latitude": 634405552, "longitude": 103484873, "time_usec": 7953367460, "type": "GPS_GLOBAL_ORIGIN"}}}
{"packet_index": 5647, "message": {"header": {"component_id": 1, "sequence": 110, "system_id": 1}, "message": {"altitude": 6860, "approach_x": 0.0, "approach_y": 0.0, "approach_z": 0.0, "latitude": 634405553, "longitude": 103484876, "q": [null, null, null, null], "time_usec": 7953367465, "type": "HOME_POSITION", "x": 0.011131884530186653, "y": 0.01493206899613142, "z": 26.10999870300293}}}
{"packet_index": 5680, "message": {"header": {"component_id": 1, "sequence": 138, "system_id": 1}, "message": {"airspeed": 0.018000001087784767, "alt": 15.299999237060547, "climb": -0.05946232005953789, "groundspeed": 0.023167617619037628, "heading": 191, "throttle": 7, "type": "VFR_HUD"}}}
{"packet_index": 5712, "message": {"header": {"component_id": 1, "sequence": 159, "system_id": 1}, "message": {"autopilot": {"type": "MAV_AUTOPILOT_ARDUPILOTMEGA"}, "base_mode": {"bits": 137}, "custom_mode": 10, "mavlink_version": 3, "mavtype": {"type": "MAV_TYPE_SURFACE_BOAT"}, "system_status": {"type": "MAV_STATE_ACTIVE"}, "type": "HEARTBEAT"}}}
{"packet_index": 5789, "message": {"header": {"component_id": 1, "sequence": 191, "system_id": 1}, "message": {"airspeed": 0.009000000543892384, "alt": 15.329999923706055, "climb": -0.05599575489759445, "groundspeed": 0.09618113189935684, "heading": 188, "throttle": 4, "type": "VFR_HUD"}}}
{"packet_index": 5895, "message": {"header": {"component_id": 1, "sequence": 253, "system_id": 1}, "message": {"airspeed": 0.10500000417232513, "alt": 15.329999923706055, "climb": -0.03553206846117973, "groundspeed": 0.1674484759569168, "heading": 185, "throttle": 9, "type": "VFR_HUD"}}}
{"packet_index": 5962, "message": {"header": {"component_id": 1, "sequence": 35, "system_id": 1}, "message": {"altitude": 32970, "latitude": 634405552, "longitude": 103484873, "time_usec": 7954367509, "type": "GPS_GLOBAL_ORIGIN"}}}
{"packet_index": 5963, "message": {"header": {"component_id": 1, "sequence": 36, "system_id": 1}, "message": {"altitude": 6860, "approach_x": 0.0, "approach_y": 0.0, "approach_z": 0.0, "latitude": 634405553, "longitude": 103484876, "q": [null, null, null, null], "time_usec": 7954367514, "type": "HOME_POSITION", "x": 0.011131884530186653, "y": 0.01493206899613142, "z": 26.10999870300293}}}
{"packet_index": 6000, "message": {"header": {"component_id": 1, "sequence": 64, "system_id": 1}, "message": {"airspeed": 0.1980000138282776, "alt": 15.309999465942383, "climb": -0.05641957372426987, "groundspeed": 0.27836501598358154, "heading": 181, "throttle": 13, "type": "VFR_HUD"}}}
{"packet_index": 6032, "message": {"header": {"component_id": 1, "sequence": 85, "system_id": 1}, "message": {"autopilot": {"type": "MAV_AUTOPILOT_ARDUPILOTMEGA"}, "base_mode": {"bits": 137}, "custom_mode": 10, "mavlink_version": 3, "mavtype": {"type": "MAV_TYPE_SURFACE_BOAT"}, "system_status": {"type": "MAV_STATE_ACTIVE"}, "type": "HEARTBEAT"}}}
{"packet_index": 6108, "message": {"header": {"component_id": 1, "sequence": 120, "system_id": 1}, "message": {"airspeed": 0.27300000190734863, "alt": 15.319999694824219, "climb": 0.0523231215775013, "groundspeed": 0.38366690278053284, "heading": 176, "throttle": 24, "type": "VFR_HUD"}}}
{"packet_index": 6216, "message": {"header": {"component_id": 1, "sequence": 182, "system_id": 1}, "message": {"airspeed": 0.3960000276565552, "alt": 15.380000114440918, "climb": -0.005771951284259558, "groundspeed": 0.5172030925750732, "heading": 172, "throttle": 25, "type": "VFR_HUD"}}}
{"packet_index": 6278, "message": {"header": {"component_id": 1, "sequence": 217, "system_id": 1}, "message": {"altitude": 32970, "latitude": 634405552, "longitude": 103484873, "time_usec": 7955367427, "type": "GPS_GLOBAL_ORIGIN"}}}
{"packet_index": 6279, "message": {"header": {"component_id": 1, "sequence": 218, "system_id": 1}, "message": {"altitude": 6860, "approach_x": 0.0, "approach_y": 0.0, "approach_z": 0.0, "latitude": 634405553, "longitude": 103484876, "q": [null, null, null, null], "time_usec": 7955367433, "type": "HOME_POSITION", "x": 0.011131884530186653, "y": 0.01493206899613142, "z": 26.10999870300293}}}
{"packet_index": 6324, "message": {"header": {"component_id": 1, "sequence": 249, "system_id": 1}, "message": {"airspeed": 0.6000000238418579, "alt": 15.399999618530273, "climb": 0.06770630180835724, "groundspeed": 0.6017035245895386, "heading": 171, "throttle": 25, "type": "VFR_HUD"}}}
{"packet_index": 6344, "message": {"header": {"component_id": 1, "sequence": 11, "system_id": 1}, "message": {"autopilot": {"type": "MAV_AUTOPILOT_ARDUPILOTMEGA"}, "base_mode": {"bits": 137}, "custom_mode": 10, "mavlink_version": 3, "mavtype": {"type": "MAV_TYPE_SURFACE_BOAT"}, "system_status": {"type": "MAV_STATE_ACTIVE"}, "type": "HEARTBEAT"}}}
{"packet_index": 6424, "message": {"header": {"component_id": 1, "sequence": 46, "system_id": 1}, "message": {"airspeed": 0.6100000143051147, "alt": 15.4399995803833, "climb": 0.08706529438495636, "groundspeed": 0.6814327239990234, "heading": 170, "throttle": 22, "type": "VFR_HUD"}}}
{"packet_index": 6530, "message": {"header": {"component_id": 1, "sequence": 109, "system_id": 1}, "message": {"airspeed": 0.7260000109672546, "alt": 15.489999771118164, "climb": -0.017150312662124634, "groundspeed": 0.7055646777153015, "heading": 170, "throttle": 19, "type": "VFR_HUD"}}}
{"packet_index": 6597, "message": {"header": {"component_id": 1, "sequence": 147, "system_id": 1}, "message": {"altitude": 32970, "latitude": 634405552, "longitude": 103484873, "time_usec": 7956367449, "type": "GPS_GLOBAL_ORIGIN"}}}
{"packet_index": 6598, "message": {"header": {"component_id": 1, "sequence": 148, "system_id": 1}, "message": {"altitude": 6860, "approach_x": 0.0, "approach_y": 0.0, "approach_z": 0.0, "latitude": 634405553, "longitude": 103484876, "q": [null, null, null, null], "time_usec": 7956367454, "type": "HOME_POSITION", "x": 0.011131884530186653, "y": 0.01493206899613142, "z": 26.10999870300293}}}
{"packet_index": 6631, "message": {"header": {"component_id": 1, "sequence": 176, "system_id": 1}, "message": {"airspeed": 0.7130000591278076, "alt": 15.65999984741211, "climb": 0.08709803968667984, "groundspeed": 0.6890333294868469, "heading": 170, "throttle": 20, "type": "VFR_HUD"}}}
{"packet_index": 6663, "message": {"header": {"component_id": 1, "sequence": 197, "system_id": 1}, "message": {"autopilot": {"type": "MAV_AUTOPILOT_ARDUPILOTMEGA"}, "base_mode": {"bits": 137}, "custom_mode": 10, "mavlink_version": 3, "mavtype": {"type": "MAV_TYPE_SURFACE_BOAT"}, "system_status": {"type": "MAV_STATE_ACTIVE"}, "type": "HEARTBEAT"}}}
{"packet_index": 6740, "message": {"header": {"component_id": 1, "sequence": 229, "system_id": 1}, "message": {"airspeed": 0.7050000429153442, "alt": 15.670000076293945, "climb": -0.07326231896877289, "groundspeed": 0.7034937143325806, "heading": 171, "throttle": 19, "type": "VFR_HUD"}}}
{"packet_index": 6846, "message": {"header": {"component_id": 1, "sequence": 35, "system_id": 1}, "message": {"airspeed": 0.7210000157356262, "alt": 15.75, "climb": 0.10714036971330643, "groundspeed": 0.6612629294395447, "heading": 172, "throttle": 24, "type": "VFR_HUD"}}}
{"packet_index": 6913, "message": {"header": {"component_id": 1, "sequence": 73, "system_id": 1}, "message": {"altitude": 32970, "latitude": 634405552, "longitude": 103484873, "time_usec": 7957367503, "type": "GPS_GLOBAL_ORIGIN"}}}
{"packet_index": 6914, "message": {"header": {"component_id": 1, "sequence": 74, "system_id": 1}, "message": {"altitude": 6860, "approach_x": 0.0, "approach_y": 0.0, "approach_z": 0.0, "latitude": 634405553, "longitude": 103484876, "q": [null, null, null, null], "time_usec": 7957367508, "type": "HOME_POSITION", "x": 0.011131884530186653, "y": 0.01493206899613142, "z": 26.10999870300293}}}
{"packet_index": 6947, "message": {"header": {"component_id": 1, "sequence": 102, "system_id": 1}, "message": {"airspeed": 0.6600000262260437, "alt": 15.769999504089355, "climb": -0.032942432910203934, "groundspeed": 0.6954935789108276, "heading": 174, "throttle": 22, "type": "VFR_HUD"}}}
{"packet_index": 6979, "message": {"header": {"component_id": 1, "sequence": 123, "system_id": 1}, "message": {"autopilot": {"type": "MAV_AUTOPILOT_ARDUPILOTMEGA"}, "base_mode": {"bits": 137}, "custom_mode": 10, "mavlink_version": 3, "mavtype": {"type": "MAV_TYPE_SURFACE_BOAT"}, "system_status": {"type": "MAV_STATE_ACTIVE"}, "type": "HEARTBEAT"}}}
{"packet_index": 7056, "message": {"header": {"component_id": 1, "sequence": 155, "system_id": 1}, "message": {"airspeed": 0.7150000333786011, "alt": 15.789999961853027, "climb": 0.02075238712131977, "groundspeed": 0.6945077776908875, "heading": 175, "throttle": 23, "type": "VFR_HUD"}}}
{"packet_index": 7162, "message": {"header": {"component_id": 1, "sequence": 217, "system_id": 1}, "message": {"airspeed": 0.6810000538825989, "alt": 15.84999942779541, "climb": 0.03800041973590851, "groundspeed": 0.7105952501296997, "heading": 177, "throttle": 22, "type": "VFR_HUD"}}}
{"packet_index": 7229, "message": {"header": {"component_id": 1, "sequence": 255, "system_id": 1}, "message": {"altitude": 32970, "latitude": 634405552, "longitude": 103484873, "time_usec": 7958367510, "type": "GPS_GLOBAL_ORIGIN"}}}
{"packet_index": 7230, "message": {"header": {"component_id": 1, "sequence": 0, "system_id": 1}, "message": {"altitude": 6860, "approach_x": 0.0, "approach_y": 0.0, "approach_z": 0.0, "latitude": 634405553, "longitude": 103484876, "q": [null, null, null, null], "time_usec": 7958367516, "type": "HOME_POSITION", "x": 0.011131884530186653, "y": 0.01493206899613142, "z": 26.10999870300293}}}
{"packet_index": 7275, "message": {"header": {"component_id": 1, "sequence": 31, "system_id": 1}, "message": {"airspeed": 0.7230000495910645, "alt": 15.859999656677246, "climb": 0.0747503712773323, "groundspeed": 0.7303115725517273, "heading": 180, "throttle": 21, "type": "VFR_HUD"}}}
{"packet_index": 7295, "message": {"header": {"component_id": 1, "sequence": 49, "system_id": 1}, "message": {"autopilot": {"type": "MAV_AUTOPILOT_ARDUPILOTMEGA"}, "base_mode": {"bits": 137}, "custom_mode": 10, "mavlink_version": 3, "mavtype": {"type": "MAV_TYPE_SURFACE_BOAT"}, "system_status": {"type": "MAV_STATE_ACTIVE"}, "type": "HEARTBEAT"}}}
{"packet_index": 7375, "message": {"header": {"component_id": 1, "sequence": 84, "system_id": 1}, "message": {"airspeed": 0.6890000104904175, "alt": 15.84999942779541, "climb": 0.05509234964847565, "groundspeed": 0.7069919109344482, "heading": 182, "throttle": 20, "type": "VFR_HUD"}}}
{"packet_index": 7481, "message": {"header": {"component_id": 1, "sequence": 146, "system_id": 1}, "message": {"airspeed": 0.7090000510215759, "alt": 15.829999923706055, "climb": 0.13767842948436737, "groundspeed": 0.6914956569671631, "heading": 184, "throttle": 13, "type": "VFR_HUD"}}}
{"packet_index": 7548, "message": {"header": {"component_id": 1, "sequence": 184, "system_id": 1}, "message": {"altitude": 32970, "latitude": 634405552, "longitude": 103484873, "time_usec": 7959367564, "type": "GPS_GLOBAL_ORIGIN"}}}
{"packet_index": 7549, "message": {"header": {"component_id": 1, "sequence": 185, "system_id": 1}, "message": {"altitude": 6860, "approach_x": 0.0, "approach_y": 0.0, "approach_z": 0.0, "latitude": 634405553, "longitude": 103484876, "q": [null, null, null, null], "time_usec": 7959367571, "type": "HOME_POSITION", "x": 0.011131884530186653, "y": 0.01493206899613142, "z": 26.10999870300293}}}
{"packet_index": 7582, "message": {"header": {"component_id": 1, "sequence": 213, "system_id": 1}, "message": {"airspeed": 0.7270000576972961, "alt": 15.829999923706055, "climb": 0.07486928999423981, "groundspeed": 0.6505502462387085, "heading": 188, "throttle": 6, "type": "VFR_HUD"}}}
{"packet_index": 7614, "message": {"header": {"component_id": 1, "sequence": 234, "system_id": 1}, "message": {"autopilot": {"type": "MAV_AUTOPILOT_ARDUPILOTMEGA"}, "base_mode": {"bits": 137}, "custom_mode": 10, "mavlink_version": 3, "mavtype": {"type": "MAV_TYPE_SURFACE_BOAT"}, "system_status": {"type": "MAV_STATE_ACTIVE"}, "type": "HEARTBEAT"}}}
{"packet_index": 7691, "message": {"header": {"component_id": 1, "sequence": 10, "system_id": 1}, "message": {"airspeed": 0.6950000524520874, "alt": 15.869999885559082, "climb": 0.1371612697839737, "groundspeed": 0.36609455943107605, "heading": 194, "throttle": 6, "type": "VFR_HUD"}}}
{"packet_index": 7797, "message": {"header": {"component_id": 1, "sequence": 72, "system_id": 1}, "message": {"airspeed": 0.4830000102519989, "alt": 15.799999237060547, "climb": 0.09302660822868347, "groundspeed": 0.2742878794670105, "heading": 200, "throttle": 12, "type": "VFR_HUD"}}}
{"packet_index": 7864, "message": {"header": {"component_id": 1, "sequence": 110, "system_id": 1}, "message": {"altitude": 32970, "latitude": 634405552, "longitude": 103484873, "time_usec": 7960367575, "type": "GPS_GLOBAL_ORIGIN"}}}
{"packet_index": 7865, "message": {"header": {"component_id": 1, "sequence": 111, "system_id": 1}, "message": {"altitude": 6860, "approach_x": 0.0, "approach_y": 0.0, "approach_z": 0.0, "latitude": 634405553, "longitude": 103484876, "q": [null, null, null, null], "time_usec": 7960367580, "type": "HOME_POSITION", "x": 0.011131884530186653, "y": 0.01493206899613142, "z": 26.10999870300293}}}
{"packet_index": 7898, "message": {"header": {"component_id": 1, "sequence": 139, "system_id": 1}, "message": {"airspeed": 0.320000022649765, "alt": 15.6899995803833, "climb": -0.07165353000164032, "groundspeed": 0.15118113160133362, "heading": 207, "throttle": 3, "type": "VFR_HUD"}}}
{"packet_index": 7930, "message": {"header": {"component_id": 1, "sequence": 160, "system_id": 1}, "message": {"autopilot": {"type": "MAV_AUTOPILOT_ARDUPILOTMEGA"}, "base_mode": {"bits": 137}, "custom_mode": 10, "mavlink_version": 3, "mavtype": {"type": "MAV_TYPE_SURFACE_BOAT"}, "system_status": {"type": "MAV_STATE_ACTIVE"}, "type": "HEARTBEAT"}}}
{"packet_index": 7979, "message": {"header": {"component_id": 1, "sequence": 183, "system_id": 1}, "message": {"chunk_seq": 0, "id": 0, "severity": {"type": "MAV_SEVERITY_INFO"}, "text": ["R", "e", "a", "c", "h", "e", "d", " ", "w", "a", "y", "p", "o", "i", "n", "t", " ", "#", "1", "\u0000", "\u0000", "\u0000", "\u0000", "\u0000", "\u0000", "\u0000", "\u0000", "\u0000", "\u0000", "\u0000", "\u0000", "\u0000", "\u0000", "\u0000", "\u0000", "\u0000", "\u0000", "\u0000", "\u0000", "\u0000", "\u0000", "\u0000", "\u0000", "\u0000", "\u0000", "\u0000", "\u0000", "\u0000", "\u0000", "\u0000"], "type": "STATUSTEXT"}}}
{"packet_index": 7980, "message": {"header": {"component_id": 1, "sequence": 184, "system_id": 1}, "message": {"chunk_seq": 0, "id": 0, "severity": {"type": "MAV_SEVERITY_INFO"}, "text": ["M", "i", "s", "s", "i", "o", "n", ":", " ", "2", " ", "W", "P", "\u0000", "\u0000", "\u0000", "\u0000", "\u0000", "\u0000", "\u0000", "\u0000", "\u0000", "\u0000", "\u0000", "\u0000", "\u0000", "\u0000", "\u0000", "\u0000", "\u0000", "\u0000", "\u0000", "\u0000", "\u0000", "\u0000", "\u0000", "\u0000", "\u0000", "\u0000", "\u0000", "\u0000", "\u0000", "\u0000", "\u0000", "\u0000", "\u0000", "\u0000", "\u0000", "\u0000", "\u0000"], "type": "STATUSTEXT"}}}
{"packet_index": 8007, "message": {"header": {"component_id": 1, "sequence": 192, "system_id": 1}, "message": {"airspeed": 0.24500000476837158, "alt": 15.609999656677246, "climb": -0.05537767335772514, "groundspeed": 0.15502382814884186, "heading": 213, "throttle": 0, "type": "VFR_HUD"}}}
{"packet_index": 8115, "message": {"header": {"component_id": 1, "sequence": 1, "system_id": 1}, "message": {"airspeed": 0.16200000047683716, "alt": 15.50999927520752, "climb": -0.09383044391870499, "groundspeed": 0.21457742154598236, "heading": 220, "throttle": 0, "type": "VFR_HUD"}}}
{"packet_index": 8182, "message": {"header": {"component_id": 1, "sequence": 39, "system_id": 1}, "message": {"altitude": 32970, "latitude": 634405552, "longitude": 103484873, "time_usec": 7961367480, "type": "GPS_GLOBAL_ORIGIN"}}}
{"packet_index": 8183, "message": {"header": {"component_id": 1, "sequence": 40, "system_id": 1}, "message": {"altitude": 6860, "approach_x": 0.0, "approach_y": 0.0, "approach_z": 0.0, "latitude": 634405553, "longitude": 103484876, "q": [null, null, null, null], "time_usec": 7961367494, "type": "HOME_POSITION", "x": 0.011131884530186653, "y": 0.01493206899613142, "z": 26.10999870300293}}}
{"packet_index": 8218, "message": {"header": {"component_id": 1, "sequence": 68, "system_id": 1}, "message": {"airspeed": 0.10400000214576721, "alt": 15.5, "climb": -0.083224818110466, "groundspeed": 0.18844074010849, "heading": 226, "throttle": 0, "type": "VFR_HUD"}}}
{"packet_index": 8257, "message": {"header": {"component_id": 1, "sequence": 89, "system_id": 1}, "message": {"autopilot": {"type": "MAV_AUTOPILOT_ARDUPILOTMEGA"}, "base_mode": {"bits": 137}, "custom_mode": 10, "mavlink_version": 3, "mavtype": {"type": "MAV_TYPE_SURFACE_BOAT"}, "system_status": {"type": "MAV_STATE_ACTIVE"}, "type": "HEARTBEAT"}}}
{"packet_index": 8323, "message": {"header": {"component_id": 1, "sequence": 118, "system_id": 1}, "message": {"airspeed": 0.06400000303983688, "alt": 15.389999389648438, "climb": -0.06150040775537491, "groundspeed": 0.18393835425376892, "heading": 232, "throttle": 0, "type": "VFR_HUD"}}}
{"packet_index": 8434, "message": {"header": {"component_id": 1, "sequence": 186, "system_id": 1}, "message": {"airspeed": 0.052000001072883606, "alt": 15.389999389648438, "climb": 0.08318803459405899, "groundspeed": 0.14388732612133026, "heading": 239, "throttle": 0, "type": "VFR_HUD"}}}
{"packet_index": 8508, "message": {"header": {"component_id": 1, "sequence": 221, "system_id": 1}, "message": {"altitude": 32970, "latitude": 634405552, "longitude": 103484873, "time_usec": 7962367606, "type": "GPS_GLOBAL_ORIGIN"}}}
{"packet_index": 8509, "message": {"header": {"component_id": 1, "sequence": 222, "system_id": 1}, "message": {"altitude": 6860, "approach_x": 0.0, "approach_y": 0.0, "approach_z": 0.0, "latitude": 634405553, "longitude": 103484876, "q": [null, null, null, null], "time_usec": 7962367613, "type": "HOME_POSITION", "x": 0.011131884530186653, "y": 0.01493206899613142, "z": 26.10999870300293}}}
{"packet_index": 8544, "message": {"header": {"component_id": 1, "sequence": 253, "system_id": 1}, "message": {"airspeed": 0.032999999821186066, "alt": 15.329999923706055, "climb": -0.012735330499708652, "groundspeed": 0.09573592990636826, "heading": 246, "throttle": 0, "type": "VFR_HUD"}}}
{"packet_index": 8567, "message": {"header": {"component_id": 1, "sequence": 18, "system_id": 1}, "message": {"autopilot": {"type": "MAV_AUTOPILOT_ARDUPILOTMEGA"}, "base_mode": {"bits": 137}, "custom_mode": 10, "mavlink_version": 3, "mavtype": {"type": "MAV_TYPE_SURFACE_BOAT"}, "system_status": {"type": "MAV_STATE_ACTIVE"}, "type": "HEARTBEAT"}}}
{"packet_index": 8643, "message": {"header": {"component_id": 1, "sequence": 47, "system_id": 1}, "message": {"airspeed": 0.03800000250339508, "alt": 15.269999504089355, "climb": -0.003533848561346531, "groundspeed": 0.05113663896918297, "heading": 252, "throttle": 0, "type": "VFR_HUD"}}}
{"packet_index": 8750, "message": {"header": {"component_id": 1, "sequence": 112, "system_id": 1}, "message": {"airspeed": 0.07100000232458115, "alt": 15.25999927520752, "climb": 0.009347647428512573, "groundspeed": 0.0569809190928936, "heading": 259, "throttle": 0, "type": "VFR_HUD"}}}
{"packet_index": 8817, "message": {"header": {"component_id": 1, "sequence": 150, "system_id": 1}, "message": {"altitude": 32970, "latitude": 634405552, "longitude": 103484873, "time_usec": 7963367432, "type": "GPS_GLOBAL_ORIGIN"}}}
{"packet_index": 8818, "message": {"header": {"component_id": 1, "sequence": 151, "system_id": 1}, "message": {"altitude": 6860, "approach_x": 0.0, "approach_y": 0.0, "approach_z": 0.0, "latitude": 634405553, "longitude": 103484876, "q": [null, null, null, null], "time_usec": 7963367437, "type": "HOME_POSITION", "x": 0.011131884530186653, "y": 0.01493206899613142, "z": 26.10999870300293}}}
{"packet_index": 8851, "message": {"header": {"component_id": 1, "sequence": 179, "system_id": 1}, "message": {"airspeed": 0.11600000411272049, "alt": 15.299999237060547, "climb": -0.045914940536022186, "groundspeed": 0.07074762135744095, "heading": 267, "throttle": 0, "type": "VFR_HUD"}}}
{"packet_index": 8883, "message": {"header": {"component_id": 1, "sequence": 200, "system_id": 1}, "message": {"autopilot": {"type": "MAV_AUTOPILOT_ARDUPILOTMEGA"}, "base_mode": {"bits": 137}, "custom_mode": 10, "mavlink_version": 3, "mavtype": {"type": "MAV_TYPE_SURFACE_BOAT"}, "system_status": {"type": "MAV_STATE_ACTIVE"}, "type": "HEARTBEAT"}}}
{"packet_index": 8959, "message": {"header": {"component_id": 1, "sequence": 229, "system_id": 1}, "message": {"airspeed": 0.046000003814697266, "alt": 15.319999694824219, "climb": -0.10418303310871124, "groundspeed": 0.08196558058261871, "heading": 273, "throttle": 0, "type": "VFR_HUD"}}}
{"packet_index": 9066, "message": {"header": {"component_id": 1, "sequence": 38, "system_id": 1}, "message": {"airspeed": 0.07200000435113907, "alt": 15.329999923706055, "climb": -0.11606339365243912, "groundspeed": 0.09946601837873459, "heading": 279, "throttle": 0, "type": "VFR_HUD"}}}
{"packet_index": 9133, "message": {"header": {"component_id": 1, "sequence": 76, "system_id": 1}, "message": {"altitude": 32970, "latitude": 634405552, "longitude": 103484873, "time_usec": 7964367423, "type": "GPS_GLOBAL_ORIGIN"}}}
{"packet_index": 9134, "message": {"header": {"component_id": 1, "sequence": 77, "system_id": 1}, "message": {"altitude": 6860, "approach_x": 0.0, "approach_y": 0.0, "approach_z": 0.0, "latitude": 634405553, "longitude": 103484876, "q": [null, null, null, null], "time_usec": 7964367427, "type": "HOME_POSITION", "x": 0.011131884530186653, "y": 0.01493206899613142, "z": 26.10999870300293}}}
{"packet_index": 9167, "message": {"header": {"component_id": 1, "sequence": 105, "system_id": 1}, "message": {"airspeed": 0.07200000435113907, "alt": 15.380000114440918, "climb": -0.05442674458026886, "groundspeed": 0.1130891963839531, "heading": 286, "throttle": 0, "type": "VFR_HUD"}}}
{"packet_index": 9199, "message": {"header": {"component_id": 1, "sequence": 126, "system_id": 1}, "message": {"autopilot": {"type": "MAV_AUTOPILOT_ARDUPILOTMEGA"}, "base_mode": {"bits": 137}, "custom_mode": 10, "mavlink_version": 3, "mavtype": {"type": "MAV_TYPE_SURFACE_BOAT"}, "system_status": {"type": "MAV_STATE_ACTIVE"}, "type": "HEARTBEAT"}}}
{"packet_index": 9275, "message": {"header": {"component_id": 1, "sequence": 155, "system_id": 1}, "message": {"airspeed": 0.08500000089406967, "alt": 15.40999984741211, "climb": -0.005431418307125568, "groundspeed": 0.105343297123909, "heading": 292, "throttle": 0, "type": "VFR_HUD"}}}
{"packet_index": 9382, "message": {"header": {"component_id": 1, "sequence": 220, "system_id": 1}, "message": {"airspeed": 0.07700000703334808, "alt": 15.40999984741211, "climb": 0.034372784197330475, "groundspeed": 0.06287038326263428, "heading": 298, "throttle": 0, "type": "VFR_HUD"}}}
{"packet_index": 9449, "message": {"header": {"component_id": 1, "sequence": 2, "system_id": 1}, "message": {"altitude": 32970, "latitude": 634405552, "longitude": 103484873, "time_usec": 7965367473, "type": "GPS_GLOBAL_ORIGIN"}}}
{"packet_index": 9450, "message": {"header": {"component_id": 1, "sequence": 3, "system_id": 1}, "message": {"altitude": 6860, "approach_x": 0.0, "approach_y": 0.0, "approach_z": 0.0, "latitude": 634405553, "longitude": 103484876, "q": [null, null, null, null], "time_usec": 7965367488, "type": "HOME_POSITION", "x": 0.011131884530186653, "y": 0.01493206899613142, "z": 26.10999870300293}}}
{"packet_index": 9488, "message": {"header": {"component_id": 1, "sequence": 31, "system_id": 1}, "message": {"airspeed": 0.05700000375509262, "alt": 15.4399995803833, "climb": 0.1085285171866417, "groundspeed": 0.01585797406733036, "heading": 305, "throttle": 0, "type": "VFR_HUD"}}}
{"packet_index": 9515, "message": {"header": {"component_id": 1, "sequence": 52, "system_id": 1}, "message": {"autopilot": {"type": "MAV_AUTOPILOT_ARDUPILOTMEGA"}, "base_mode": {"bits": 137}, "custom_mode": 10, "mavlink_version": 3, "mavtype": {"type": "MAV_TYPE_SURFACE_BOAT"}, "system_status": {"type": "MAV_STATE_ACTIVE"}, "type": "HEARTBEAT"}}}
{"packet_index": 9594, "message": {"header": {"component_id": 1, "sequence": 84, "system_id": 1}, "message": {"airspeed": 0.04700000211596489, "alt": 15.469999313354492, "climb": 0.02743356302380562, "groundspeed": 0.026180552318692207, "heading": 311, "throttle": 0, "type": "VFR_HUD"}}}
{"packet_index": 9701, "message": {"header": {"component_id": 1, "sequence": 150, "system_id": 1}, "message": {"airspeed": 0.02800000086426735, "alt": 15.5, "climb": -0.024191342294216156, "groundspeed": 0.06951848417520523, "heading": 315, "throttle": 0, "type": "VFR_HUD"}}}
{"packet_index": 9768, "message": {"header": {"component_id": 1, "sequence": 188, "system_id": 1}, "message": {"altitude": 32970, "latitude": 634405552, "longitude": 103484873, "time_usec": 7966367544, "type": "GPS_GLOBAL_ORIGIN"}}}
{"packet_index": 9769, "message": {"header": {"component_id": 1, "sequence": 189, "system_id": 1}, "message": {"altitude": 6860, "approach_x": 0.0, "approach_y": 0.0, "approach_z": 0.0, "latitude": 634405553, "longitude": 103484876, "q": [null, null, null, null], "time_usec": 7966367549, "type": "HOME_POSITION", "x": 0.011131884530186653, "y": 0.01493206899613142, "z": 26.10999870300293}}}
{"packet_index": 9802, "message": {"header": {"component_id": 1, "sequence": 217, "system_id": 1}, "message": {"airspeed": 0.05000000074505806, "alt": 15.579999923706055, "climb": 0.04238848015666008, "groundspeed": 0.07621922343969345, "heading": 319, "throttle": 12, "type": "VFR_HUD"}}}
{"packet_index": 9834, "message": {"header": {"component_id": 1, "sequence": 238, "system_id": 1}, "message": {"autopilot": {"type": "MAV_AUTOPILOT_ARDUPILOTMEGA"}, "base_mode": {"bits": 137}, "custom_mode": 10, "mavlink_version": 3, "mavtype": {"type": "MAV_TYPE_SURFACE_BOAT"}, "system_status": {"type": "MAV_STATE_ACTIVE"}, "type": "HEARTBEAT"}}}
