packet_index,time_boot_ms,x_m,y_m,z_m,vx_mps,vy_mps,vz_mps
11,7935587,-6.893909931182861,17.51580238342285,17.480405807495117,-0.017734775319695473,0.10997678339481354,0.09867866337299347
18,7935607,-6.893987655639648,17.517475128173828,17.480318069458008,-0.016211463138461113,0.11355076730251312,0.08637101203203201
31,7935647,-6.89410924911499,17.52113914489746,17.482160568237305,-0.01330078486353159,0.1204259842634201,0.06183139607310295
38,7935687,-6.894130706787109,17.525283813476562,17.485443115234375,-0.007673514541238546,0.12339765578508377,0.03882850334048271
49,7935707,-6.893675804138184,17.52690887451172,17.48623275756836,-0.0034044934436678886,0.12101433426141739,0.028247704729437828
62,7935747,-6.8927083015441895,17.530366897583008,17.489900588989258,0.00041409788536839187,0.1260124295949936,0.005067370366305113
70,7935787,-6.891763210296631,17.534177780151367,17.494892120361328,0.0014612249797210097,0.129381462931633,-0.01603131927549839
80,7935807,-6.891321659088135,17.536195755004883,17.496843338012695,0.0012802123092114925,0.1307094246149063,-0.025164416059851646
95,7935847,-6.890514373779297,17.540372848510742,17.502525329589844,0.001002783072181046,0.13091424107551575,-0.040729910135269165
106,7935887,-6.889862060546875,17.544654846191406,17.50935173034668,-0.0024479669518768787,0.12892115116119385,-0.05146567150950432
112,7935907,-6.8894805908203125,17.546470642089844,17.512176513671875,-0.004394493065774441,0.12725934386253357,-0.054231900721788406
125,7935947,-6.888942241668701,17.550132751464844,17.518831253051758,-0.010257675312459469,0.12277782708406448,-0.058135878294706345
133,7935987,-6.888796806335449,17.553869247436523,17.525978088378906,-0.018374433740973473,0.11655603349208832,-0.05800786241889
143,7936007,-6.888874053955078,17.55563735961914,17.529130935668945,-0.022563936188817024,0.11310721933841705,-0.05697401240468025
156,7936047,-6.8893537521362305,17.559072494506836,17.535165786743164,-0.031935278326272964,0.10596612095832825,-0.05171994864940643
160,7936067,-6.889766216278076,17.56072425842285,17.5380802154541,-0.03700093924999237,0.10198468714952469,-0.04873836040496826
174,7936107,-6.890858173370361,17.563570022583008,17.543527603149414,-0.046524759382009506,0.0941760390996933,-0.04282176494598389
187,7936147,-6.892338275909424,17.56593894958496,17.54761505126953,-0.056224923580884933,0.08594062924385071,-0.03830253705382347
193,7936167,-6.893247604370117,17.56706428527832,17.549028396606445,-0.060807883739471436,0.08191335946321487,-0.037442054599523544
206,7936207,-6.89538049697876,17.56918716430664,17.551441192626953,-0.06927173584699631,0.07383673638105392,-0.039262767881155014
219,7936247,-6.897953510284424,17.57117462158203,17.551713943481445,-0.07636543363332748,0.06505368649959564,-0.04666013643145561
223,7936267,-6.899320602416992,17.57204818725586,17.55095863342285,-0.07916240394115448,0.06065106764435768,-0.05167223885655403
237,7936307,-6.902082443237305,17.573410034179688,17.549219131469727,-0.08407865464687347,0.05187306925654411,-0.0646711140871048
250,7936347,-6.904917240142822,17.574382781982422,17.546276092529297,-0.08758654445409775,0.04404059797525406,-0.0799039825797081
254,7936367,-6.906416893005371,17.574800491333008,17.544227600097656,-0.08968888968229294,0.03973113000392914,-0.08793359994888306
270,7936407,-6.909551620483398,17.57547950744629,17.539752960205078,-0.0918092131614685,0.03174513578414917,-0.1031179204583168
283,7936447,-6.91284704208374,17.575977325439453,17.535741806030273,-0.09503243863582611,0.02514924481511116,-0.11574271321296692
287,7936467,-6.914559841156006,17.576169967651367,17.533998489379883,-0.09613193571567535,0.02213982678949833,-0.1205998957157135
301,7936507,-6.917912483215332,17.576242446899414,17.53044319152832,-0.09797084331512451,0.016148265451192856,-0.12708385288715363
315,7936547,-6.921319961547852,17.576032638549805,17.529582977294922,-0.09955690801143646,0.010468266904354095,-0.12522800266742706
319,7936567,-6.9230265617370605,17.575885772705078,17.530426025390625,-0.10041375458240509,0.007864050567150116,-0.12221526354551315
334,7936607,-6.926502227783203,17.575511932373047,17.531713485717773,-0.10015035420656204,0.0025264406576752663,-0.11164704710245132
347,7936647,-6.930056095123291,17.57502555847168,17.536029815673828,-0.10135787725448608,-0.002362379338592291,-0.09642384946346283
351,7936667,-6.931867599487305,17.574745178222656,17.539596557617188,-0.10128267109394073,-0.004849462304264307,-0.08700878173112869
364,7936707,-6.93533992767334,17.5738582611084,17.546648025512695,-0.10185977816581726,-0.010141768492758274,-0.06612367182970047
369,7936727,-6.937026500701904,17.573265075683594,17.5501651763916,-0.10234998911619186,-0.012230249121785164,-0.05618521571159363
382,7936767,-6.9404826164245605,17.572032928466797,17.56118392944336,-0.10316473245620728,-0.01701580174267292,-0.0340595617890358
395,7936807,-6.944075584411621,17.570741653442383,17.571369171142578,-0.10511567443609238,-0.020287422463297844,-0.014696000143885612
400,7936827,-6.946017742156982,17.570056915283203,17.576200485229492,-0.10460580140352249,-0.02259070985019207,-0.00396928982809186
414,7936867,-6.949741840362549,17.568653106689453,17.585487365722656,-0.10565698891878128,-0.027754124253988266,0.014233354479074478
428,7936907,-6.953335762023926,17.56665802001953,17.594337463378906,-0.10443366318941116,-0.03280670568346977,0.031700197607278824
432,7936927,-6.9550395011901855,17.565418243408203,17.598630905151367,-0.10386211425065994,-0.03509161248803139,0.03880012035369873
445,7936967,-6.958505630493164,17.56292152404785,17.603384017944336,-0.10351794958114624,-0.03968925029039383,0.05064566805958748
459,7937007,-6.9620137214660645,17.560420989990234,17.60820198059082,-0.1024133712053299,-0.042718514800071716,0.06036265566945076
463,7937027,-6.9637861251831055,17.559179306030273,17.610614776611328,-0.1022067442536354,-0.043669309467077255,0.06461388617753983
476,7937067,-6.96734619140625,17.55672264099121,17.60990333557129,-0.10088375210762024,-0.04514016583561897,0.07108882814645767
490,7937107,-6.97109842300415,17.55398178100586,17.609682083129883,-0.10024508088827133,-0.046623993664979935,0.07542627304792404
494,7937127,-6.972961902618408,17.552534103393555,17.609628677368164,-0.09931358695030212,-0.04675878956913948,0.0758385881781578
507,7937167,-6.97670841217041,17.54975128173828,17.603017807006836,-0.0995391234755516,-0.04660870134830475,0.07365909218788147
521,7937207,-6.980499744415283,17.547109603881836,17.5975284576416,-0.10018331557512283,-0.046765778213739395,0.06924813985824585
526,7937227,-6.982410907745361,17.545839309692383,17.595111846923828,-0.09979947656393051,-0.04592564329504967,0.06559094786643982
539,7937267,-6.98626184463501,17.54339599609375,17.58458137512207,-0.10008881241083145,-0.045635052025318146,0.0558190755546093
552,7937307,-6.989919185638428,17.54075813293457,17.575021743774414,-0.10023532807826996,-0.044908929616212845,0.04405024275183678
557,7937327,-6.9916582107543945,17.53934669494629,17.57050132751465,-0.09955218434333801,-0.044385235756635666,0.03795786574482918
570,7937367,-6.995165824890137,17.536670684814453,17.557910919189453,-0.09913213551044464,-0.04340758174657822,0.024041322991251945
576,7937387,-6.996936798095703,17.535400390625,17.55209732055664,-0.09892360121011734,-0.042587053030729294,0.017564058303833008
590,7937427,-7.000604152679443,17.532968521118164,17.541297912597656,-0.09883815050125122,-0.040283285081386566,0.003572589484974742
603,7937467,-7.004210948944092,17.530820846557617,17.531394958496094,-0.09840309619903564,-0.03657116740942001,-0.007992108352482319
607,7937487,-7.006032466888428,17.52983856201172,17.526769638061523,-0.0987524539232254,-0.03460681065917015,-0.012929761782288551
622,7937527,-7.009678363800049,17.52764320373535,17.517929077148438,-0.09824763238430023,-0.030536584556102753,-0.019479170441627502
635,7937567,-7.013354778289795,17.52573013305664,17.513479232788086,-0.09851120412349701,-0.027454029768705368,-0.021369386464357376
639,7937587,-7.0152058601379395,17.524866104125977,17.511428833007812,-0.09807832539081573,-0.02570526674389839,-0.02060575969517231
654,7937627,-7.018918991088867,17.523298263549805,17.507749557495117,-0.09778723120689392,-0.023462001234292984,-0.015839461237192154
667,7937667,-7.022645473480225,17.521915435791016,17.510286331176758,-0.09753582626581192,-0.02158752828836441,-0.006378044839948416
671,7937687,-7.024609088897705,17.521255493164062,17.511566162109375,-0.09686620533466339,-0.02091391384601593,0.00017283752094954252
685,7937727,-7.028214454650879,17.519691467285156,17.51430320739746,-0.09679523855447769,-0.01972409524023533,0.01421116478741169
698,7937767,-7.0318603515625,17.518285751342773,17.52141761779785,-0.09645356982946396,-0.018608849495649338,0.030599335208535194
702,7937787,-7.033684253692627,17.517641067504883,17.524917602539062,-0.0961986631155014,-0.01800239458680153,0.03902587294578552
716,7937827,-7.037350177764893,17.516468048095703,17.531862258911133,-0.0955464169383049,-0.016596747562289238,0.05512295663356781
730,7937867,-7.040982246398926,17.515443801879883,17.538450241088867,-0.09405986219644547,-0.014826072379946709,0.06987826526165009
734,7937887,-7.042786598205566,17.514986038208008,17.541751861572266,-0.09338296949863434,-0.013709907419979572,0.07630791515111923
748,7937927,-7.046101093292236,17.513389587402344,17.548006057739258,-0.09079918265342712,-0.011192900128662586,0.08697113394737244
761,7937967,-7.049437522888184,17.512041091918945,17.54941177368164,-0.08761090785264969,-0.00852886587381363,0.09361959993839264
765,7937987,-7.051021099090576,17.511463165283203,17.550281524658203,-0.08523499965667725,-0.007123860064893961,0.09594698995351791
779,7938027,-7.0540924072265625,17.510486602783203,17.55232810974121,-0.08093786239624023,-0.004202926065772772,0.09796315431594849
791,7938047,-7.0555644035339355,17.51008415222168,17.54945945739746,-0.07798071950674057,-0.0025799316354095936,0.09754818677902222
796,7938087,-7.058358669281006,17.50945472717285,17.544635772705078,-0.0720272958278656,0.0008993740775622427,0.0946577936410904
810,7938127,-7.060622692108154,17.508256912231445,17.540149688720703,-0.06561434268951416,0.0037271894980221987,0.09102072566747665
822,7938147,-7.061678886413574,17.507768630981445,17.534833908081055,-0.06223760545253754,0.005468277260661125,0.08797471970319748
828,7938187,-7.063625812530518,17.50701332092285,17.52545928955078,-0.055292896926403046,0.008809433318674564,0.08274887502193451
842,7938227,-7.065346717834473,17.506528854370117,17.517559051513672,-0.048329584300518036,0.012138293124735355,0.07776827365159988
854,7938247,-7.066121578216553,17.506385803222656,17.512123107910156,-0.045141760259866714,0.013982489705085754,0.07570293545722961
859,7938287,-7.0675506591796875,17.50632095336914,17.502605438232422,-0.03878575190901756,0.018287885934114456,0.07243707031011581
873,7938327,-7.06850528717041,17.50534439086914,17.493974685668945,-0.033295176923274994,0.024124886840581894,0.0699688047170639
885,7938347,-7.06893253326416,17.505046844482422,17.49010467529297,-0.03185400739312172,0.02792748622596264,0.06979595124721527
901,7938387,-7.0696892738342285,17.504837036132812,17.483415603637695,-0.026948874816298485,0.03526976332068443,0.06969049572944641
906,7938427,-7.0703535079956055,17.505081176757812,17.47797966003418,-0.02404763549566269,0.04179114103317261,0.07024046778678894
918,7938447,-7.070662498474121,17.5053653717041,17.47706413269043,-0.022836655378341675,0.044948045164346695,0.0704866275191307
923,7938487,-7.071244239807129,17.50625991821289,17.475704193115234,-0.020976373925805092,0.051480986177921295,0.07046958059072495
938,7938527,-7.071500778198242,17.50684928894043,17.474346160888672,-0.01968483440577984,0.05749288201332092,0.06794246286153793
950,7938547,-7.071660041809082,17.507362365722656,17.475587844848633,-0.019301114603877068,0.06038288772106171,0.06612753868103027
955,7938587,-7.071964263916016,17.50856590270996,17.477855682373047,-0.018992912024259567,0.06494245678186417,0.06050803139805794
970,7938627,-7.07230281829834,17.510103225708008,17.479896545410156,-0.017655998468399048,0.06868430972099304,0.052035853266716
982,7938647,-7.0724568367004395,17.510906219482422,17.48245620727539,-0.01714046113193035,0.06950275599956512,0.04734930396080017
990,7938687,-7.072798728942871,17.51288604736328,17.487110137939453,-0.015009948052465916,0.0718098059296608,0.03637537732720375
999,7938707,-7.072688579559326,17.513525009155273,17.488826751708984,-0.013983607292175293,0.07186112552881241,0.03031592257320881
1013,7938747,-7.0724687576293945,17.514892578125,17.49359703063965,-0.011492420919239521,0.0719844326376915,0.01982404850423336
1018,7938787,-7.07224178314209,17.516590118408203,17.499282836914062,-0.008222593925893307,0.07164058834314346,0.010115493088960648
1030,7938807,-7.072105884552002,17.5174560546875,17.501745223999023,-0.00674722483381629,0.07140885293483734,0.006242993753403425
1045,7938847,-7.071798801422119,17.519372940063477,17.508235931396484,-0.0038606158923357725,0.07183510065078735,0.0005711129051633179
1050,7938887,-7.0714521408081055,17.52138328552246,17.515825271606445,-0.0017623455496504903,0.07286477833986282,-0.0007346716593019664
1063,7938907,-7.0711236000061035,17.522151947021484,17.51911163330078,-0.001330569270066917,0.07323818653821945,-0.00022727198665961623
1076,7938947,-7.070528984069824,17.52386474609375,17.52678108215332,-0.0014085390139371157,0.0746009424328804,0.00501233758404851
1090,7938987,-7.070060729980469,17.525802612304688,17.5352840423584,-0.00373095297254622,0.07628345489501953,0.013604006730020046
1093,7939007,-7.069897651672363,17.5268497467041,17.53927993774414,-0.005548357963562012,0.0767747312784195,0.019025485962629318
1107,7939047,-7.069763660430908,17.529077529907227,17.546438217163086,-0.011134756729006767,0.0780603215098381,0.030680952593684196
1112,7939087,-7.069943428039551,17.531476974487305,17.552841186523438,-0.01814311556518078,0.07899538427591324,0.04231271892786026
1125,7939107,-7.070013999938965,17.53228759765625,17.555965423583984,-0.022343184798955917,0.07908176630735397,0.047544214874506
1138,7939147,-7.07043981552124,17.533916473388672,17.559118270874023,-0.030994242057204247,0.0787285715341568,0.05424277484416962
1153,7939187,-7.071289539337158,17.535724639892578,17.55966567993164,-0.039546504616737366,0.07826301455497742,0.05537155643105507
1167,7939207,-7.071874141693115,17.53668212890625,17.560016632080078,-0.04408072307705879,0.07740061730146408,0.05339009314775467
1170,7939247,-7.073341369628906,17.53866195678711,17.556550979614258,-0.05179255083203316,0.07532266527414322,0.04485602676868439
1175,7939287,-7.075155735015869,17.54068374633789,17.549461364746094,-0.058695048093795776,0.07259363681077957,0.028672300279140472
1189,7939307,-7.075786590576172,17.541385650634766,17.545927047729492,-0.06112819164991379,0.07118380814790726,0.018768280744552612
1203,7939347,-7.077276706695557,17.542858123779297,17.535810470581055,-0.06477963924407959,0.06890829652547836,-0.005847105756402016
1208,7939367,-7.0781168937683105,17.543628692626953,17.52935218811035,-0.06599314510822296,0.06762758642435074,-0.01934497244656086
1222,7939407,-7.080015659332275,17.545272827148438,17.516801834106445,-0.06795860081911087,0.0649329423904419,-0.04828649014234543
1234,7939447,-7.081995964050293,17.546897888183594,17.50434112548828,-0.06853169947862625,0.06245165318250656,-0.07587480545043945
1239,7939467,-7.08302640914917,17.547719955444336,17.498077392578125,-0.06877408921718597,0.06097337231040001,-0.08885225653648376
1253,7939507,-7.084860801696777,17.549142837524414,17.485830307006836,-0.06867088377475739,0.05839339271187782,-0.11165951937437057
1266,7939547,-7.0865373611450195,17.550373077392578,17.476856231689453,-0.06945160776376724,0.05508036911487579,-0.12813276052474976
1270,7939567,-7.087431907653809,17.550992965698242,17.47376823425293,-0.06946099549531937,0.053210366517305374,-0.1337902545928955
1285,7939607,-7.089350700378418,17.552204132080078,17.467445373535156,-0.0716712549328804,0.04861704260110855,-0.14012019336223602
1298,7939647,-7.09147310256958,17.553348541259766,17.465709686279297,-0.07476894557476044,0.0435713492333889,-0.1411890685558319
1302,7939667,-7.092626094818115,17.55388641357422,17.46689224243164,-0.07698146998882294,0.0411435142159462,-0.13965481519699097
1315,7939707,-7.095176696777344,17.55462074279785,17.468894958496094,-0.08322599530220032,0.035542409867048264,-0.13527518510818481
1329,7939747,-7.097917556762695,17.5549373626709,17.47490882873535,-0.08996569365262985,0.029332853853702545,-0.12762606143951416
1333,7939767,-7.099427700042725,17.555055618286133,17.47950553894043,-0.09373735636472702,0.026010336354374886,-0.12320977449417114
1347,7939807,-7.102715969085693,17.555185317993164,17.48759651184082,-0.10030361264944077,0.019011888653039932,-0.11351868510246277
1362,7939847,-7.106337070465088,17.555139541625977,17.49688720703125,-0.10673048347234726,0.011477204971015453,-0.1030886173248291
1376,7939867,-7.108263969421387,17.55504608154297,17.5022029876709,-0.10961415618658066,0.007933405227959156,-0.09747865051031113
1379,7939907,-7.112288475036621,17.554441452026367,17.51210594177246,-0.11449888348579407,0.00038711269735358655,-0.08591723442077637
1393,7939947,-7.116518020629883,17.553403854370117,17.5213565826416,-0.11857972294092178,-0.007333184126764536,-0.07396981865167618
1396,7939967,-7.1188273429870605,17.552810668945312,17.525619506835938,-0.11999347805976868,-0.011208885349333286,-0.06737565994262695
1409,7940007,-7.123316764831543,17.551525115966797,17.53356170654297,-0.12192216515541077,-0.017860788851976395,-0.054316528141498566
1414,7940027,-7.125602722167969,17.550825119018555,17.537221908569336,-0.12247536331415176,-0.021227383986115456,-0.04741295799612999
1427,7940067,-7.130214691162109,17.549314498901367,17.542055130004883,-0.12217225879430771,-0.027057677507400513,-0.03306422010064125
1441,7940107,-7.134899139404297,17.547443389892578,17.546825408935547,-0.12224924564361572,-0.03159891441464424,-0.018811851739883423
1455,7940127,-7.137263774871826,17.546363830566406,17.549232482910156,-0.12116529792547226,-0.03387817367911339,-0.011232927441596985
1459,7940167,-7.141923427581787,17.544172286987305,17.549936294555664,-0.1183679923415184,-0.03868996351957321,0.0032547912560403347
1472,7940207,-7.146534442901611,17.5418701171875,17.551111221313477,-0.11657227575778961,-0.044586893171072006,0.017664164304733276
1477,7940227,-7.148797988891602,17.540687561035156,17.5518741607666,-0.1139620691537857,-0.046373672783374786,0.024191517382860184
1490,7940267,-7.153353214263916,17.538183212280273,17.54680061340332,-0.11164847016334534,-0.05196673795580864,0.03425656631588936
1504,7940307,-7.1576056480407715,17.535432815551758,17.542882919311523,-0.10890901833772659,-0.055273979902267456,0.04180873557925224
1508,7940327,-7.159668445587158,17.533935546875,17.541288375854492,-0.10854551196098328,-0.05735180526971817,0.0451020784676075
1521,7940367,-7.163740158081055,17.530929565429688,17.529722213745117,-0.1052415668964386,-0.060371752828359604,0.04801284149289131
1537,7940407,-7.167734146118164,17.527910232543945,17.519943237304688,-0.10278492420911789,-0.06347264349460602,0.04698430746793747
1541,7940427,-7.169698238372803,17.526403427124023,17.51561737060547,-0.10105574131011963,-0.06403916329145432,0.045914359390735626
1554,7940467,-7.173560619354248,17.523418426513672,17.498193740844727,-0.09888599812984467,-0.06507620215415955,0.038529329001903534
1567,7940507,-7.177079200744629,17.52031135559082,17.48285484313965,-0.09452155232429504,-0.06510390341281891,0.03110402636229992
1573,7940527,-7.178666114807129,17.518720626831055,17.475826263427734,-0.09169477224349976,-0.06447559595108032,0.025993214920163155
1586,7940567,-7.181811332702637,17.51557731628418,17.4569149017334,-0.08597666025161743,-0.06371261924505234,0.015953775495290756
1600,7940607,-7.184687614440918,17.512680053710938,17.440176010131836,-0.07967126369476318,-0.06017224118113518,0.006155332084745169
1605,7940627,-7.186052322387695,17.51131820678711,17.432537078857422,-0.07646660506725311,-0.05824071541428566,0.0022965469397604465
1618,7940667,-7.188632965087891,17.508773803710938,17.418628692626953,-0.07010454684495926,-0.05358124524354935,-0.0037870588712394238
1631,7940687,-7.189840316772461,17.507606506347656,17.41229820251465,-0.06678259372711182,-0.05060580000281334,-0.005626700818538666
1637,7940727,-7.192044258117676,17.50474739074707,17.400760650634766,-0.06130773201584816,-0.04587152227759361,-0.005253590177744627
1650,7940767,-7.194085121154785,17.502233505249023,17.39729881286621,-0.05625003203749657,-0.04079904407262802,0.0009865015745162964
1654,7940787,-7.195051670074463,17.501100540161133,17.395858764648438,-0.05415772646665573,-0.03813120722770691,0.006062075030058622
1668,7940827,-7.196955680847168,17.49903678894043,17.393657684326172,-0.05084658041596413,-0.03305141255259514,0.01879662275314331
1684,7940867,-7.198752403259277,17.497304916381836,17.402889251708984,-0.05016092211008072,-0.02781670168042183,0.03624467924237251
1697,7940887,-7.199667930603027,17.49656867980957,17.407360076904297,-0.050744760781526566,-0.023611482232809067,0.044581107795238495
1702,7940927,-7.2016777992248535,17.494565963745117,17.415979385375977,-0.052480559796094894,-0.017526762560009956,0.06273779273033142
1715,7940967,-7.203779697418213,17.49295425415039,17.43368911743164,-0.05469564348459244,-0.012647905386984348,0.08164902776479721
1728,7940987,-7.204874515533447,17.49226951599121,17.44209098815918,-0.056539107114076614,-0.01039088424295187,0.0907808244228363
1733,7941027,-7.207167625427246,17.491104125976562,17.458072662353516,-0.058993175625801086,-0.0065711867064237595,0.10476712137460709
1746,7941067,-7.209549903869629,17.490211486816406,17.477802276611328,-0.060892000794410706,-0.0031640809029340744,0.11528842896223068
1754,7941087,-7.210768222808838,17.489864349365234,17.48703384399414,-0.06111834570765495,-0.0007136781932786107,0.11799970269203186
1764,7941127,-7.213152885437012,17.48851776123047,17.503562927246094,-0.060089800506830215,0.004367426969110966,0.11848840862512589
1777,7941167,-7.21543550491333,17.487558364868164,17.516759872436523,-0.057709310203790665,0.009494932368397713,0.11211524903774261
1791,7941187,-7.2165374755859375,17.487228393554688,17.522811889648438,-0.0557716004550457,0.01239140797406435,0.10690602660179138
1796,7941227,-7.218625545501709,17.48682975769043,17.533832550048828,-0.050832975655794144,0.01726876199245453,0.09489621222019196
1809,7941267,-7.220503330230713,17.48676872253418,17.537017822265625,-0.04469892382621765,0.02233736217021942,0.07920327037572861
1813,7941287,-7.22135591506958,17.486860275268555,17.538402557373047,-0.04186931252479553,0.025007694959640503,0.07156600803136826
1827,7941327,-7.222933292388916,17.486709594726562,17.53982925415039,-0.0355398915708065,0.029236646369099617,0.056214313954114914
1839,7941347,-7.223629951477051,17.48675537109375,17.53593635559082,-0.032508011907339096,0.030560649931430817,0.0488320030272007
1855,7941387,-7.224858283996582,17.487031936645508,17.528743743896484,-0.026974495500326157,0.032223958522081375,0.0370178297162056
1860,7941427,-7.2259016036987305,17.48753547668457,17.522342681884766,-0.02268533781170845,0.034299515187740326,0.02807687409222126
1872,7941447,-7.226367473602295,17.487855911254883,17.514978408813477,-0.021878499537706375,0.035838447511196136,0.023539196699857712
1877,7941487,-7.227255821228027,17.488676071166992,17.5015869140625,-0.02077224850654602,0.03931557387113571,0.016853805631399155
1892,7941527,-7.227938652038574,17.488733291625977,17.48967170715332,-0.022390218451619148,0.04192737862467766,0.012803901918232441
1904,7941547,-7.2283172607421875,17.488889694213867,17.48073387145996,-0.02329547517001629,0.043997880071401596,0.010801849886775017
1918,7941587,-7.229177951812744,17.489456176757812,17.464574813842773,-0.026906276121735573,0.0478086844086647,0.007468821480870247
1924,7941627,-7.2302350997924805,17.4903621673584,17.450481414794922,-0.03237588703632355,0.05272924527525902,0.0054971580393612385
1936,7941647,-7.230856895446777,17.490951538085938,17.442190170288086,-0.035148680210113525,0.05558224022388458,0.0035911044105887413
1941,7941687,-7.232339859008789,17.49245834350586,17.42719268798828,-0.04189878702163696,0.06142531707882881,0.000507970922626555
1955,7941727,-7.233609676361084,17.493227005004883,17.414175033569336,-0.047801751643419266,0.06743167340755463,-0.002978297183290124
1967,7941747,-7.2343597412109375,17.493793487548828,17.40920639038086,-0.05127960816025734,0.07057228684425354,-0.00488442974165082
1972,7941787,-7.236088752746582,17.495275497436523,17.400127410888672,-0.057129718363285065,0.07693074643611908,-0.00940221082419157
1986,7941827,-7.238080978393555,17.4971981048584,17.392019271850586,-0.06200424209237099,0.08317108452320099,-0.015234818682074547
1999,7941847,-7.239165306091309,17.49831771850586,17.392168045043945,-0.06415344774723053,0.08650551736354828,-0.017383074387907982
2009,7941887,-7.241487503051758,17.500858306884766,17.392242431640625,-0.06789115816354752,0.09221015125513077,-0.022631492465734482
2018,7941927,-7.24322509765625,17.502927780151367,17.392057418823242,-0.07033427804708481,0.09637827426195145,-0.02803633362054825
2030,7941947,-7.244174957275391,17.504106521606445,17.398326873779297,-0.07140212506055832,0.0984179899096489,-0.029756981879472733
2035,7941987,-7.246267795562744,17.506837844848633,17.409387588500977,-0.07244552671909332,0.10229919850826263,-0.03326882794499397
2048,7942007,-7.24733829498291,17.508272171020508,17.41427993774414,-0.07368515431880951,0.10367927700281143,-0.03478880226612091
2061,7942047,-7.249605178833008,17.511322021484375,17.43001365661621,-0.07511412352323532,0.1050635501742363,-0.034832872450351715
2066,7942087,-7.252007484436035,17.51455307006836,17.4501895904541,-0.07698139548301697,0.10493308305740356,-0.03265535458922386
2079,7942107,-7.253173351287842,17.51572036743164,17.459245681762695,-0.07762515544891357,0.104085773229599,-0.03041147068142891
2092,7942147,-7.255624771118164,17.51816749572754,17.48080062866211,-0.0798230841755867,0.10129068046808243,-0.023907607421278954
2098,7942187,-7.2582221031188965,17.52065086364746,17.504615783691406,-0.0803704559803009,0.09423236548900604,-0.011166446842253208
2110,7942207,-7.259547710418701,17.521833419799805,17.515514373779297,-0.080412358045578,0.08937256038188934,-0.004328975919634104
2124,7942247,-7.262388706207275,17.52423858642578,17.536602020263672,-0.08286365121603012,0.08527316898107529,0.008067458868026733
2138,7942287,-7.265280246734619,17.526548385620117,17.556480407714844,-0.0847480446100235,0.08151540905237198,0.020553359761834145
2152,7942307,-7.266672134399414,17.527355194091797,17.565616607666016,-0.08524651825428009,0.07945365458726883,0.026499401777982712
2166,7942347,-7.2695183753967285,17.52900505065918,17.57880401611328,-0.08474037796258926,0.07554403692483902,0.03583322837948799
2171,7942387,-7.272393703460693,17.530710220336914,17.587268829345703,-0.08365290611982346,0.072198286652565,0.0408974327147007
2185,7942407,-7.273831367492676,17.53157615661621,17.59122657775879,-0.08265767246484756,0.07079876959323883,0.04243265837430954
2188,7942447,-7.276668548583984,17.53335952758789,17.59259796142578,-0.07950091361999512,0.0691331997513771,0.04010893777012825
2193,7942487,-7.279424667358398,17.535215377807617,17.588294982910156,-0.07630621641874313,0.06779958307743073,0.033322591334581375
2207,7942507,-7.280613422393799,17.536151885986328,17.586204528808594,-0.07401509582996368,0.06856989860534668,0.02708113193511963
2220,7942547,-7.2830071449279785,17.538232803344727,17.57589340209961,-0.0708138644695282,0.0706426277756691,0.01151061337441206
2227,7942587,-7.28526496887207,17.540454864501953,17.560455322265625,-0.06681119650602341,0.07323908060789108,-0.008721659891307354
2239,7942607,-7.28635835647583,17.541643142700195,17.553207397460938,-0.06530500948429108,0.07391879707574844,-0.018531957641243935
2252,7942647,-7.28852653503418,17.544124603271484,17.535913467407227,-0.06310465186834335,0.07483978569507599,-0.040545132011175156
2256,7942667,-7.289573669433594,17.5454158782959,17.526031494140625,-0.06039774417877197,0.07575848698616028,-0.050869084894657135
2270,7942707,-7.291311264038086,17.54787254333496,17.507497787475586,-0.05744808167219162,0.07534840703010559,-0.07178317755460739
2283,7942747,-7.292764186859131,17.550230026245117,17.49067497253418,-0.05505644530057907,0.0747077465057373,-0.09097883105278015
2287,7942767,-7.293503761291504,17.55142593383789,17.482839584350586,-0.05515579506754875,0.0730469673871994,-0.09887288510799408
2300,7942807,-7.295026779174805,17.55379295349121,17.4679012298584,-0.05413030460476875,0.06970656663179398,-0.11153212189674377
2315,7942847,-7.296664237976074,17.55611801147461,17.45807647705078,-0.05479486659169197,0.0627463161945343,-0.11960060894489288
2319,7942867,-7.297494411468506,17.55716323852539,17.4554500579834,-0.05488789081573486,0.0590435154736042,-0.12049315124750137
2333,7942907,-7.299199104309082,17.55893325805664,17.450620651245117,-0.05681148171424866,0.050264909863471985,-0.11843226104974747
2346,7942947,-7.3010406494140625,17.560260772705078,17.452829360961914,-0.05885725095868111,0.039297811686992645,-0.10786879807710648
2350,7942967,-7.302014350891113,17.560794830322266,17.45688819885254,-0.06010114774107933,0.03369245305657387,-0.10100501030683517
2363,7943007,-7.30405330657959,17.561508178710938,17.464303970336914,-0.06044742465019226,0.017526710405945778,-0.08120287209749222
2377,7943047,-7.306163311004639,17.56168556213379,17.47740936279297,-0.06178589537739754,0.0052088527008891106,-0.062326159328222275
2381,7943067,-7.307247161865234,17.561622619628906,17.48652458190918,-0.06197407469153404,-0.0008132837829180062,-0.051966775208711624
2394,7943107,-7.3095903396606445,17.560842514038086,17.5035400390625,-0.06338179111480713,-0.012104849331080914,-0.033335838466882706
2408,7943147,-7.3119587898254395,17.559425354003906,17.523439407348633,-0.06285574287176132,-0.021851342171430588,-0.016785649582743645
2414,7943167,-7.313138008117676,17.558616638183594,17.534664154052734,-0.06178637593984604,-0.026732275262475014,-0.010993191041052341
2426,7943207,-7.315447807312012,17.556804656982422,17.55513572692871,-0.059431690722703934,-0.03538031876087189,-0.00200155028142035
2440,7943247,-7.3176751136779785,17.554773330688477,17.57438087463379,-0.05689765885472298,-0.04187551140785217,0.0017737728776410222
2444,7943267,-7.318770885467529,17.5537109375,17.583637237548828,-0.056538328528404236,-0.04379754140973091,9.342337580164894e-05
2457,7943307,-7.3208184242248535,17.5511417388916,17.60016441345215,-0.05120547115802765,-0.047780536115169525,-0.0012957685394212604
2462,7943327,-7.321755886077881,17.549633026123047,17.607524871826172,-0.05029832199215889,-0.05159202218055725,-0.0037151409778743982
2475,7943367,-7.323586463928223,17.54647445678711,17.61823081970215,-0.04638417065143585,-0.0599045529961586,-0.005456448532640934
2490,7943407,-7.325308799743652,17.54312515258789,17.627370834350586,-0.043406981974840164,-0.06616206467151642,-0.010839441791176796
2495,7943427,-7.3261213302612305,17.541431427001953,17.631406784057617,-0.042370282113552094,-0.06864181905984879,-0.011130026541650295
2508,7943467,-7.32769775390625,17.53795051574707,17.6331729888916,-0.041315507143735886,-0.07476262748241425,-0.012883353978395462
2523,7943507,-7.329326629638672,17.53420066833496,17.63461685180664,-0.04034983739256859,-0.07989159971475601,-0.009050370194017887
2527,7943527,-7.330168724060059,17.5322208404541,17.63528060913086,-0.04072355851531029,-0.08250807225704193,-0.007155911531299353
2540,7943567,-7.331882953643799,17.528202056884766,17.630353927612305,-0.04126974195241928,-0.08758627623319626,-0.00031098537147045135
2555,7943607,-7.333642482757568,17.5240535736084,17.6263484954834,-0.043713703751564026,-0.09366021305322647,0.008474495261907578
2559,7943627,-7.3345537185668945,17.521934509277344,17.62467384338379,-0.04384612664580345,-0.09576305001974106,0.013290093280375004
2572,7943667,-7.336420059204102,17.517648696899414,17.615825653076172,-0.04615040495991707,-0.09921751916408539,0.021619491279125214
2585,7943707,-7.338402271270752,17.51305389404297,17.608549118041992,-0.047727711498737335,-0.10086414963006973,0.028959816321730614
2590,7943727,-7.339383125305176,17.51072883605957,17.605426788330078,-0.04892691224813461,-0.10182330012321472,0.031855519860982895
2603,7943767,-7.341403007507324,17.506134033203125,17.593873977661133,-0.05015796795487404,-0.10164094716310501,0.035366371273994446
2616,7943807,-7.343481540679932,17.50167465209961,17.58407974243164,-0.052125778049230576,-0.09996537119150162,0.03687846288084984
2621,7943827,-7.344552516937256,17.49951934814453,17.579748153686523,-0.05289541929960251,-0.0977865532040596,0.036943309009075165
2635,7943867,-7.346735954284668,17.495386123657227,17.566238403320312,-0.05482959747314453,-0.09332384169101715,0.035261861979961395
2648,7943907,-7.3489990234375,17.49135398864746,17.554515838623047,-0.05705881491303444,-0.08795246481895447,0.03316071629524231
2653,7943927,-7.35015869140625,17.489370346069336,17.549226760864258,-0.05823945626616478,-0.085110142827034,0.032263074070215225
2666,7943967,-7.352641582489014,17.485557556152344,17.536333084106445,-0.06193295866250992,-0.07967181503772736,0.030436504632234573
2670,7943987,-7.353910446166992,17.483814239501953,17.530550003051758,-0.0639740452170372,-0.0760796070098877,0.02963772416114807
2684,7944027,-7.356551647186279,17.48057746887207,17.520227432250977,-0.067536860704422,-0.07007896900177002,0.030594903975725174
2697,7944067,-7.3593668937683105,17.477649688720703,17.512548446655273,-0.07218439131975174,-0.06394106894731522,0.03307504579424858
2701,7944087,-7.360835075378418,17.476295471191406,17.50921058654785,-0.07350191473960876,-0.06142890825867653,0.03611638396978378
2715,7944127,-7.363616943359375,17.47287368774414,17.50335121154785,-0.07528534531593323,-0.05933104082942009,0.04365425184369087
2728,7944167,-7.366523742675781,17.469762802124023,17.50440788269043,-0.07813836634159088,-0.053695037961006165,0.051888369023799896
2733,7944187,-7.368028163909912,17.468341827392578,17.505094528198242,-0.07956825941801071,-0.050701942294836044,0.05546421557664871
2747,7944227,-7.371119022369385,17.465763092041016,17.50676155090332,-0.08146864920854568,-0.044799331575632095,0.0631675198674202
2760,7944267,-7.374343395233154,17.463481903076172,17.51751708984375,-0.08139745146036148,-0.03857098147273064,0.07188045978546143
2764,7944287,-7.375913619995117,17.462486267089844,17.522579193115234,-0.0809769481420517,-0.035492051392793655,0.07565247267484665
2778,7944327,-7.379130840301514,17.459632873535156,17.531721115112305,-0.0795990601181984,-0.0308824572712183,0.08237183094024658
2791,7944367,-7.38226318359375,17.457168579101562,17.54938507080078,-0.07698702812194824,-0.025431634858250618,0.08692093938589096
2797,7944387,-7.3837995529174805,17.45609474182129,17.557538986206055,-0.07628859579563141,-0.022177841514348984,0.08721456676721573
2811,7944427,-7.386767864227295,17.45425033569336,17.57261085510254,-0.07076166570186615,-0.016400901600718498,0.08935929834842682
2824,7944467,-7.389532089233398,17.452688217163086,17.5916690826416,-0.06774558126926422,-0.015528694726526737,0.09126026928424835
2831,7944487,-7.3908467292785645,17.45196533203125,17.600446701049805,-0.06337843835353851,-0.014255623333156109,0.09222806245088577
2843,7944527,-7.39361572265625,17.450679779052734,17.615877151489258,-0.05637863650918007,-0.011241801083087921,0.09045106172561646
2856,7944567,-7.396036624908447,17.449621200561523,17.62946319580078,-0.049301907420158386,-0.008263145573437214,0.09097045660018921
2869,7944587,-7.397139072418213,17.449174880981445,17.635740280151367,-0.04737289622426033,-0.006864418741315603,0.08925426751375198
2875,7944627,-7.399158954620361,17.448448181152344,17.64734649658203,-0.040820710361003876,-0.0029337636660784483,0.08888854831457138
2887,7944647,-7.400067329406738,17.448183059692383,17.649660110473633,-0.038562241941690445,-0.0005393265746533871,0.0869571715593338
2892,7944687,-7.401747226715088,17.447851181030273,17.654083251953125,-0.034332796931266785,0.003910160157829523,0.08539929986000061
2906,7944727,-7.403469562530518,17.447336196899414,17.657602310180664,-0.03139084577560425,0.008660180494189262,0.08234737813472748
2918,7944747,-7.404269218444824,17.447195053100586,17.65437126159668,-0.02968505583703518,0.011296211741864681,0.08021800965070724
2932,7944787,-7.4057769775390625,17.447153091430664,17.648740768432617,-0.028674613684415817,0.017038244754076004,0.07562573254108429
2937,7944827,-7.407253742218018,17.447486877441406,17.644100189208984,-0.028607605025172234,0.023984964936971664,0.07103455066680908
2950,7944847,-7.407975673675537,17.447772979736328,17.63726043701172,-0.0294800978153944,0.02722805365920067,0.06742365658283234
2964,7944887,-7.4094343185424805,17.44861602783203,17.624967575073242,-0.030335741117596626,0.0348316952586174,0.05967850238084793
2969,7944927,-7.410495281219482,17.449426651000977,17.613889694213867,-0.03190082311630249,0.04163053259253502,0.05209469422698021
2981,7944947,-7.411055088043213,17.449974060058594,17.606061935424805,-0.03246644139289856,0.045223623514175415,0.04731801897287369
2989,7944987,-7.4122161865234375,17.451343536376953,17.591856002807617,-0.033454038202762604,0.05143324285745621,0.037669166922569275
3000,7945027,-7.4134321212768555,17.453022003173828,17.579294204711914,-0.034246012568473816,0.05670102685689926,0.026807380840182304
3012,7945047,-7.414052963256836,17.453960418701172,17.57320785522461,-0.03454204276204109,0.05864638462662697,0.02152157574892044
3017,7945087,-7.415319442749023,17.455984115600586,17.562015533447266,-0.034683872014284134,0.060924530029296875,0.011841210536658764
3031,7945127,-7.4161505699157715,17.457469940185547,17.551843643188477,-0.03252900764346123,0.06018904596567154,0.002375103300437331
3043,7945147,-7.416553974151611,17.458242416381836,17.54923439025879,-0.032442979514598846,0.0610375739634037,-0.0023506784345954657
3052,7945187,-7.41736364364624,17.4599552154541,17.544267654418945,-0.030536392703652382,0.06414033472537994,-0.0104085523635149
3063,7945227,-7.418174743652344,17.46188735961914,17.53959083557129,-0.030367350205779076,0.06644678860902786,-0.018103783950209618
3075,7945247,-7.418581485748291,17.462928771972656,17.540973663330078,-0.029267720878124237,0.0682142823934555,-0.0202543493360281
3080,7945287,-7.4193878173828125,17.465160369873047,17.543254852294922,-0.028860701248049736,0.0706254318356514,-0.02420959621667862
3092,7945307,-7.419826507568359,17.46614646911621,17.544225692749023,-0.028724491596221924,0.07183521240949631,-0.024450475350022316
3106,7945347,-7.420727729797363,17.46828269958496,17.549957275390625,-0.029268478974699974,0.07442134618759155,-0.023688064888119698
3113,7945387,-7.421682357788086,17.470623016357422,17.558746337890625,-0.030337294563651085,0.07644086331129074,-0.018696501851081848
3125,7945407,-7.422224998474121,17.471933364868164,17.562726974487305,-0.031588032841682434,0.07730818539857864,-0.015607067383825779
3139,7945447,-7.423330307006836,17.47451400756836,17.573894500732422,-0.033977266401052475,0.07874777168035507,-0.005982416681945324
3144,7945487,-7.424588680267334,17.477216720581055,17.58748435974121,-0.037876613438129425,0.07991807162761688,0.004394465126097202
3158,7945507,-7.425155162811279,17.47830581665039,17.593786239624023,-0.04022199288010597,0.07989729940891266,0.010031716898083687
3171,7945547,-7.426477432250977,17.480566024780273,17.60820198059082,-0.04589258134365082,0.07888074219226837,0.02131938748061657
3176,7945587,-7.428091049194336,17.482892990112305,17.623760223388672,-0.05250811204314232,0.07703949511051178,0.03122832626104355
3189,7945607,-7.429015159606934,17.48406219482422,17.630950927734375,-0.05612802878022194,0.07560525834560394,0.035259369760751724
3203,7945647,-7.431116104125977,17.486379623413086,17.645366668701172,-0.06384739279747009,0.0721258893609047,0.04021652042865753
3208,7945687,-7.433619976043701,17.48868179321289,17.659324645996094,-0.07177315652370453,0.06696642935276031,0.0406244695186615
3220,7945707,-7.434752941131592,17.489442825317383,17.665498733520508,-0.0752970427274704,0.06401723623275757,0.038462769240140915
3234,7945747,-7.4372663497924805,17.490877151489258,17.676097869873047,-0.08138762414455414,0.05699777975678444,0.029865581542253494
3248,7945787,-7.440079212188721,17.49214744567871,17.6845703125,-0.08664388954639435,0.04924768954515457,0.015110695734620094
3251,7945807,-7.441579818725586,17.492708206176758,17.68817901611328,-0.08871033042669296,0.04526109993457794,0.005971814505755901
3266,7945847,-7.444732666015625,17.493661880493164,17.692533493041992,-0.09203006327152252,0.03694865480065346,-0.015539046376943588
3280,7945887,-7.448037147521973,17.494384765625,17.693889617919922,-0.09396696090698242,0.029083047062158585,-0.03986479714512825
3284,7945907,-7.449422359466553,17.494613647460938,17.693958282470703,-0.09426840394735336,0.025399092584848404,-0.05238182470202446
3297,7945947,-7.452277660369873,17.494937896728516,17.691362380981445,-0.09405586868524551,0.019087906926870346,-0.07647304981946945
3301,7945967,-7.45382833480835,17.49505615234375,17.688756942749023,-0.0934433862566948,0.016014425083994865,-0.08803059160709381
3314,7946007,-7.456777095794678,17.495161056518555,17.683250427246094,-0.09204474836587906,0.011405312456190586,-0.10664646327495575
3328,7946047,-7.459719657897949,17.495180130004883,17.676021575927734,-0.08923988789319992,0.008062111213803291,-0.11887874454259872
3332,7946067,-7.461178302764893,17.495166778564453,17.67176628112793,-0.08815833926200867,0.006668031681329012,-0.12194105982780457
3346,7946107,-7.463930130004883,17.494993209838867,17.663867950439453,-0.08602890372276306,0.002402559155598283,-0.12135513126850128
3359,7946147,-7.466505527496338,17.49462127685547,17.65645408630371,-0.08405910432338715,-0.0021098130382597446,-0.11381003260612488
3365,7946167,-7.467798709869385,17.494386672973633,17.652843475341797,-0.08253289014101028,-0.00494219409301877,-0.10778618603944778
3378,7946207,-7.470396995544434,17.49376678466797,17.646329879760742,-0.0819968581199646,-0.013219984248280525,-0.091407909989357
3391,7946247,-7.473122596740723,17.492876052856445,17.64110565185547,-0.0850161612033844,-0.020225493237376213,-0.07351118326187134
3395,7946267,-7.474643707275391,17.49232292175293,17.638933181762695,-0.086750328540802,-0.023544970899820328,-0.06381051987409592
3409,7946307,-7.477680206298828,17.490949630737305,17.635805130004883,-0.09318282455205917,-0.02998674288392067,-0.04718922823667526
3422,7946347,-7.480986595153809,17.489194869995117,17.634151458740234,-0.09804177284240723,-0.039468906819820404,-0.03132328763604164
3426,7946367,-7.482719421386719,17.488162994384766,17.633716583251953,-0.09943152964115143,-0.04706944525241852,-0.023517202585935593
3442,7946407,-7.4862799644470215,17.485639572143555,17.63319206237793,-0.09947645664215088,-0.06689294427633286,-0.012268046848475933
3455,7946447,-7.489782333374023,17.482236862182617,17.6335506439209,-0.09469155967235565,-0.09304777532815933,-0.0025113674346357584
3459,7946467,-7.491480827331543,17.480127334594727,17.634000778198242,-0.09295450896024704,-0.10844685882329941,-0.001435816870070994
3474,7946507,-7.494543552398682,17.4753475189209,17.63502311706543,-0.08554679900407791,-0.13151922821998596,0.002535679377615452
3487,7946547,-7.4973835945129395,17.4697265625,17.63705062866211,-0.08171913027763367,-0.15145082771778107,-0.004200329072773457
3491,7946567,-7.498732089996338,17.466732025146484,17.638364791870117,-0.080149807035923,-0.15793751180171967,-0.010197647847235203
3505,7946607,-7.501480579376221,17.46038818359375,17.64033317565918,-0.08143667876720428,-0.1669117510318756,-0.02194015309214592
3510,7946627,-7.5028605461120605,17.457115173339844,17.641027450561523,-0.07890935242176056,-0.1705726683139801,-0.02594504877924919
3523,7946667,-7.505646705627441,17.450410842895508,17.646507263183594,-0.07889793068170547,-0.17527011036872864,-0.039667706936597824
3537,7946707,-7.5084099769592285,17.443735122680664,17.650829315185547,-0.0729636624455452,-0.18384677171707153,-0.03443393111228943
3541,7946727,-7.50971794128418,17.440364837646484,17.65279197692871,-0.07294469326734543,-0.18833506107330322,-0.02850189246237278
3554,7946767,-7.512281894683838,17.433544158935547,17.662090301513672,-0.06970500946044922,-0.1839083582162857,-0.023792242631316185
3568,7946807,-7.514949321746826,17.426870346069336,17.670400619506836,-0.0755123496055603,-0.17668196558952332,-0.01463845930993557
3582,7946827,-7.516437530517578,17.42346954345703,17.674278259277344,-0.076549232006073,-0.17534857988357544,-0.0044639394618570805
3586,7946867,-7.519381999969482,17.41706657409668,17.685644149780273,-0.07811076194047928,-0.17175815999507904,0.015203983522951603
3600,7946907,-7.522532939910889,17.410823822021484,17.696380615234375,-0.0789760872721672,-0.17133814096450806,0.036972202360630035
3604,7946927,-7.5241851806640625,17.407751083374023,17.7016544342041,-0.08190014213323593,-0.16867466270923615,0.05420742928981781
3617,7946967,-7.527501583099365,17.40155601501465,17.709930419921875,-0.07937894761562347,-0.16787442564964294,0.07567453384399414
3631,7947007,-7.53089714050293,17.395353317260742,17.718318939208984,-0.0801120176911354,-0.17100268602371216,0.09712288528680801
3635,7947027,-7.532557964324951,17.392173767089844,17.722557067871094,-0.08241315931081772,-0.17457401752471924,0.10869951546192169
3648,7947067,-7.535974502563477,17.38572120666504,17.72314453125,-0.07883850485086441,-0.1765531301498413,0.12048598378896713
3662,7947107,-7.539441108703613,17.37899398803711,17.72449493408203,-0.08165410161018372,-0.17799386382102966,0.13121676445007324
3666,7947127,-7.541099548339844,17.375717163085938,17.72528839111328,-0.07990358024835587,-0.17312143743038177,0.1374211311340332
3681,7947167,-7.544410705566406,17.369220733642578,17.71539878845215,-0.08064202219247818,-0.1718258410692215,0.13432009518146515
3694,7947207,-7.547530174255371,17.362855911254883,17.707592010498047,-0.07640840858221054,-0.1655578464269638,0.1349848508834839
3698,7947227,-7.54907751083374,17.359756469726562,17.7042293548584,-0.07496906071901321,-0.16450408101081848,0.12757006287574768
3711,7947267,-7.551868915557861,17.353702545166016,17.687158584594727,-0.06573876738548279,-0.16024482250213623,0.12580975890159607
3715,7947287,-7.553170204162598,17.3507137298584,17.67962646484375,-0.06166170910000801,-0.15729312598705292,0.11914651840925217
3729,7947327,-7.555028915405273,17.345142364501953,17.665325164794922,-0.05353108420968056,-0.14882738888263702,0.10572492331266403
3742,7947367,-7.556680679321289,17.339773178100586,17.646495819091797,-0.04577402025461197,-0.1418268233537674,0.09140609949827194
3748,7947387,-7.557392120361328,17.337244033813477,17.63800048828125,-0.041550230234861374,-0.13385498523712158,0.08433999866247177
3762,7947427,-7.5587263107299805,17.33209228515625,17.622766494750977,-0.03642556816339493,-0.13248126208782196,0.07675645500421524
3775,7947467,-7.559748649597168,17.327287673950195,17.608741760253906,-0.027456045150756836,-0.1272476315498352,0.07140685617923737
3781,7947487,-7.5601348876953125,17.324979782104492,17.602514266967773,-0.023408157750964165,-0.1233915463089943,0.06778648495674133
3794,7947527,-7.560910701751709,17.319929122924805,17.590896606445312,-0.019000085070729256,-0.11956177651882172,0.0637797862291336
3807,7947567,-7.5615129470825195,17.315004348754883,17.58499526977539,-0.01345023512840271,-0.12001768499612808,0.06817954033613205
3811,7947587,-7.561717510223389,17.312572479248047,17.582460403442383,-0.012126960791647434,-0.12081198394298553,0.06402619183063507
3826,7947627,-7.561896800994873,17.30779266357422,17.578094482421875,-0.002758739050477743,-0.11682414263486862,0.06344320625066757
3839,7947667,-7.561781883239746,17.30313491821289,17.580289840698242,0.005918737035244703,-0.11334054917097092,0.07126908004283905
3846,7947687,-7.561629295349121,17.30072021484375,17.58144760131836,0.005085345823317766,-0.11654277890920639,0.06279563903808594
3857,7947727,-7.5612053871154785,17.295995712280273,17.58317756652832,0.01630876585841179,-0.11204365640878677,0.06701631844043732
3870,7947767,-7.560436248779297,17.291471481323242,17.590147018432617,0.025298435240983963,-0.10591011494398117,0.06315887719392776
3877,7947787,-7.559922695159912,17.289337158203125,17.593358993530273,0.029795531183481216,-0.10237040370702744,0.05948054790496826
3888,7947827,-7.558689594268799,17.28533935546875,17.59913444519043,0.03439021483063698,-0.09408196061849594,0.04770665243268013
3902,7947867,-7.557202339172363,17.281713485717773,17.606779098510742,0.04252555966377258,-0.0826411098241806,0.041379548609256744
3909,7947887,-7.55634069442749,17.280088424682617,17.61017608642578,0.04713686555624008,-0.07748836278915405,0.03181620314717293
3920,7947927,-7.553898334503174,17.276588439941406,17.615541458129883,0.05212084576487541,-0.06371317058801651,0.021710490807890892
3932,7947947,-7.5526814460754395,17.27506446838379,17.617605209350586,0.04800190404057503,-0.057397499680519104,0.014810757711529732
3937,7947987,-7.550207138061523,17.272314071655273,17.620981216430664,0.05094664916396141,-0.04792243614792824,-0.0004965829430148005
3951,7948027,-7.54766321182251,17.270069122314453,17.623476028442383,0.05587814375758171,-0.039649203419685364,-0.010614624246954918
3963,7948047,-7.546350479125977,17.26910400390625,17.62320899963379,0.05998740717768669,-0.03502419590950012,-0.01677572913467884
3970,7948087,-7.543627738952637,17.267379760742188,17.622411727905273,0.06307448446750641,-0.03139752149581909,-0.027164233848452568
3982,7948127,-7.540806293487549,17.265295028686523,17.621135711669922,0.06720595061779022,-0.028267668560147285,-0.03253589943051338
3994,7948147,-7.539350509643555,17.26432228088379,17.61859893798828,0.06526843458414078,-0.030189616605639458,-0.03554723784327507
4002,7948187,-7.536375045776367,17.26239776611328,17.613672256469727,0.06792794167995453,-0.03152388334274292,-0.045019615441560745
4014,7948227,-7.533281326293945,17.260465621948242,17.608917236328125,0.0733206570148468,-0.03628992661833763,-0.04825328290462494
4026,7948247,-7.531682968139648,17.25945281982422,17.604713439941406,0.07786620408296585,-0.03754511475563049,-0.0532347597181797
4031,7948287,-7.528264999389648,17.257314682006836,17.59678077697754,0.08310232311487198,-0.04169781133532524,-0.05514174699783325
4045,7948327,-7.524468421936035,17.254629135131836,17.589946746826172,0.08600210398435593,-0.04997510835528374,-0.056803327053785324
4057,7948347,-7.5225510597229,17.253217697143555,17.58526611328125,0.08687035739421844,-0.05339399725198746,-0.05717732384800911
4066,7948387,-7.518643379211426,17.250356674194336,17.576641082763672,0.09061310440301895,-0.055382128804922104,-0.05723465234041214
4078,7948427,-7.514741897583008,17.247394561767578,17.568944931030273,0.08970876783132553,-0.06064106151461601,-0.052920032292604446
4090,7948447,-7.512837886810303,17.24588394165039,17.564573287963867,0.08794927597045898,-0.06404362618923187,-0.05236569792032242
4099,7948487,-7.509106636047363,17.242780685424805,17.556568145751953,0.0830446258187294,-0.0660109743475914,-0.04865824058651924
4110,7948527,-7.505257606506348,17.23927879333496,17.550209045410156,0.08225610107183456,-0.06949620693922043,-0.04179791733622551
4122,7948547,-7.503308296203613,17.23746109008789,17.547082901000977,0.07997429370880127,-0.06874063611030579,-0.03581194207072258
4127,7948587,-7.49985933303833,17.2341365814209,17.541723251342773,0.0704532116651535,-0.06389331817626953,-0.025101618841290474
4141,7948607,-7.498263359069824,17.23257064819336,17.539329528808594,0.06929940730333328,-0.06342924386262894,-0.02923407405614853
4154,7948647,-7.495347499847412,17.229637145996094,17.534835815429688,0.06112514063715935,-0.05718173086643219,-0.02251281775534153
4163,7948687,-7.492710113525391,17.227069854736328,17.53081512451172,0.0540425144135952,-0.04996209964156151,-0.01832011714577675
4171,7948707,-7.491743087768555,17.22604751586914,17.52913475036621,0.0498332716524601,-0.04525227099657059,-0.02009139582514763
4185,7948747,-7.490121841430664,17.2242431640625,17.524808883666992,0.03583323583006859,-0.039423029869794846,-0.026138560846447945
4199,7948787,-7.4889140129089355,17.222837448120117,17.519777297973633,0.03094559907913208,-0.029331767931580544,-0.03308229520916939
4203,7948807,-7.4883551597595215,17.22228240966797,17.51738166809082,0.03167257085442543,-0.02308555878698826,-0.03409281373023987
4217,7948847,-7.487249374389648,17.22148323059082,17.511184692382812,0.029060684144496918,-0.01324417907744646,-0.040561724454164505
4222,7948887,-7.486352443695068,17.221101760864258,17.50381851196289,0.023966940119862556,-0.003282928140833974,-0.050757769495248795
4235,7948907,-7.485676288604736,17.2210693359375,17.500391006469727,0.019867395982146263,0.0005314453155733645,-0.05310165137052536
4248,7948947,-7.484559059143066,17.221214294433594,17.491926193237305,0.013466798700392246,0.007274664472788572,-0.06376295536756516
4253,7948987,-7.4837846755981445,17.221744537353516,17.48224449157715,0.006252526771277189,0.017013121396303177,-0.07111287117004395
4266,7949007,-7.483529567718506,17.222126007080078,17.477663040161133,0.0030860051047056913,0.019277255982160568,-0.0735202357172966
4279,7949047,-7.483292579650879,17.223041534423828,17.4678955078125,-0.00602845661342144,0.023852543905377388,-0.07559250295162201
4284,7949087,-7.483447074890137,17.224098205566406,17.45787811279297,-0.013876890763640404,0.02630521170794964,-0.07495623081922531
4297,7949107,-7.483554363250732,17.22479248046875,17.453462600708008,-0.018202392384409904,0.02491888590157032,-0.07335472851991653
4310,7949147,-7.484013080596924,17.226062774658203,17.445693969726562,-0.025929154828190804,0.024008825421333313,-0.06350505352020264
4325,7949187,-7.484731674194336,17.227272033691406,17.439149856567383,-0.02803775668144226,0.022576836869120598,-0.05014515668153763
4329,7949207,-7.48513650894165,17.227848052978516,17.436336517333984,-0.02858349122107029,0.02167772687971592,-0.0422552153468132
4342,7949247,-7.485995292663574,17.228954315185547,17.432432174682617,-0.029651956632733345,0.0200413316488266,-0.0230680201202631
4346,7949267,-7.486454486846924,17.22946548461914,17.431304931640625,-0.02917393296957016,0.01849060133099556,-0.013997005298733711
4359,7949307,-7.487096309661865,17.230260848999023,17.429893493652344,-0.0305120088160038,0.016101550310850143,0.00032036640914157033
4373,7949347,-7.4875168800354,17.23082733154297,17.429916381835938,-0.02989099733531475,0.011707544326782227,0.012985911220312119
4377,7949367,-7.487765789031982,17.231069564819336,17.43035888671875,-0.030531635507941246,0.010803667828440666,0.018160700798034668
4392,7949407,-7.488400936126709,17.231576919555664,17.431591033935547,-0.03211966156959534,0.012176519259810448,0.02815464697778225
4406,7949447,-7.489147186279297,17.23215675354004,17.432331085205078,-0.03374232351779938,0.016389360651373863,0.03161365166306496
4410,7949467,-7.489590167999268,17.23252296447754,17.432397842407227,-0.03639066591858864,0.01786288246512413,0.03253558278083801
4424,7949507,-7.490415573120117,17.233409881591797,17.432716369628906,-0.031933173537254333,0.02934427373111248,0.03660086542367935
4438,7949547,-7.490955829620361,17.234615325927734,17.431550979614258,-0.026035567745566368,0.04555844888091087,0.03616231307387352
4442,7949567,-7.491184711456299,17.2354793548584,17.430299758911133,-0.02237674407660961,0.05149739608168602,0.03198949620127678
4456,7949607,-7.491604804992676,17.237560272216797,17.42793846130371,-0.022165322676301003,0.06439893692731857,0.023275163024663925
4470,7949647,-7.492054462432861,17.240196228027344,17.42362403869629,-0.018991200253367424,0.07547998428344727,0.011469501070678234
4474,7949667,-7.492227077484131,17.24168586730957,17.4205322265625,-0.016593005508184433,0.08072631061077118,0.004259269218891859
4487,7949707,-7.4923906326293945,17.245161056518555,17.414384841918945,-0.015517149120569229,0.09231074899435043,-0.01341207791119814
4501,7949747,-7.492344856262207,17.249021530151367,17.406715393066406,-0.01190635934472084,0.10309744626283646,-0.029820352792739868
4505,7949767,-7.492308616638184,17.251073837280273,17.40224838256836,-0.012544643133878708,0.10587111860513687,-0.04130663722753525
4518,7949807,-7.492249965667725,17.25542449951172,17.393617630004883,-0.009428818710148335,0.11424081027507782,-0.05512474849820137
4533,7949847,-7.4921393394470215,17.260055541992188,17.38497543334961,-0.006443329621106386,0.11876734346151352,-0.07016706466674805
4537,7949867,-7.492037296295166,17.262441635131836,17.380632400512695,-0.0035174458753317595,0.12144774943590164,-0.07532559335231781
4550,7949907,-7.491731643676758,17.267335891723633,17.372398376464844,0.0030175214633345604,0.12125041335821152,-0.08469583094120026
4555,7949927,-7.491528511047363,17.269826889038086,17.368473052978516,0.005959224887192249,0.12012191861867905,-0.08865797519683838
4568,7949967,-7.490940570831299,17.27485466003418,17.36448097229004,0.01162472739815712,0.11673063039779663,-0.09147585928440094
4581,7950007,-7.490278244018555,17.279569625854492,17.360614776611328,0.011409489437937737,0.11119630187749863,-0.08889476954936981
4586,7950027,-7.489947319030762,17.281841278076172,17.358781814575195,0.014058435335755348,0.10927552729845047,-0.08599068224430084
4599,7950067,-7.489198207855225,17.286174774169922,17.361520767211914,0.016795368865132332,0.10251733660697937,-0.07498637586832047
4612,7950107,-7.488182067871094,17.290313720703125,17.364330291748047,0.021731197834014893,0.0949864387512207,-0.0589250773191452
4617,7950127,-7.487563610076904,17.292320251464844,17.3658390045166,0.021634124219417572,0.09078896790742874,-0.05167706683278084
4632,7950167,-7.486271381378174,17.296110153198242,17.375598907470703,0.026097668334841728,0.08516668528318405,-0.02943793684244156
4644,7950207,-7.484866142272949,17.2996768951416,17.384763717651367,0.03046742081642151,0.08120744675397873,-0.008836120367050171
4649,7950227,-7.484122276306152,17.301401138305664,17.38921356201172,0.03118433803319931,0.07896339893341064,0.0036302648950368166
4662,7950267,-7.482484817504883,17.304805755615234,17.402833938598633,0.03592388331890106,0.07557837665081024,0.026469657197594643
4675,7950307,-7.480789661407471,17.30815315246582,17.415678024291992,0.0381958931684494,0.07739265263080597,0.046632543206214905
4680,7950327,-7.479918956756592,17.309865951538086,17.42182159423828,0.0392138734459877,0.07753714174032211,0.05349313095211983
4693,7950367,-7.478178024291992,17.31329345703125,17.43492317199707,0.03916056081652641,0.07868307828903198,0.0672864019870758
4708,7950407,-7.476486682891846,17.316787719726562,17.447050094604492,0.03726668283343315,0.08086371421813965,0.0738648995757103
4713,7950427,-7.475678443908691,17.318559646606445,17.452743530273438,0.03740289434790611,0.08303818106651306,0.07543962448835373
4726,7950467,-7.474211692810059,17.322132110595703,17.46174430847168,0.03213528171181679,0.08378323912620544,0.07368343323469162
