packet_index,time_boot_ms,lat_deg,lon_deg,alt_m,relative_alt_m,heading_deg,vx_mps,vy_mps,vz_mps
10,7935587,63.4404933,10.3488392,15.48,8.629,117.08,-0.01,0.1,0.09
17,7935607,63.4404933,10.3488392,15.48,8.629,117.08,-0.01,0.11,0.08
30,7935647,63.4404933,10.3488393,15.48,8.627,117.08,-0.01,0.12,0.06
35,7935687,63.4404933,10.3488393,15.48,8.624,117.07,0.0,0.12,0.03
48,7935707,63.4404933,10.3488394,15.48,8.623,117.07,0.0,0.12,0.02
61,7935747,63.4404933,10.3488395,15.48,8.62,117.07,0.0,0.12,0.0
66,7935787,63.4404933,10.3488395,15.47,8.615,117.06,0.0,0.12,-0.01
78,7935807,63.4404933,10.3488396,15.47,8.613,117.06,0.0,0.13,-0.02
94,7935847,63.4404934,10.3488397,15.46,8.607,117.06,0.0,0.13,-0.04
98,7935887,63.4404934,10.3488397,15.46,8.6,117.06,0.0,0.12,-0.05
111,7935907,63.4404934,10.3488398,15.45,8.597,117.07,0.0,0.12,-0.05
124,7935947,63.4404934,10.3488398,15.45,8.591,117.1,-0.01,0.12,-0.05
129,7935987,63.4404934,10.3488399,15.44,8.584,117.13,-0.01,0.11,-0.05
142,7936007,63.4404934,10.34884,15.44,8.58,117.15,-0.02,0.11,-0.05
155,7936047,63.4404934,10.34884,15.43,8.574,117.2,-0.03,0.1,-0.05
159,7936067,63.4404934,10.3488401,15.43,8.571,117.23,-0.03,0.1,-0.04
173,7936107,63.4404933,10.3488401,15.42,8.566,117.29,-0.04,0.09,-0.04
186,7936147,63.4404933,10.3488402,15.42,8.562,117.35,-0.05,0.08,-0.03
192,7936167,63.4404933,10.3488402,15.42,8.56,117.37,-0.06,0.08,-0.03
205,7936207,63.4404933,10.3488402,15.41,8.558,117.43,-0.06,0.07,-0.03
218,7936247,63.4404933,10.3488403,15.41,8.558,117.5,-0.07,0.06,-0.04
222,7936267,63.4404933,10.3488403,15.41,8.559,117.53,-0.07,0.06,-0.05
236,7936307,63.4404932,10.3488403,15.42,8.56,117.6,-0.08,0.05,-0.06
249,7936347,63.4404932,10.3488403,15.42,8.563,117.68,-0.08,0.04,-0.07
253,7936367,63.4404932,10.3488403,15.42,8.565,117.72,-0.08,0.03,-0.08
269,7936407,63.4404932,10.3488404,15.43,8.57,117.82,-0.09,0.03,-0.1
282,7936447,63.4404932,10.3488404,15.43,8.574,117.92,-0.09,0.02,-0.11
286,7936467,63.4404931,10.3488404,15.43,8.576,117.97,-0.09,0.02,-0.12
300,7936507,63.4404931,10.3488404,15.43,8.579,118.07,-0.09,0.01,-0.12
314,7936547,63.4404931,10.3488404,15.44,8.58,118.16,-0.09,0.01,-0.12
318,7936567,63.4404931,10.3488404,15.43,8.579,118.2,-0.1,0.0,-0.12
332,7936607,63.440493,10.3488404,15.43,8.578,118.28,-0.1,0.0,-0.11
346,7936647,63.440493,10.3488403,15.43,8.573,118.34,-0.1,0.0,-0.09
350,7936667,63.440493,10.3488403,15.43,8.57,118.37,-0.1,0.0,-0.08
363,7936707,63.4404929,10.3488403,15.42,8.563,118.41,-0.1,-0.01,-0.06
368,7936727,63.4404929,10.3488403,15.41,8.559,118.43,-0.1,-0.01,-0.05
381,7936767,63.4404929,10.3488403,15.4,8.548,118.46,-0.1,-0.01,-0.03
394,7936807,63.4404929,10.3488403,15.39,8.538,118.49,-0.1,-0.02,-0.01
399,7936827,63.4404929,10.3488403,15.39,8.533,118.51,-0.1,-0.02,0.0
413,7936867,63.4404928,10.3488403,15.38,8.524,118.55,-0.1,-0.02,0.01
426,7936907,63.4404928,10.3488403,15.37,8.515,118.59,-0.1,-0.03,0.03
431,7936927,63.4404928,10.3488403,15.37,8.511,118.62,-0.1,-0.03,0.03
444,7936967,63.4404927,10.3488402,15.36,8.506,118.66,-0.1,-0.03,0.05
458,7937007,63.4404927,10.3488402,15.36,8.501,118.71,-0.1,-0.04,0.06
462,7937027,63.4404927,10.3488401,15.35,8.499,118.72,-0.1,-0.04,0.06
475,7937067,63.4404927,10.3488401,15.36,8.5,118.75,-0.1,-0.04,0.07
488,7937107,63.4404926,10.34884,15.36,8.5,118.76,-0.1,-0.04,0.07
493,7937127,63.4404926,10.34884,15.36,8.5,118.76,-0.09,-0.04,0.07
506,7937167,63.4404926,10.3488399,15.36,8.506,118.74,-0.09,-0.04,0.07
520,7937207,63.4404925,10.3488399,15.37,8.512,118.71,-0.1,-0.04,0.06
525,7937227,63.4404925,10.3488399,15.37,8.514,118.69,-0.09,-0.04,0.06
538,7937267,63.4404925,10.3488398,15.38,8.525,118.65,-0.1,-0.04,0.05
551,7937307,63.4404925,10.3488398,15.39,8.534,118.61,-0.1,-0.04,0.04
556,7937327,63.4404924,10.3488397,15.39,8.539,118.59,-0.09,-0.04,0.03
569,7937367,63.4404924,10.3488397,15.41,8.552,118.54,-0.09,-0.04,0.02
575,7937387,63.4404924,10.3488397,15.41,8.557,118.52,-0.09,-0.04,0.01
589,7937427,63.4404924,10.3488396,15.42,8.568,118.49,-0.09,-0.04,0.0
602,7937467,63.4404923,10.3488396,15.43,8.578,118.46,-0.09,-0.03,0.0
606,7937487,63.4404923,10.3488395,15.44,8.583,118.44,-0.09,-0.03,-0.01
621,7937527,63.4404923,10.3488395,15.45,8.592,118.42,-0.09,-0.03,-0.01
634,7937567,63.4404922,10.3488395,15.45,8.596,118.39,-0.09,-0.02,-0.02
638,7937587,63.4404922,10.3488394,15.45,8.598,118.38,-0.09,-0.02,-0.02
653,7937627,63.4404922,10.3488394,15.46,8.602,118.36,-0.09,-0.02,-0.01
666,7937667,63.4404922,10.3488394,15.45,8.599,118.35,-0.09,-0.02,0.0
670,7937687,63.4404921,10.3488394,15.45,8.598,118.35,-0.09,-0.02,0.0
684,7937727,63.4404921,10.3488393,15.45,8.595,118.34,-0.09,-0.01,0.01
697,7937767,63.4404921,10.3488393,15.44,8.588,118.33,-0.09,-0.01,0.03
701,7937787,63.4404921,10.3488393,15.44,8.585,118.33,-0.09,-0.01,0.03
715,7937827,63.440492,10.3488393,15.43,8.578,118.33,-0.09,-0.01,0.05
729,7937867,63.440492,10.3488393,15.43,8.571,118.32,-0.09,-0.01,0.06
733,7937887,63.440492,10.3488392,15.42,8.568,118.32,-0.09,-0.01,0.07
747,7937927,63.440492,10.3488392,15.42,8.561,118.31,-0.09,-0.01,0.08
760,7937967,63.4404919,10.3488392,15.42,8.56,118.29,-0.08,0.0,0.09
764,7937987,63.4404919,10.3488392,15.41,8.559,118.29,-0.08,0.0,0.09
778,7938027,63.4404919,10.3488392,15.41,8.557,118.28,-0.08,0.0,0.09
790,7938047,63.4404919,10.3488391,15.42,8.56,118.28,-0.07,0.0,0.09
795,7938087,63.4404918,10.3488391,15.42,8.565,118.28,-0.07,0.0,0.09
809,7938127,63.4404918,10.3488391,15.42,8.569,118.29,-0.06,0.0,0.09
821,7938147,63.4404918,10.3488391,15.43,8.575,118.3,-0.06,0.0,0.08
827,7938187,63.4404918,10.3488391,15.44,8.584,118.32,-0.05,0.0,0.08
841,7938227,63.4404918,10.3488391,15.45,8.592,118.35,-0.04,0.01,0.07
853,7938247,63.4404918,10.3488391,15.45,8.597,118.37,-0.04,0.01,0.07
858,7938287,63.4404918,10.3488391,15.46,8.607,118.4,-0.03,0.01,0.07
872,7938327,63.4404918,10.348839,15.47,8.616,118.43,-0.03,0.02,0.06
884,7938347,63.4404917,10.348839,15.47,8.619,118.43,-0.03,0.02,0.06
900,7938387,63.4404917,10.348839,15.48,8.626,118.43,-0.02,0.03,0.06
905,7938427,63.4404917,10.348839,15.49,8.632,118.41,-0.02,0.04,0.07
917,7938447,63.4404917,10.348839,15.49,8.632,118.39,-0.02,0.04,0.07
922,7938487,63.4404917,10.348839,15.49,8.634,118.34,-0.02,0.05,0.07
937,7938527,63.4404917,10.348839,15.49,8.635,118.26,-0.01,0.05,0.06
949,7938547,63.4404917,10.348839,15.49,8.634,118.21,-0.01,0.06,0.06
954,7938587,63.4404917,10.348839,15.49,8.632,118.12,-0.01,0.06,0.06
969,7938627,63.4404917,10.348839,15.49,8.63,118.02,-0.01,0.06,0.05
981,7938647,63.4404917,10.3488391,15.48,8.627,117.97,-0.01,0.06,0.04
986,7938687,63.4404917,10.3488391,15.48,8.622,117.88,-0.01,0.07,0.03
998,7938707,63.4404917,10.3488391,15.48,8.621,117.84,-0.01,0.07,0.03
1012,7938747,63.4404917,10.3488391,15.47,8.616,117.78,-0.01,0.07,0.01
1017,7938787,63.4404917,10.3488392,15.47,8.61,117.74,0.0,0.07,0.01
1029,7938807,63.4404917,10.3488392,15.46,8.608,117.72,0.0,0.07,0.0
1044,7938847,63.4404917,10.3488392,15.46,8.601,117.71,0.0,0.07,0.0
1049,7938887,63.4404917,10.3488393,15.45,8.594,117.71,0.0,0.07,0.0
1062,7938907,63.4404917,10.3488393,15.45,8.59,117.72,0.0,0.07,0.0
1075,7938947,63.4404917,10.3488393,15.44,8.583,117.72,0.0,0.07,0.0
1089,7938987,63.4404917,10.3488394,15.43,8.574,117.73,0.0,0.07,0.01
1092,7939007,63.4404917,10.3488394,15.43,8.57,117.72,0.0,0.07,0.01
1106,7939047,63.4404917,10.3488394,15.42,8.563,117.71,-0.01,0.07,0.03
1111,7939087,63.4404917,10.3488395,15.41,8.557,117.69,-0.01,0.07,0.04
1124,7939107,63.4404917,10.3488395,15.41,8.554,117.67,-0.02,0.07,0.04
1137,7939147,63.4404917,10.3488395,15.41,8.55,117.63,-0.03,0.07,0.05
1152,7939187,63.4404917,10.3488396,15.41,8.55,117.59,-0.03,0.07,0.05
1166,7939207,63.4404917,10.3488396,15.4,8.549,117.57,-0.04,0.07,0.05
1169,7939247,63.4404917,10.3488396,15.41,8.553,117.53,-0.05,0.07,0.04
1174,7939287,63.4404917,10.3488397,15.42,8.56,117.51,-0.05,0.07,0.02
1188,7939307,63.4404917,10.3488397,15.42,8.564,117.5,-0.06,0.07,0.01
1202,7939347,63.4404917,10.3488397,15.43,8.574,117.49,-0.06,0.06,0.0
1207,7939367,63.4404917,10.3488397,15.44,8.58,117.5,-0.06,0.06,-0.01
1221,7939407,63.4404916,10.3488398,15.45,8.593,117.53,-0.06,0.06,-0.04
1233,7939447,63.4404916,10.3488398,15.46,8.605,117.57,-0.06,0.06,-0.07
1238,7939467,63.4404916,10.3488398,15.47,8.611,117.59,-0.06,0.06,-0.08
1252,7939507,63.4404916,10.3488398,15.48,8.624,117.65,-0.06,0.05,-0.11
1265,7939547,63.4404916,10.3488399,15.49,8.633,117.71,-0.06,0.05,-0.12
1269,7939567,63.4404916,10.3488399,15.49,8.636,117.74,-0.06,0.05,-0.13
1283,7939607,63.4404916,10.3488399,15.5,8.642,117.79,-0.07,0.04,-0.14
1297,7939647,63.4404915,10.3488399,15.5,8.644,117.84,-0.07,0.04,-0.14
1301,7939667,63.4404915,10.3488399,15.5,8.643,117.86,-0.07,0.04,-0.13
1314,7939707,63.4404915,10.3488399,15.5,8.641,117.88,-0.08,0.03,-0.13
1328,7939747,63.4404915,10.3488399,15.49,8.635,117.89,-0.08,0.02,-0.12
1332,7939767,63.4404915,10.3488399,15.49,8.63,117.89,-0.09,0.02,-0.12
1346,7939807,63.4404914,10.34884,15.48,8.622,117.88,-0.1,0.01,-0.11
1361,7939847,63.4404914,10.3488399,15.47,8.613,117.87,-0.1,0.01,-0.1
1375,7939867,63.4404914,10.3488399,15.46,8.607,117.86,-0.1,0.0,-0.09
1378,7939907,63.4404914,10.3488399,15.45,8.597,117.85,-0.11,0.0,-0.08
1392,7939947,63.4404913,10.3488399,15.44,8.588,117.84,-0.11,0.0,-0.07
1395,7939967,63.4404913,10.3488399,15.44,8.584,117.84,-0.11,-0.01,-0.06
1408,7940007,63.4404913,10.3488399,15.43,8.576,117.84,-0.12,-0.01,-0.05
1413,7940027,63.4404912,10.3488399,15.43,8.572,117.85,-0.12,-0.02,-0.04
1426,7940067,63.4404912,10.3488398,15.42,8.567,117.87,-0.12,-0.02,-0.03
1440,7940107,63.4404912,10.3488398,15.42,8.563,117.9,-0.12,-0.03,-0.01
1454,7940127,63.4404911,10.3488398,15.42,8.56,117.92,-0.12,-0.03,-0.01
1458,7940167,63.4404911,10.3488397,15.42,8.56,117.96,-0.11,-0.03,0.0
1471,7940207,63.4404911,10.3488397,15.41,8.558,118.0,-0.11,-0.04,0.01
1476,7940227,63.440491,10.3488397,15.41,8.558,118.02,-0.11,-0.04,0.02
1489,7940267,63.440491,10.3488396,15.42,8.563,118.07,-0.11,-0.05,0.03
1503,7940307,63.440491,10.3488396,15.42,8.567,118.1,-0.1,-0.05,0.04
1507,7940327,63.4404909,10.3488396,15.42,8.568,118.12,-0.1,-0.05,0.04
1520,7940367,63.4404909,10.3488396,15.44,8.58,118.15,-0.1,-0.06,0.04
1536,7940407,63.4404909,10.3488395,15.45,8.59,118.16,-0.1,-0.06,0.04
1540,7940427,63.4404908,10.3488395,15.45,8.594,118.16,-0.1,-0.06,0.04
1553,7940467,63.4404908,10.3488394,15.47,8.611,118.17,-0.09,-0.06,0.03
1566,7940507,63.4404908,10.3488394,15.48,8.627,118.16,-0.09,-0.06,0.03
1572,7940527,63.4404908,10.3488393,15.49,8.634,118.15,-0.09,-0.06,0.02
1585,7940567,63.4404907,10.3488393,15.51,8.653,118.14,-0.08,-0.06,0.01
1599,7940607,63.4404907,10.3488392,15.52,8.669,118.13,-0.07,-0.06,0.0
1604,7940627,63.4404907,10.3488392,15.53,8.677,118.13,-0.07,-0.05,0.0
1617,7940667,63.4404907,10.3488391,15.55,8.691,118.13,-0.07,-0.05,0.0
1630,7940687,63.4404907,10.3488391,15.55,8.697,118.14,-0.06,-0.05,0.0
1636,7940727,63.4404906,10.348839,15.56,8.709,118.16,-0.06,-0.04,0.0
1649,7940767,63.4404906,10.348839,15.57,8.712,118.19,-0.05,-0.04,0.0
1653,7940787,63.4404906,10.348839,15.57,8.714,118.2,-0.05,-0.03,0.0
1667,7940827,63.4404906,10.3488389,15.57,8.716,118.24,-0.05,-0.03,0.01
1683,7940867,63.4404906,10.3488389,15.56,8.707,118.28,-0.05,-0.02,0.03
1687,7940887,63.4404906,10.3488389,15.56,8.702,118.3,-0.05,-0.02,0.04
1701,7940927,63.4404906,10.3488388,15.55,8.694,118.33,-0.05,-0.01,0.06
1714,7940967,63.4404905,10.3488388,15.53,8.676,118.35,-0.05,-0.01,0.08
1718,7940987,63.4404905,10.3488388,15.52,8.667,118.36,-0.05,-0.01,0.09
1732,7941027,63.4404905,10.3488388,15.51,8.651,118.37,-0.05,0.0,0.1
1745,7941067,63.4404905,10.3488387,15.49,8.632,118.37,-0.06,0.0,0.11
1749,7941087,63.4404905,10.3488387,15.48,8.622,118.36,-0.06,0.0,0.11
1763,7941127,63.4404905,10.3488387,15.46,8.606,118.35,-0.06,0.0,0.11
1776,7941167,63.4404904,10.3488387,15.45,8.593,118.33,-0.05,0.0,0.11
1790,7941187,63.4404904,10.3488387,15.44,8.587,118.31,-0.05,0.01,0.1
1795,7941227,63.4404904,10.3488387,15.43,8.576,118.29,-0.05,0.01,0.09
1808,7941267,63.4404904,10.3488387,15.43,8.572,118.27,-0.04,0.02,0.07
1812,7941287,63.4404904,10.3488387,15.43,8.571,118.26,-0.04,0.02,0.07
1826,7941327,63.4404904,10.3488387,15.43,8.57,118.25,-0.03,0.02,0.05
1838,7941347,63.4404904,10.3488387,15.43,8.574,118.24,-0.03,0.03,0.04
1845,7941387,63.4404903,10.3488387,15.44,8.581,118.23,-0.02,0.03,0.03
1859,7941427,63.4404903,10.3488387,15.44,8.587,118.24,-0.02,0.03,0.02
1871,7941447,63.4404903,10.3488387,15.45,8.595,118.24,-0.02,0.03,0.02
1876,7941487,63.4404903,10.3488386,15.46,8.608,118.26,-0.02,0.03,0.01
1891,7941527,63.4404903,10.3488386,15.48,8.62,118.28,-0.02,0.04,0.01
1903,7941547,63.4404903,10.3488386,15.48,8.629,118.3,-0.02,0.04,0.01
1908,7941587,63.4404903,10.3488386,15.5,8.645,118.33,-0.02,0.04,0.0
1923,7941627,63.4404903,10.3488386,15.51,8.659,118.37,-0.03,0.05,0.0
1935,7941647,63.4404903,10.3488387,15.52,8.667,118.39,-0.03,0.05,0.0
1940,7941687,63.4404903,10.3488387,15.54,8.682,118.44,-0.04,0.06,0.0
1954,7941727,63.4404903,10.3488387,15.55,8.695,118.47,-0.04,0.06,0.0
1966,7941747,63.4404903,10.3488387,15.56,8.7,118.49,-0.05,0.07,0.0
1971,7941787,63.4404902,10.3488387,15.56,8.709,118.51,-0.05,0.07,0.0
1985,7941827,63.4404902,10.3488388,15.57,8.717,118.53,-0.06,0.08,-0.01
1998,7941847,63.4404902,10.3488388,15.57,8.717,118.54,-0.06,0.08,-0.01
2008,7941887,63.4404902,10.3488389,15.57,8.717,118.54,-0.06,0.09,-0.02
2017,7941927,63.4404902,10.3488389,15.57,8.717,118.54,-0.07,0.09,-0.02
2029,7941947,63.4404902,10.3488389,15.57,8.711,118.54,-0.07,0.09,-0.02
2034,7941987,63.4404902,10.348839,15.56,8.7,118.54,-0.07,0.1,-0.03
2047,7942007,63.4404901,10.348839,15.55,8.695,118.54,-0.07,0.1,-0.03
2060,7942047,63.4404901,10.3488391,15.53,8.679,118.54,-0.07,0.1,-0.03
2065,7942087,63.4404901,10.3488391,15.51,8.659,118.55,-0.07,0.1,-0.03
2078,7942107,63.4404901,10.3488392,15.51,8.65,118.55,-0.07,0.1,-0.03
2091,7942147,63.4404901,10.3488392,15.48,8.629,118.57,-0.07,0.1,-0.02
2097,7942187,63.44049,10.3488393,15.46,8.605,118.59,-0.08,0.09,-0.01
2109,7942207,63.44049,10.3488393,15.45,8.594,118.6,-0.08,0.08,0.0
2123,7942247,63.44049,10.3488393,15.43,8.573,118.62,-0.08,0.08,0.0
2137,7942287,63.44049,10.3488394,15.41,8.553,118.65,-0.08,0.08,0.02
2151,7942307,63.44049,10.3488394,15.4,8.544,118.67,-0.08,0.07,0.02
2165,7942347,63.4404899,10.3488394,15.39,8.531,118.7,-0.08,0.07,0.03
2170,7942387,63.4404899,10.3488395,15.38,8.522,118.73,-0.08,0.07,0.04
2184,7942407,63.4404899,10.3488395,15.37,8.518,118.75,-0.08,0.07,0.04
2187,7942447,63.4404899,10.3488395,15.37,8.517,118.78,-0.07,0.06,0.04
2192,7942487,63.4404899,10.3488395,15.38,8.521,118.82,-0.07,0.06,0.03
2206,7942507,63.4404898,10.3488396,15.38,8.523,118.83,-0.07,0.06,0.02
2219,7942547,63.4404898,10.3488396,15.39,8.534,118.87,-0.07,0.07,0.01
2224,7942587,63.4404898,10.3488397,15.4,8.549,118.89,-0.06,0.07,0.0
2238,7942607,63.4404898,10.3488397,15.41,8.556,118.9,-0.06,0.07,-0.01
2251,7942647,63.4404898,10.3488397,15.43,8.574,118.91,-0.06,0.07,-0.04
2255,7942667,63.4404898,10.3488398,15.44,8.583,118.91,-0.06,0.07,-0.05
2269,7942707,63.4404898,10.3488398,15.46,8.602,118.91,-0.05,0.07,-0.07
2282,7942747,63.4404897,10.3488399,15.47,8.619,118.89,-0.05,0.07,-0.09
2286,7942767,63.4404897,10.3488399,15.48,8.627,118.88,-0.05,0.07,-0.09
2299,7942807,63.4404897,10.3488399,15.5,8.642,118.86,-0.05,0.06,-0.11
2314,7942847,63.4404897,10.34884,15.51,8.651,118.84,-0.05,0.06,-0.11
2318,7942867,63.4404897,10.34884,15.51,8.654,118.83,-0.05,0.05,-0.12
2331,7942907,63.4404897,10.34884,15.51,8.659,118.82,-0.05,0.05,-0.11
2345,7942947,63.4404897,10.3488401,15.51,8.657,118.81,-0.05,0.03,-0.1
2349,7942967,63.4404897,10.3488401,15.51,8.653,118.81,-0.06,0.03,-0.1
2362,7943007,63.4404896,10.3488401,15.5,8.645,118.81,-0.06,0.01,-0.08
2376,7943047,63.4404896,10.3488401,15.49,8.632,118.82,-0.06,0.0,-0.06
2380,7943067,63.4404896,10.3488401,15.48,8.623,118.82,-0.06,0.0,-0.05
2393,7943107,63.4404896,10.3488401,15.46,8.606,118.83,-0.06,-0.01,-0.03
2407,7943147,63.4404896,10.34884,15.44,8.586,118.83,-0.06,-0.02,-0.01
2413,7943167,63.4404896,10.34884,15.43,8.575,118.83,-0.06,-0.02,-0.01
2425,7943207,63.4404895,10.34884,15.41,8.554,118.83,-0.05,-0.03,0.0
2439,7943247,63.4404895,10.3488399,15.39,8.535,118.81,-0.05,-0.04,0.0
2443,7943267,63.4404895,10.3488399,15.38,8.526,118.8,-0.05,-0.04,0.0
2456,7943307,63.4404895,10.3488399,15.36,8.509,118.78,-0.05,-0.04,0.0
2461,7943327,63.4404895,10.3488398,15.36,8.502,118.76,-0.05,-0.05,0.0
2474,7943367,63.4404895,10.3488398,15.35,8.491,118.73,-0.04,-0.05,0.0
2489,7943407,63.4404894,10.3488397,15.34,8.482,118.7,-0.04,-0.06,-0.01
2494,7943427,63.4404894,10.3488397,15.33,8.478,118.69,-0.04,-0.06,-0.01
2507,7943467,63.4404894,10.3488396,15.33,8.476,118.67,-0.04,-0.07,-0.01
2522,7943507,63.4404894,10.3488396,15.33,8.475,118.65,-0.04,-0.07,0.0
2526,7943527,63.4404894,10.3488396,15.33,8.474,118.64,-0.04,-0.08,0.0
2539,7943567,63.4404894,10.3488395,15.33,8.479,118.63,-0.04,-0.08,0.0
2553,7943607,63.4404894,10.3488394,15.34,8.483,118.61,-0.04,-0.09,0.0
2558,7943627,63.4404894,10.3488394,15.34,8.485,118.61,-0.04,-0.09,0.01
2571,7943667,63.4404893,10.3488393,15.35,8.494,118.6,-0.04,-0.09,0.02
2584,7943707,63.4404893,10.3488392,15.36,8.501,118.59,-0.04,-0.1,0.02
2589,7943727,63.4404893,10.3488392,15.36,8.504,118.59,-0.04,-0.1,0.03
2602,7943767,63.4404893,10.3488391,15.37,8.516,118.57,-0.05,-0.1,0.03
2615,7943807,63.4404893,10.348839,15.38,8.525,118.56,-0.05,-0.09,0.03
2620,7943827,63.4404893,10.3488389,15.39,8.53,118.55,-0.05,-0.09,0.03
2634,7943867,63.4404893,10.3488388,15.4,8.543,118.54,-0.05,-0.09,0.03
2647,7943907,63.4404892,10.3488388,15.41,8.555,118.51,-0.05,-0.08,0.03
2652,7943927,63.4404892,10.3488387,15.42,8.56,118.5,-0.05,-0.08,0.03
2665,7943967,63.4404892,10.3488387,15.43,8.573,118.47,-0.06,-0.07,0.03
2669,7943987,63.4404892,10.3488386,15.43,8.579,118.45,-0.06,-0.07,0.02
2683,7944027,63.4404892,10.3488386,15.44,8.589,118.42,-0.06,-0.07,0.03
2696,7944067,63.4404891,10.3488385,15.45,8.597,118.38,-0.07,-0.06,0.03
2700,7944087,63.4404891,10.3488385,15.46,8.6,118.36,-0.07,-0.06,0.03
2714,7944127,63.4404891,10.3488384,15.46,8.606,118.33,-0.07,-0.05,0.04
2727,7944167,63.4404891,10.3488383,15.46,8.605,118.29,-0.07,-0.05,0.05
2732,7944187,63.4404891,10.3488383,15.46,8.604,118.28,-0.07,-0.05,0.05
2746,7944227,63.440489,10.3488383,15.46,8.603,118.24,-0.08,-0.04,0.06
2759,7944267,63.440489,10.3488382,15.45,8.592,118.2,-0.08,-0.03,0.07
2763,7944287,63.440489,10.3488382,15.44,8.587,118.18,-0.08,-0.03,0.07
2777,7944327,63.440489,10.3488381,15.43,8.578,118.14,-0.07,-0.03,0.08
2790,7944367,63.4404889,10.3488381,15.42,8.56,118.1,-0.07,-0.02,0.08
2796,7944387,63.4404889,10.3488381,15.41,8.552,118.07,-0.07,-0.02,0.08
2810,7944427,63.4404889,10.348838,15.39,8.537,118.02,-0.07,-0.01,0.08
2823,7944467,63.4404889,10.348838,15.37,8.518,117.97,-0.06,-0.01,0.09
2827,7944487,63.4404889,10.348838,15.36,8.509,117.95,-0.06,-0.01,0.09
2842,7944527,63.4404888,10.348838,15.35,8.494,117.9,-0.05,-0.01,0.09
2855,7944567,63.4404888,10.3488379,15.34,8.48,117.87,-0.04,0.0,0.09
2868,7944587,63.4404888,10.3488379,15.33,8.474,117.86,-0.04,0.0,0.08
2874,7944627,63.4404888,10.3488379,15.32,8.462,117.83,-0.04,0.0,0.08
2886,7944647,63.4404888,10.3488379,15.32,8.46,117.83,-0.03,0.0,0.08
2891,7944687,63.4404888,10.3488379,15.31,8.455,117.82,-0.03,0.0,0.08
2905,7944727,63.4404887,10.3488379,15.31,8.452,117.83,-0.03,0.0,0.08
2917,7944747,63.4404887,10.3488379,15.31,8.455,117.83,-0.02,0.01,0.08
2931,7944787,63.4404887,10.3488379,15.32,8.461,117.84,-0.02,0.01,0.07
2936,7944827,63.4404887,10.3488379,15.32,8.465,117.85,-0.02,0.02,0.07
2949,7944847,63.4404887,10.3488379,15.33,8.472,117.85,-0.02,0.02,0.06
2963,7944887,63.4404887,10.3488379,15.34,8.485,117.84,-0.03,0.03,0.05
2968,7944927,63.4404887,10.3488379,15.35,8.496,117.82,-0.03,0.04,0.05
2980,7944947,63.4404887,10.3488379,15.36,8.503,117.8,-0.03,0.04,0.04
2985,7944987,63.4404887,10.348838,15.37,8.518,117.75,-0.03,0.05,0.03
2999,7945027,63.4404887,10.348838,15.39,8.53,117.69,-0.03,0.05,0.02
3011,7945047,63.4404886,10.348838,15.39,8.536,117.65,-0.03,0.05,0.02
3016,7945087,63.4404886,10.348838,15.4,8.547,117.58,-0.03,0.06,0.01
3030,7945127,63.4404886,10.348838,15.41,8.558,117.52,-0.03,0.06,0.0
3042,7945147,63.4404886,10.348838,15.42,8.56,117.49,-0.03,0.06,0.0
3048,7945187,63.4404886,10.348838,15.42,8.565,117.44,-0.03,0.06,-0.01
3062,7945227,63.4404886,10.3488381,15.43,8.57,117.41,-0.03,0.06,-0.01
3074,7945247,63.4404886,10.3488381,15.42,8.569,117.4,-0.02,0.06,-0.02
3079,7945287,63.4404886,10.3488381,15.42,8.566,117.39,-0.02,0.07,-0.02
3091,7945307,63.4404886,10.3488382,15.42,8.565,117.39,-0.02,0.07,-0.02
3105,7945347,63.4404886,10.3488382,15.42,8.56,117.4,-0.02,0.07,-0.02
3112,7945387,63.4404886,10.3488383,15.41,8.551,117.42,-0.03,0.07,-0.01
3124,7945407,63.4404886,10.3488383,15.4,8.547,117.43,-0.03,0.07,-0.01
3138,7945447,63.4404886,10.3488383,15.39,8.536,117.45,-0.03,0.07,0.0
3143,7945487,63.4404886,10.3488384,15.38,8.522,117.47,-0.03,0.07,0.0
3157,7945507,63.4404885,10.3488384,15.37,8.516,117.48,-0.04,0.07,0.01
3170,7945547,63.4404885,10.3488385,15.36,8.501,117.48,-0.04,0.07,0.02
3175,7945587,63.4404885,10.3488385,15.34,8.486,117.47,-0.05,0.07,0.03
3188,7945607,63.4404885,10.3488385,15.33,8.479,117.46,-0.05,0.07,0.03
3202,7945647,63.4404885,10.3488386,15.32,8.464,117.43,-0.06,0.07,0.04
3207,7945687,63.4404885,10.3488386,15.31,8.45,117.4,-0.07,0.06,0.04
3219,7945707,63.4404885,10.3488386,15.3,8.444,117.39,-0.07,0.06,0.03
3233,7945747,63.4404884,10.3488387,15.29,8.433,117.36,-0.08,0.05,0.02
3247,7945787,63.4404884,10.3488387,15.28,8.425,117.35,-0.08,0.04,0.01
3250,7945807,63.4404884,10.3488387,15.28,8.421,117.34,-0.08,0.04,0.0
3265,7945847,63.4404884,10.3488387,15.27,8.417,117.35,-0.09,0.03,-0.01
3270,7945887,63.4404883,10.3488387,15.27,8.416,117.39,-0.09,0.02,-0.03
3283,7945907,63.4404883,10.3488387,15.27,8.416,117.41,-0.09,0.02,-0.05
3296,7945947,63.4404883,10.3488387,15.27,8.418,117.47,-0.09,0.01,-0.07
3300,7945967,63.4404883,10.3488387,15.28,8.421,117.5,-0.09,0.01,-0.08
3313,7946007,63.4404883,10.3488387,15.28,8.426,117.58,-0.09,0.01,-0.1
3327,7946047,63.4404882,10.3488387,15.29,8.433,117.66,-0.08,0.0,-0.11
3331,7946067,63.4404882,10.3488387,15.29,8.438,117.7,-0.08,0.0,-0.12
3345,7946107,63.4404882,10.3488387,15.3,8.446,117.77,-0.08,0.0,-0.12
3358,7946147,63.4404882,10.3488387,15.31,8.453,117.83,-0.08,0.0,-0.11
3364,7946167,63.4404882,10.3488387,15.31,8.457,117.85,-0.08,0.0,-0.1
3377,7946207,63.4404881,10.3488387,15.32,8.463,117.9,-0.08,-0.01,-0.09
3390,7946247,63.4404881,10.3488387,15.32,8.468,117.96,-0.08,-0.02,-0.07
3394,7946267,63.4404881,10.3488387,15.33,8.471,117.99,-0.08,-0.02,-0.06
3408,7946307,63.4404881,10.3488387,15.33,8.474,118.07,-0.09,-0.02,-0.04
3421,7946347,63.440488,10.3488386,15.33,8.475,118.17,-0.09,-0.03,-0.03
3425,7946367,63.440488,10.3488386,15.33,8.476,118.22,-0.09,-0.04,-0.02
3441,7946407,63.440488,10.3488386,15.33,8.476,118.37,-0.09,-0.06,-0.01
3454,7946447,63.440488,10.3488385,15.33,8.476,118.55,-0.09,-0.09,0.0
3458,7946467,63.440488,10.3488384,15.33,8.475,118.66,-0.09,-0.1,0.0
3473,7946507,63.4404879,10.3488384,15.33,8.474,118.94,-0.08,-0.13,0.0
3486,7946547,63.4404879,10.3488383,15.33,8.472,119.27,-0.08,-0.15,0.0
3490,7946567,63.4404879,10.3488383,15.33,8.471,119.47,-0.08,-0.15,-0.01
3504,7946607,63.4404879,10.3488381,15.32,8.469,119.93,-0.08,-0.16,-0.02
3509,7946627,63.4404879,10.3488381,15.32,8.468,120.19,-0.07,-0.17,-0.02
3522,7946667,63.4404878,10.3488379,15.32,8.463,120.77,-0.07,-0.17,-0.03
3536,7946707,63.4404878,10.3488378,15.31,8.459,121.41,-0.07,-0.18,-0.03
3540,7946727,63.4404878,10.3488377,15.31,8.457,121.75,-0.07,-0.18,-0.02
3553,7946767,63.4404878,10.3488376,15.3,8.447,122.49,-0.06,-0.18,-0.02
3567,7946807,63.4404877,10.3488375,15.29,8.439,123.29,-0.07,-0.17,-0.01
3578,7946827,63.4404877,10.3488374,15.29,8.435,123.7,-0.07,-0.17,0.0
3585,7946867,63.4404877,10.3488373,15.28,8.424,124.56,-0.07,-0.17,0.01
3599,7946907,63.4404877,10.3488372,15.27,8.413,125.48,-0.07,-0.17,0.03
3603,7946927,63.4404877,10.3488371,15.26,8.408,125.97,-0.08,-0.16,0.05
3616,7946967,63.4404876,10.348837,15.26,8.4,126.98,-0.07,-0.16,0.07
3630,7947007,63.4404876,10.3488368,15.25,8.391,128.07,-0.08,-0.17,0.09
3634,7947027,63.4404876,10.3488368,15.24,8.387,128.64,-0.08,-0.17,0.1
3647,7947067,63.4404876,10.3488366,15.24,8.386,129.86,-0.07,-0.17,0.12
3661,7947107,63.4404875,10.3488365,15.24,8.385,131.11,-0.08,-0.17,0.13
3665,7947127,63.4404875,10.3488364,15.24,8.384,131.75,-0.07,-0.17,0.13
3680,7947167,63.4404875,10.3488363,15.25,8.394,133.06,-0.08,-0.17,0.13
3693,7947207,63.4404874,10.3488362,15.26,8.402,134.39,-0.07,-0.16,0.13
3697,7947227,63.4404874,10.3488361,15.26,8.405,135.06,-0.07,-0.16,0.12
3710,7947267,63.4404874,10.348836,15.28,8.422,136.42,-0.06,-0.16,0.12
3714,7947287,63.4404874,10.3488359,15.29,8.43,137.1,-0.06,-0.15,0.11
3728,7947327,63.4404874,10.3488358,15.3,8.444,138.47,-0.05,-0.14,0.1
3741,7947367,63.4404874,10.3488357,15.32,8.463,139.87,-0.04,-0.14,0.09
3747,7947387,63.4404874,10.3488357,15.33,8.471,140.55,-0.04,-0.13,0.08
3761,7947427,63.4404873,10.3488356,15.34,8.487,141.92,-0.03,-0.13,0.07
3774,7947467,63.4404873,10.3488355,15.36,8.501,143.28,-0.02,-0.12,0.07
3778,7947487,63.4404873,10.3488354,15.36,8.507,143.96,-0.02,-0.12,0.06
3793,7947527,63.4404873,10.3488353,15.37,8.519,145.33,-0.01,-0.11,0.06
3806,7947567,63.4404873,10.3488352,15.38,8.525,146.69,-0.01,-0.12,0.06
3810,7947587,63.4404873,10.3488352,15.38,8.527,147.38,-0.01,-0.12,0.06
3825,7947627,63.4404873,10.3488351,15.39,8.531,148.76,0.0,-0.11,0.06
3838,7947667,63.4404873,10.348835,15.38,8.529,150.2,0.0,-0.11,0.07
3842,7947687,63.4404873,10.3488349,15.38,8.528,150.91,0.0,-0.11,0.06
3856,7947727,63.4404873,10.3488348,15.38,8.526,152.36,0.01,-0.11,0.06
3869,7947767,63.4404873,10.3488348,15.37,8.519,153.83,0.02,-0.1,0.06
3873,7947787,63.4404873,10.3488347,15.37,8.516,154.58,0.02,-0.1,0.05
3887,7947827,63.4404873,10.3488346,15.37,8.51,156.07,0.03,-0.09,0.04
3901,7947867,63.4404874,10.3488346,15.36,8.503,157.56,0.04,-0.08,0.04
3905,7947887,63.4404874,10.3488345,15.35,8.499,158.3,0.04,-0.07,0.03
3919,7947927,63.4404874,10.3488345,15.35,8.494,159.77,0.05,-0.06,0.02
3931,7947947,63.4404874,10.3488344,15.35,8.492,160.53,0.04,-0.05,0.01
3936,7947987,63.4404874,10.3488344,15.34,8.489,161.97,0.05,-0.04,0.0
3950,7948027,63.4404874,10.3488343,15.34,8.486,163.4,0.05,-0.03,-0.01
3962,7948047,63.4404874,10.3488343,15.34,8.486,164.1,0.05,-0.03,-0.01
3967,7948087,63.4404874,10.3488343,15.34,8.487,165.5,0.06,-0.03,-0.02
3981,7948127,63.4404874,10.3488342,15.34,8.488,166.9,0.06,-0.02,-0.03
3993,7948147,63.4404874,10.3488342,15.35,8.491,167.6,0.06,-0.03,-0.03
3999,7948187,63.4404874,10.3488342,15.35,8.496,169.0,0.06,-0.03,-0.04
4013,7948227,63.4404875,10.3488341,15.36,8.501,170.44,0.07,-0.03,-0.04
4025,7948247,63.4404875,10.3488341,15.36,8.505,171.15,0.07,-0.03,-0.05
4030,7948287,63.4404875,10.3488341,15.37,8.513,172.58,0.08,-0.04,-0.05
4044,7948327,63.4404876,10.348834,15.38,8.52,174.03,0.08,-0.04,-0.05
4056,7948347,63.4404876,10.348834,15.38,8.524,174.76,0.08,-0.05,-0.05
4063,7948387,63.4404876,10.3488339,15.39,8.533,176.23,0.09,-0.05,-0.05
4077,7948427,63.4404876,10.3488339,15.4,8.541,177.71,0.08,-0.06,-0.05
4089,7948447,63.4404877,10.3488338,15.4,8.545,178.45,0.08,-0.06,-0.05
4094,7948487,63.4404877,10.3488338,15.41,8.553,179.93,0.08,-0.06,-0.04
4109,7948527,63.4404877,10.3488337,15.41,8.559,181.45,0.08,-0.06,-0.04
4121,7948547,63.4404877,10.3488337,15.42,8.562,182.17,0.07,-0.06,-0.03
4126,7948587,63.4404878,10.3488336,15.42,8.568,183.59,0.07,-0.06,-0.02
4140,7948607,63.4404878,10.3488336,15.43,8.57,184.28,0.06,-0.06,-0.02
4153,7948647,63.4404878,10.3488335,15.43,8.575,185.63,0.06,-0.05,-0.02
4158,7948687,63.4404878,10.3488335,15.43,8.579,186.95,0.05,-0.04,-0.01
4170,7948707,63.4404879,10.3488334,15.44,8.58,187.59,0.04,-0.04,-0.02
4184,7948747,63.4404879,10.3488334,15.44,8.585,188.83,0.03,-0.03,-0.02
4198,7948787,63.4404879,10.3488334,15.45,8.59,190.07,0.03,-0.02,-0.03
4202,7948807,63.4404879,10.3488334,15.45,8.592,190.67,0.03,-0.02,-0.03
4216,7948847,63.4404879,10.3488333,15.45,8.598,191.83,0.02,-0.01,-0.04
4221,7948887,63.4404879,10.3488333,15.46,8.606,192.96,0.02,0.0,-0.05
4234,7948907,63.4404879,10.3488333,15.46,8.609,193.51,0.01,0.0,-0.05
4247,7948947,63.4404879,10.3488333,15.47,8.618,194.59,0.01,0.0,-0.06
4252,7948987,63.4404879,10.3488334,15.48,8.627,195.63,0.0,0.01,-0.07
4265,7949007,63.4404879,10.3488334,15.49,8.632,196.13,0.0,0.01,-0.07
4278,7949047,63.4404879,10.3488334,15.5,8.642,197.1,0.0,0.02,-0.07
4283,7949087,63.4404879,10.3488334,15.51,8.652,198.04,-0.01,0.02,-0.07
4296,7949107,63.4404879,10.3488334,15.51,8.656,198.49,-0.01,0.02,-0.07
4309,7949147,63.4404879,10.3488334,15.52,8.664,199.34,-0.02,0.02,-0.06
4324,7949187,63.4404879,10.3488335,15.53,8.67,200.15,-0.02,0.02,-0.05
4328,7949207,63.4404879,10.3488335,15.53,8.673,200.55,-0.02,0.02,-0.04
4341,7949247,63.4404879,10.3488335,15.53,8.677,201.29,-0.02,0.02,-0.02
4345,7949267,63.4404879,10.3488335,15.53,8.678,201.65,-0.02,0.01,-0.01
4358,7949307,63.4404879,10.3488335,15.54,8.68,202.35,-0.03,0.01,0.0
4372,7949347,63.4404879,10.3488335,15.54,8.68,203.02,-0.02,0.01,0.01
4376,7949367,63.4404879,10.3488335,15.53,8.679,203.37,-0.03,0.01,0.01
4391,7949407,63.4404879,10.3488335,15.53,8.678,204.01,-0.03,0.01,0.02
4405,7949447,63.4404879,10.3488336,15.53,8.677,204.62,-0.03,0.01,0.03
4409,7949467,63.4404879,10.3488336,15.53,8.677,204.9,-0.03,0.01,0.03
4423,7949507,63.4404879,10.3488336,15.53,8.677,205.42,-0.03,0.02,0.03
4437,7949547,63.4404879,10.3488336,15.53,8.678,205.88,-0.02,0.04,0.03
4441,7949567,63.4404879,10.3488336,15.53,8.679,206.09,-0.02,0.05,0.03
4455,7949607,63.4404879,10.3488336,15.54,8.682,206.49,-0.02,0.06,0.02
4469,7949647,63.4404879,10.3488336,15.54,8.686,206.85,-0.01,0.07,0.01
4473,7949667,63.4404879,10.3488337,15.54,8.689,207.01,-0.01,0.08,0.0
4486,7949707,63.4404879,10.3488337,15.55,8.695,207.31,-0.01,0.09,-0.01
4500,7949747,63.4404879,10.3488338,15.56,8.703,207.58,-0.01,0.1,-0.02
4504,7949767,63.4404879,10.3488338,15.56,8.707,207.7,-0.01,0.1,-0.04
4517,7949807,63.4404879,10.3488339,15.57,8.716,207.91,0.0,0.11,-0.05
4532,7949847,63.4404879,10.348834,15.58,8.725,208.09,0.0,0.11,-0.07
4536,7949867,63.4404879,10.3488341,15.58,8.729,208.17,0.0,0.12,-0.07
4549,7949907,63.4404879,10.3488342,15.59,8.737,208.3,0.0,0.12,-0.08
4554,7949927,63.4404879,10.3488342,15.6,8.741,208.36,0.0,0.12,-0.08
4567,7949967,63.4404879,10.3488343,15.6,8.745,208.44,0.01,0.11,-0.09
4580,7950007,63.4404879,10.3488344,15.6,8.749,208.48,0.01,0.11,-0.08
4585,7950027,63.4404879,10.3488345,15.61,8.751,208.48,0.01,0.1,-0.08
4598,7950067,63.4404879,10.3488345,15.6,8.748,208.44,0.01,0.1,-0.07
4611,7950107,63.4404879,10.3488346,15.6,8.745,208.37,0.02,0.09,-0.05
4616,7950127,63.4404879,10.3488347,15.6,8.744,208.32,0.02,0.09,-0.05
4631,7950167,63.4404879,10.3488347,15.59,8.734,208.22,0.02,0.08,-0.02
4643,7950207,63.4404879,10.3488348,15.58,8.725,208.09,0.03,0.08,0.0
4648,7950227,63.4404879,10.3488349,15.58,8.72,208.03,0.03,0.07,0.0
4661,7950267,63.4404879,10.3488349,15.56,8.707,207.91,0.03,0.07,0.02
4674,7950307,63.4404879,10.348835,15.55,8.694,207.79,0.03,0.07,0.04
4679,7950327,63.440488,10.348835,15.54,8.688,207.73,0.03,0.07,0.05
4692,7950367,63.440488,10.3488351,15.53,8.675,207.62,0.03,0.07,0.06
4707,7950407,63.440488,10.3488352,15.52,8.662,207.5,0.03,0.08,0.07
4712,7950427,63.440488,10.3488352,15.51,8.657,207.44,0.03,0.08,0.07
4725,7950467,63.440488,10.3488353,15.5,8.648,207.3,0.03,0.08,0.07
4739,7950507,63.440488,10.3488353,15.5,8.64,207.14,0.02,0.08,0.06
4744,7950527,63.440488,10.3488354,15.49,8.637,207.06,0.02,0.08,0.05
4757,7950567,63.440488,10.3488354,15.49,8.634,206.87,0.02,0.08,0.04
4761,7950587,63.440488,10.3488355,15.49,8.633,206.76,0.01,0.07,0.03
4775,7950627,63.440488,10.3488356,15.49,8.631,206.54,0.01,0.07,0.01
4788,7950667,63.4404881,10.3488356,15.49,8.633,206.3,0.01,0.07,0.0
4792,7950687,63.4404881,10.3488356,15.49,8.634,206.18,0.01,0.06,-0.01
4806,7950727,63.4404881,10.3488357,15.49,8.637,205.93,0.01,0.06,-0.03
4819,7950767,63.4404881,10.3488358,15.49,8.638,205.68,0.01,0.05,-0.04
4823,7950787,63.4404881,10.3488358,15.5,8.64,205.56,0.01,0.05,-0.05
4838,7950827,63.4404881,10.3488358,15.5,8.642,205.32,0.01,0.04,-0.06
4851,7950867,63.4404881,10.3488359,15.49,8.639,205.1,0.02,0.03,-0.06
4855,7950887,63.4404881,10.3488359,15.49,8.638,205.0,0.02,0.03,-0.06
4869,7950927,63.4404881,10.3488359,15.49,8.636,204.8,0.02,0.03,-0.06
4882,7950967,63.4404881,10.348836,15.48,8.627,204.62,0.02,0.03,-0.05
4895,7950987,63.4404881,10.348836,15.48,8.622,204.53,0.02,0.03,-0.04
4900,7951027,63.4404881,10.348836,15.47,8.615,204.37,0.02,0.03,-0.03
4913,7951067,63.4404881,10.3488361,15.46,8.602,204.2,0.02,0.03,-0.02
4917,7951087,63.4404881,10.3488361,15.45,8.596,204.11,0.02,0.04,-0.01
4931,7951127,63.4404881,10.3488362,15.44,8.584,203.95,0.02,0.04,0.0
4944,7951167,63.4404881,10.3488362,15.43,8.57,203.78,0.02,0.05,0.0
4949,7951187,63.4404881,10.3488363,15.42,8.564,203.69,0.02,0.06,0.01
4963,7951227,63.4404881,10.3488363,15.41,8.552,203.5,0.01,0.07,0.02
4975,7951247,63.4404881,10.3488364,15.4,8.546,203.39,0.0,0.07,0.02
4980,7951287,63.4404881,10.3488364,15.39,8.537,203.18,0.0,0.08,0.03
4994,7951327,63.4404881,10.3488365,15.38,8.528,202.95,0.0,0.08,0.03
5006,7951347,63.4404881,10.3488366,15.38,8.525,202.82,0.0,0.08,0.04
5013,7951387,63.4404881,10.3488366,15.38,8.52,202.58,0.0,0.09,0.04
5027,7951427,63.4404881,10.3488367,15.37,8.515,202.33,0.0,0.09,0.04
5039,7951447,63.4404881,10.3488368,15.37,8.515,202.22,0.0,0.09,0.04
5044,7951487,63.4404881,10.3488369,15.37,8.515,201.99,0.0,0.1,0.04
5059,7951527,63.4404881,10.348837,15.37,8.516,201.77,0.0,0.1,0.03
5071,7951547,63.4404881,10.348837,15.37,8.517,201.67,0.0,0.1,0.03
5079,7951587,63.4404881,10.3488371,15.38,8.52,201.48,0.0,0.1,0.03
5091,7951627,63.4404881,10.3488372,15.38,8.522,201.31,0.0,0.1,0.03
5103,7951647,63.4404881,10.3488372,15.38,8.523,201.23,0.0,0.1,0.03
5108,7951687,63.4404881,10.3488373,15.38,8.524,201.08,0.0,0.1,0.03
5122,7951727,63.4404881,10.3488374,15.38,8.526,200.94,0.0,0.1,0.03
5134,7951747,63.4404881,10.3488375,15.38,8.525,200.87,0.0,0.1,0.04
5139,7951787,63.4404881,10.3488376,15.38,8.523,200.72,-0.01,0.1,0.04
5153,7951827,63.4404881,10.3488377,15.38,8.522,200.55,-0.02,0.1,0.04
5166,7951847,63.4404881,10.3488377,15.37,8.519,200.46,-0.02,0.09,0.04
5171,7951887,63.4404881,10.3488378,15.37,8.513,200.26,-0.03,0.09,0.04
5184,7951907,63.4404881,10.3488378,15.37,8.511,200.16,-0.03,0.09,0.04
5198,7951947,63.4404881,10.3488379,15.36,8.504,199.92,-0.04,0.09,0.03
5212,7951987,63.4404881,10.348838,15.35,8.497,199.68,-0.04,0.08,0.02
5215,7952007,63.4404881,10.348838,15.35,8.494,199.55,-0.04,0.08,0.02
5229,7952047,63.440488,10.3488381,15.34,8.486,199.3,-0.04,0.08,0.01
5233,7952087,63.440488,10.3488382,15.33,8.478,199.05,-0.04,0.08,0.0
5246,7952107,63.440488,10.3488382,15.33,8.475,198.92,-0.04,0.08,0.0
5259,7952147,63.440488,10.3488383,15.32,8.468,198.68,-0.04,0.08,-0.01
5274,7952187,63.4404879,10.3488384,15.32,8.461,198.46,-0.04,0.08,-0.03
5288,7952207,63.4404879,10.3488384,15.31,8.458,198.35,-0.04,0.08,-0.03
5291,7952248,63.4404879,10.3488385,15.31,8.453,198.14,-0.04,0.08,-0.04
5296,7952287,63.4404879,10.3488386,15.3,8.448,197.95,-0.04,0.08,-0.04
5309,7952307,63.4404879,10.3488386,15.3,8.446,197.86,-0.04,0.08,-0.04
5322,7952347,63.4404879,10.3488387,15.3,8.443,197.66,-0.04,0.07,-0.04
5329,7952387,63.4404878,10.3488388,15.3,8.44,197.47,-0.04,0.07,-0.03
5342,7952407,63.4404878,10.3488388,15.29,8.439,197.36,-0.04,0.06,-0.03
5355,7952447,63.4404878,10.3488389,15.29,8.439,197.14,-0.04,0.05,-0.02
5365,7952487,63.4404878,10.3488389,15.3,8.44,196.9,-0.04,0.04,-0.02
5373,7952507,63.4404878,10.348839,15.3,8.44,196.76,-0.04,0.04,-0.01
5387,7952547,63.4404877,10.348839,15.3,8.443,196.48,-0.03,0.03,-0.01
5391,7952567,63.4404877,10.348839,15.3,8.445,196.33,-0.03,0.02,-0.01
5406,7952607,63.4404877,10.3488391,15.3,8.449,196.03,-0.03,0.01,-0.01
5419,7952647,63.4404877,10.3488391,15.31,8.454,195.72,-0.03,0.0,-0.01
5423,7952667,63.4404877,10.3488391,15.31,8.457,195.56,-0.03,0.0,-0.01
5436,7952707,63.4404877,10.3488391,15.32,8.463,195.26,-0.02,0.0,-0.02
5450,7952747,63.4404876,10.3488391,15.32,8.468,194.99,-0.01,-0.01,-0.03
5454,7952767,63.4404876,10.3488392,15.33,8.47,194.86,-0.01,-0.01,-0.03
5467,7952807,63.4404876,10.3488392,15.33,8.474,194.61,0.0,-0.01,-0.04
5482,7952847,63.4404876,10.3488392,15.33,8.477,194.39,0.0,-0.01,-0.04
5486,7952867,63.4404876,10.3488392,15.33,8.477,194.28,0.0,-0.01,-0.04
5499,7952907,63.4404876,10.3488392,15.33,8.478,194.09,0.0,-0.01,-0.04
5514,7952947,63.4404876,10.3488392,15.33,8.476,193.92,0.01,0.0,-0.03
5518,7952967,63.4404876,10.3488392,15.33,8.474,193.84,0.01,0.0,-0.03
5532,7953007,63.4404876,10.3488392,15.33,8.47,193.68,0.02,0.0,-0.01
5546,7953047,63.4404876,10.3488392,15.32,8.465,193.54,0.02,0.0,0.0
5550,7953067,63.4404876,10.3488392,15.32,8.461,193.47,0.03,0.0,0.0
5563,7953107,63.4404876,10.3488393,15.31,8.454,193.34,0.03,0.0,0.02
5577,7953147,63.4404876,10.3488393,15.3,8.448,193.2,0.04,0.0,0.04
5583,7953167,63.4404876,10.3488393,15.3,8.444,193.13,0.04,0.0,0.05
5595,7953207,63.4404876,10.3488393,15.29,8.438,192.98,0.04,0.0,0.06
5600,7953227,63.4404876,10.3488393,15.29,8.435,192.91,0.05,0.0,0.07
5613,7953267,63.4404876,10.3488393,15.29,8.433,192.74,0.04,0.0,0.07
5626,7953307,63.4404876,10.3488393,15.29,8.431,192.57,0.03,0.0,0.08
5631,7953327,63.4404876,10.3488393,15.29,8.43,192.47,0.03,0.0,0.08
5644,7953367,63.4404876,10.3488394,15.29,8.434,192.27,0.03,-0.01,0.07
5659,7953407,63.4404876,10.3488394,15.29,8.436,192.07,0.03,-0.01,0.07
5664,7953427,63.4404876,10.3488394,15.29,8.438,191.97,0.03,-0.01,0.07
5677,7953467,63.4404876,10.3488394,15.3,8.444,191.75,0.02,-0.01,0.06
5691,7953507,63.4404876,10.3488394,15.31,8.45,191.52,0.01,0.0,0.05
5696,7953527,63.4404876,10.3488394,15.31,8.452,191.4,0.0,0.0,0.05
5709,7953567,63.4404876,10.3488394,15.31,8.459,191.14,0.0,0.0,0.04
5723,7953607,63.4404876,10.3488394,15.32,8.464,190.85,-0.01,0.0,0.04
5728,7953627,63.4404876,10.3488394,15.32,8.467,190.69,-0.02,0.0,0.04
5741,7953667,63.4404876,10.3488394,15.33,8.47,190.34,-0.04,0.0,0.04
5754,7953707,63.4404876,10.3488394,15.33,8.472,189.97,-0.05,0.01,0.04
5759,7953727,63.4404875,10.3488394,15.33,8.473,189.77,-0.06,0.01,0.04
5772,7953767,63.4404875,10.3488394,15.33,8.473,189.35,-0.07,0.02,0.05
5785,7953807,63.4404875,10.3488395,15.33,8.472,188.92,-0.07,0.03,0.05
5791,7953827,63.4404875,10.3488395,15.33,8.472,188.69,-0.08,0.04,0.05
5804,7953867,63.4404874,10.3488396,15.32,8.469,188.24,-0.09,0.05,0.05
5808,7953887,63.4404874,10.3488396,15.32,8.468,188.01,-0.09,0.06,0.05
5822,7953927,63.4404874,10.3488396,15.32,8.466,187.55,-0.1,0.07,0.05
5835,7953967,63.4404873,10.3488397,15.32,8.465,187.1,-0.1,0.08,0.05
5839,7953987,63.4404873,10.3488398,15.32,8.465,186.88,-0.11,0.09,0.05
5853,7954027,63.4404873,10.3488399,15.32,8.464,186.44,-0.11,0.09,0.04
5866,7954067,63.4404872,10.3488399,15.32,8.466,186.0,-0.12,0.1,0.04
5870,7954087,63.4404872,10.34884,15.32,8.466,185.79,-0.12,0.1,0.03
5884,7954127,63.4404872,10.3488401,15.32,8.468,185.35,-0.12,0.1,0.03
5898,7954167,63.4404871,10.3488402,15.33,8.471,184.91,-0.13,0.09,0.03
5902,7954187,63.4404871,10.3488402,15.33,8.472,184.68,-0.14,0.09,0.03
5916,7954227,63.440487,10.3488403,15.33,8.474,184.22,-0.15,0.08,0.03
5929,7954267,63.440487,10.3488404,15.33,8.475,183.76,-0.16,0.08,0.04
5933,7954287,63.4404869,10.3488404,15.33,8.475,183.52,-0.17,0.07,0.04
5947,7954327,63.4404869,10.3488405,15.33,8.475,183.04,-0.18,0.07,0.04
5960,7954367,63.4404868,10.3488406,15.33,8.472,182.55,-0.2,0.07,0.05
5966,7954387,63.4404868,10.3488406,15.33,8.47,182.3,-0.21,0.06,0.05
5980,7954427,63.4404867,10.3488407,15.32,8.467,181.8,-0.23,0.07,0.05
5993,7954467,63.4404866,10.3488408,15.32,8.462,181.27,-0.25,0.08,0.05
6007,7954487,63.4404866,10.3488408,15.31,8.459,181.01,-0.26,0.08,0.05
6012,7954527,63.4404865,10.3488409,15.31,8.455,180.45,-0.28,0.09,0.05
6024,7954547,63.4404864,10.348841,15.31,8.453,180.16,-0.29,0.1,0.04
6034,7954587,63.4404863,10.3488411,15.31,8.45,179.59,-0.3,0.11,0.03
6044,7954627,63.4404862,10.3488412,15.3,8.447,179.01,-0.31,0.13,0.02
6056,7954647,63.4404862,10.3488413,15.3,8.447,178.72,-0.31,0.14,0.01
6061,7954687,63.4404861,10.3488414,15.3,8.448,178.14,-0.32,0.15,0.0
6075,7954727,63.4404859,10.3488416,15.31,8.45,177.58,-0.32,0.16,-0.01
6087,7954747,63.4404859,10.3488417,15.31,8.453,177.3,-0.33,0.16,-0.02
6092,7954787,63.4404858,10.3488418,15.31,8.459,176.76,-0.33,0.16,-0.04
6106,7954827,63.4404857,10.348842,15.32,8.465,176.26,-0.34,0.17,-0.05
6119,7954847,63.4404856,10.3488421,15.32,8.469,176.02,-0.34,0.17,-0.05
6124,7954887,63.4404855,10.3488422,15.33,8.478,175.56,-0.35,0.17,-0.06
6138,7954927,63.4404853,10.3488424,15.34,8.486,175.09,-0.36,0.17,-0.06
6150,7954947,63.4404853,10.3488425,15.35,8.49,174.86,-0.36,0.17,-0.05
6155,7954987,63.4404852,10.3488427,15.35,8.498,174.42,-0.38,0.17,-0.05
6169,7955027,63.440485,10.3488429,15.36,8.506,173.99,-0.4,0.16,-0.04
6181,7955047,63.4404849,10.348843,15.36,8.509,173.79,-0.42,0.16,-0.03
6186,7955087,63.4404848,10.3488431,15.37,8.515,173.4,-0.44,0.16,-0.02
6200,7955127,63.4404846,10.3488433,15.38,8.52,173.04,-0.47,0.16,0.0
6214,7955147,63.4404845,10.3488434,15.38,8.521,172.87,-0.48,0.17,0.0
6229,7955187,63.4404844,10.3488436,15.38,8.524,172.54,-0.51,0.17,0.02
6232,7955207,63.4404843,10.3488437,15.38,8.525,172.38,-0.52,0.17,0.03
6246,7955247,63.4404841,10.3488439,15.38,8.526,172.08,-0.54,0.17,0.04
6249,7955287,63.4404839,10.3488441,15.38,8.527,171.82,-0.55,0.17,0.04
6261,7955307,63.4404838,10.3488442,15.38,8.528,171.71,-0.56,0.17,0.04
6275,7955347,63.4404836,10.3488444,15.39,8.53,171.52,-0.56,0.17,0.03
6282,7955387,63.4404834,10.3488446,15.39,8.533,171.38,-0.57,0.16,0.01
6294,7955407,63.4404833,10.3488447,15.39,8.534,171.34,-0.57,0.16,0.0
6308,7955447,63.4404831,10.3488449,15.39,8.539,171.29,-0.57,0.14,-0.03
6313,7955487,63.4404829,10.3488451,15.4,8.545,171.28,-0.58,0.13,-0.06
6327,7955507,63.4404828,10.3488452,15.4,8.549,171.28,-0.58,0.13,-0.08
6340,7955547,63.4404826,10.3488454,15.41,8.556,171.28,-0.59,0.13,-0.11
6349,7955587,63.4404823,10.3488455,15.42,8.564,171.27,-0.6,0.13,-0.13
6359,7955607,63.4404822,10.3488456,15.42,8.568,171.26,-0.61,0.13,-0.14
6372,7955647,63.440482,10.3488458,15.43,8.575,171.21,-0.62,0.13,-0.15
6377,7955687,63.4404818,10.348846,15.44,8.58,171.12,-0.63,0.14,-0.15
6390,7955707,63.4404817,10.3488461,15.44,8.582,171.07,-0.63,0.14,-0.15
6403,7955747,63.4404814,10.3488463,15.44,8.585,170.94,-0.64,0.15,-0.13
6408,7955787,63.4404812,10.3488465,15.44,8.586,170.81,-0.65,0.16,-0.11
6421,7955807,63.4404811,10.3488466,15.44,8.586,170.74,-0.65,0.16,-0.1
6435,7955847,63.4404809,10.3488468,15.44,8.586,170.61,-0.66,0.17,-0.07
6439,7955867,63.4404807,10.3488469,15.44,8.586,170.56,-0.66,0.17,-0.05
6452,7955907,63.4404805,10.3488471,15.44,8.586,170.5,-0.66,0.16,-0.02
6466,7955947,63.4404803,10.3488474,15.44,8.587,170.47,-0.67,0.16,0.0
6470,7955967,63.4404801,10.3488475,15.45,8.59,170.48,-0.67,0.16,0.0
6483,7956007,63.4404799,10.3488477,15.45,8.593,170.51,-0.67,0.15,0.02
6497,7956047,63.4404796,10.3488479,15.46,8.601,170.55,-0.68,0.15,0.03
6501,7956067,63.4404795,10.348848,15.46,8.608,170.58,-0.68,0.15,0.03
6514,7956107,63.4404793,10.3488483,15.48,8.62,170.62,-0.68,0.15,0.02
6528,7956147,63.440479,10.3488485,15.49,8.636,170.63,-0.68,0.15,0.01
6533,7956167,63.4404789,10.3488486,15.5,8.647,170.62,-0.68,0.15,0.0
6547,7956207,63.4404787,10.3488489,15.52,8.667,170.58,-0.69,0.15,-0.01
6560,7956247,63.4404784,10.3488491,15.54,8.689,170.51,-0.69,0.16,-0.04
6564,7956267,63.4404783,10.3488492,15.56,8.701,170.47,-0.69,0.16,-0.05
6578,7956307,63.440478,10.3488494,15.58,8.724,170.38,-0.68,0.16,-0.07
6591,7956347,63.4404778,10.3488497,15.6,8.745,170.28,-0.68,0.17,-0.09
6595,7956367,63.4404776,10.3488498,15.61,8.755,170.24,-0.67,0.17,-0.09
6610,7956407,63.4404774,10.3488501,15.63,8.774,170.18,-0.67,0.18,-0.1
6624,7956447,63.4404772,10.3488503,15.64,8.789,170.15,-0.66,0.18,-0.09
6628,7956467,63.440477,10.3488504,15.65,8.795,170.15,-0.66,0.18,-0.09
6642,7956507,63.4404768,10.3488507,15.66,8.805,170.2,-0.66,0.18,-0.07
6647,7956527,63.4404767,10.3488508,15.66,8.809,170.24,-0.66,0.19,-0.06
6660,7956567,63.4404764,10.348851,15.67,8.812,170.35,-0.66,0.19,-0.03
6675,7956607,63.4404762,10.3488513,15.67,8.813,170.5,-0.66,0.19,-0.01
6679,7956627,63.4404761,10.3488514,15.67,8.814,170.59,-0.66,0.19,0.0
6692,7956667,63.4404758,10.3488516,15.67,8.814,170.77,-0.66,0.18,0.02
6705,7956707,63.4404756,10.3488519,15.67,8.812,170.96,-0.66,0.19,0.04
6710,7956727,63.4404755,10.348852,15.67,8.811,171.06,-0.66,0.19,0.05
6723,7956767,63.4404752,10.3488523,15.67,8.814,171.24,-0.67,0.19,0.06
6737,7956807,63.440475,10.3488525,15.67,8.816,171.41,-0.67,0.19,0.07
6742,7956827,63.4404748,10.3488526,15.67,8.816,171.48,-0.67,0.19,0.07
6755,7956867,63.4404746,10.3488528,15.68,8.824,171.62,-0.67,0.2,0.06
6768,7956907,63.4404743,10.3488531,15.69,8.831,171.74,-0.67,0.2,0.04
6773,7956927,63.4404742,10.3488532,15.69,8.835,171.79,-0.66,0.2,0.03
6786,7956967,63.440474,10.3488535,15.7,8.847,171.9,-0.66,0.21,0.01
6800,7957007,63.4404737,10.3488537,15.71,8.858,172.01,-0.65,0.21,-0.01
6804,7957027,63.4404736,10.3488538,15.72,8.864,172.08,-0.64,0.21,-0.03
6817,7957067,63.4404734,10.3488541,15.73,8.876,172.21,-0.63,0.22,-0.06
6831,7957107,63.4404731,10.3488543,15.74,8.888,172.37,-0.62,0.22,-0.08
6835,7957127,63.440473,10.3488545,15.75,8.894,172.46,-0.62,0.22,-0.09
6849,7957167,63.4404728,10.3488547,15.76,8.903,172.65,-0.62,0.22,-0.11
6855,7957187,63.4404727,10.3488549,15.76,8.907,172.75,-0.61,0.22,-0.11
6867,7957227,63.4404724,10.3488551,15.77,8.916,172.95,-0.61,0.22,-0.12
6880,7957267,63.4404722,10.3488553,15.78,8.921,173.15,-0.61,0.22,-0.11
6886,7957287,63.4404721,10.3488555,15.78,8.923,173.25,-0.61,0.22,-0.1
6898,7957327,63.4404719,10.3488557,15.78,8.926,173.44,-0.62,0.22,-0.08
6911,7957367,63.4404716,10.348856,15.78,8.926,173.63,-0.63,0.23,-0.05
6917,7957387,63.4404715,10.3488561,15.78,8.925,173.72,-0.63,0.23,-0.04
6931,7957427,63.4404713,10.3488564,15.78,8.924,173.9,-0.64,0.23,-0.01
6944,7957467,63.4404711,10.3488566,15.78,8.921,174.07,-0.65,0.23,0.01
6958,7957487,63.4404709,10.3488567,15.77,8.919,174.16,-0.65,0.23,0.03
6963,7957527,63.4404707,10.348857,15.77,8.914,174.33,-0.66,0.23,0.05
6976,7957567,63.4404705,10.3488572,15.77,8.911,174.5,-0.66,0.24,0.06
6990,7957587,63.4404703,10.3488573,15.76,8.909,174.59,-0.66,0.24,0.06
6995,7957627,63.4404701,10.3488576,15.76,8.905,174.77,-0.66,0.25,0.07
7008,7957667,63.4404699,10.3488578,15.76,8.907,174.97,-0.66,0.25,0.06
7012,7957687,63.4404697,10.3488579,15.76,8.908,175.07,-0.66,0.25,0.05
7026,7957727,63.4404695,10.3488582,15.77,8.91,175.3,-0.65,0.25,0.03
7039,7957767,63.4404692,10.3488585,15.77,8.918,175.54,-0.65,0.25,0.01
7043,7957787,63.4404691,10.3488586,15.78,8.922,175.67,-0.65,0.25,0.0
7064,7957827,63.4404689,10.3488588,15.79,8.93,175.94,-0.64,0.24,-0.02
7070,7957847,63.4404688,10.3488589,15.79,8.936,176.08,-0.64,0.24,-0.02
7075,7957887,63.4404685,10.3488592,15.8,8.947,176.37,-0.64,0.24,-0.04
7089,7957927,63.4404683,10.3488594,15.81,8.958,176.66,-0.64,0.23,-0.05
7101,7957947,63.4404682,10.3488595,15.82,8.963,176.79,-0.64,0.23,-0.05
7106,7957987,63.4404679,10.3488597,15.83,8.973,177.05,-0.65,0.23,-0.05
7120,7958027,63.4404677,10.34886,15.84,8.981,177.29,-0.65,0.23,-0.05
7132,7958047,63.4404676,10.3488601,15.84,8.984,177.41,-0.66,0.23,-0.05
7139,7958087,63.4404674,10.3488603,15.84,8.988,177.61,-0.66,0.23,-0.04
7151,7958127,63.4404671,10.3488605,15.85,8.992,177.8,-0.66,0.24,-0.03
7164,7958147,63.440467,10.3488606,15.85,8.992,177.89,-0.66,0.24,-0.03
7169,7958187,63.4404668,10.3488608,15.85,8.992,178.09,-0.66,0.25,-0.03
7183,7958227,63.4404665,10.3488611,15.85,8.992,178.31,-0.66,0.25,-0.04
7195,7958247,63.4404664,10.3488612,15.85,8.992,178.43,-0.65,0.25,-0.04
7200,7958287,63.4404662,10.3488614,15.85,8.993,178.7,-0.65,0.25,-0.05
7214,7958327,63.4404659,10.3488616,15.85,8.994,179.0,-0.65,0.25,-0.06
7226,7958347,63.4404658,10.3488618,15.85,8.995,179.16,-0.65,0.25,-0.06
7233,7958387,63.4404656,10.348862,15.85,8.998,179.48,-0.66,0.25,-0.07
7247,7958427,63.4404653,10.3488622,15.86,9.001,179.8,-0.67,0.25,-0.07
7259,7958447,63.4404652,10.3488623,15.86,9.002,179.96,-0.67,0.25,-0.07
7273,7958487,63.440465,10.3488626,15.86,9.005,180.25,-0.68,0.26,-0.07
7277,7958507,63.4404648,10.3488627,15.86,9.006,180.39,-0.68,0.26,-0.07
7291,7958548,63.4404646,10.3488629,15.86,9.007,180.62,-0.69,0.26,-0.06
7297,7958587,63.4404643,10.3488632,15.86,9.008,180.82,-0.7,0.26,-0.05
7310,7958607,63.4404642,10.3488633,15.86,9.008,180.92,-0.7,0.26,-0.04
7323,7958647,63.4404639,10.3488635,15.86,9.007,181.09,-0.7,0.26,-0.03
7328,7958687,63.4404637,10.3488637,15.86,9.005,181.27,-0.69,0.25,-0.03
7341,7958707,63.4404636,10.3488638,15.86,9.004,181.37,-0.69,0.25,-0.03
7354,7958747,63.4404633,10.348864,15.86,9.001,181.59,-0.68,0.24,-0.03
7359,7958787,63.4404631,10.3488642,15.85,8.999,181.86,-0.67,0.23,-0.04
7372,7958807,63.4404629,10.3488643,15.85,8.998,182.01,-0.67,0.23,-0.04
7386,7958847,63.4404627,10.3488645,15.85,8.995,182.32,-0.66,0.22,-0.06
7391,7958887,63.4404625,10.3488647,15.85,8.993,182.66,-0.65,0.21,-0.08
7404,7958907,63.4404623,10.3488648,15.85,8.993,182.84,-0.65,0.21,-0.09
7417,7958947,63.4404621,10.348865,15.85,8.991,183.2,-0.65,0.2,-0.11
7422,7958987,63.4404619,10.3488651,15.84,8.988,183.54,-0.65,0.2,-0.13
7434,7959007,63.4404617,10.3488652,15.84,8.988,183.71,-0.65,0.2,-0.14
7448,7959047,63.4404615,10.3488654,15.84,8.985,184.03,-0.65,0.2,-0.14
7453,7959087,63.4404613,10.3488656,15.84,8.982,184.34,-0.65,0.2,-0.14
7466,7959107,63.4404611,10.3488656,15.84,8.98,184.5,-0.65,0.2,-0.14
7479,7959147,63.4404609,10.3488658,15.83,8.976,184.81,-0.66,0.2,-0.13
7484,7959167,63.4404608,10.3488659,15.83,8.974,184.97,-0.66,0.19,-0.12
7498,7959207,63.4404605,10.3488661,15.82,8.969,185.33,-0.65,0.19,-0.11
7511,7959247,63.4404603,10.3488662,15.82,8.966,185.74,-0.65,0.18,-0.09
7515,7959267,63.4404602,10.3488663,15.82,8.965,185.95,-0.65,0.18,-0.08
7529,7959307,63.4404599,10.3488664,15.82,8.962,186.41,-0.65,0.16,-0.07
7542,7959347,63.4404597,10.3488666,15.82,8.961,186.88,-0.66,0.15,-0.06
7546,7959367,63.4404596,10.3488666,15.82,8.962,187.13,-0.66,0.15,-0.06
7562,7959407,63.4404593,10.3488667,15.82,8.963,187.59,-0.66,0.13,-0.06
7575,7959447,63.4404591,10.3488668,15.82,8.967,188.04,-0.65,0.12,-0.06
7579,7959467,63.4404589,10.3488669,15.82,8.969,188.27,-0.65,0.11,-0.07
7594,7959507,63.4404587,10.348867,15.83,8.975,188.73,-0.63,0.1,-0.08
7607,7959547,63.4404585,10.348867,15.84,8.981,189.22,-0.6,0.08,-0.08
7611,7959567,63.4404584,10.3488671,15.84,8.984,189.49,-0.57,0.08,-0.08
7625,7959607,63.4404581,10.3488671,15.85,8.991,190.05,-0.54,0.06,-0.1
7639,7959647,63.4404579,10.3488672,15.85,8.998,190.69,-0.5,0.05,-0.1
7643,7959667,63.4404579,10.3488672,15.86,9.001,191.03,-0.49,0.05,-0.1
7656,7959707,63.4404577,10.3488672,15.86,9.006,191.73,-0.45,0.03,-0.12
7670,7959747,63.4404575,10.3488672,15.86,9.009,192.49,-0.42,0.02,-0.12
7674,7959767,63.4404574,10.3488672,15.87,9.01,192.88,-0.41,0.02,-0.12
7687,7959807,63.4404572,10.3488672,15.87,9.012,193.7,-0.38,0.01,-0.13
7702,7959827,63.4404572,10.3488672,15.87,9.013,194.13,-0.36,0.01,-0.13
7707,7959867,63.440457,10.3488672,15.86,9.009,194.99,-0.34,0.01,-0.14
7720,7959907,63.4404569,10.3488672,15.86,9.007,195.86,-0.31,0.0,-0.14
7724,7959927,63.4404568,10.3488672,15.86,9.006,196.31,-0.31,0.01,-0.14
7737,7959967,63.4404567,10.3488672,15.85,8.997,197.18,-0.29,0.01,-0.15
7751,7960007,63.4404566,10.3488672,15.85,8.99,198.04,-0.27,0.02,-0.14
7755,7960027,63.4404565,10.3488672,15.84,8.987,198.47,-0.27,0.02,-0.14
7768,7960067,63.4404564,10.3488672,15.83,8.974,199.33,-0.26,0.02,-0.13
7782,7960107,63.4404563,10.3488672,15.82,8.962,200.15,-0.27,0.02,-0.11
7786,7960127,63.4404562,10.3488671,15.81,8.957,200.55,-0.27,0.03,-0.1
7800,7960167,63.4404561,10.3488671,15.8,8.941,201.31,-0.26,0.03,-0.07
7814,7960207,63.440456,10.3488671,15.78,8.925,202.05,-0.25,0.03,-0.04
7818,7960227,63.4404559,10.3488671,15.77,8.918,202.44,-0.25,0.03,-0.02
7831,7960267,63.4404558,10.3488671,15.76,8.901,203.18,-0.23,0.03,0.0
7845,7960307,63.4404557,10.348867,15.74,8.884,203.94,-0.2,0.04,0.03
7849,7960327,63.4404556,10.348867,15.73,8.876,204.33,-0.18,0.04,0.04
7862,7960367,63.4404556,10.3488669,15.72,8.862,205.13,-0.16,0.04,0.06
7878,7960407,63.4404555,10.3488669,15.7,8.849,205.95,-0.15,0.05,0.07
7882,7960427,63.4404554,10.3488669,15.7,8.843,206.35,-0.15,0.04,0.07
7895,7960467,63.4404554,10.3488669,15.69,8.834,207.15,-0.14,0.05,0.07
7909,7960487,63.4404553,10.3488669,15.69,8.83,207.55,-0.14,0.05,0.07
7914,7960527,63.4404553,10.3488668,15.68,8.823,208.34,-0.13,0.05,0.06
7927,7960567,63.4404552,10.3488668,15.67,8.815,209.08,-0.14,0.05,0.04
7932,7960587,63.4404552,10.3488667,15.67,8.812,209.45,-0.14,0.05,0.04
7946,7960627,63.4404551,10.3488667,15.66,8.807,210.16,-0.14,0.05,0.04
7959,7960667,63.440455,10.3488667,15.65,8.796,210.87,-0.13,0.06,0.04
7963,7960687,63.440455,10.3488667,15.65,8.79,211.22,-0.13,0.06,0.04
7977,7960727,63.4404549,10.3488666,15.64,8.782,211.93,-0.13,0.07,0.04
7992,7960767,63.4404549,10.3488665,15.62,8.765,212.64,-0.13,0.07,0.04
7996,7960787,63.4404548,10.3488665,15.61,8.758,213.02,-0.13,0.08,0.05
8011,7960827,63.4404548,10.3488664,15.6,8.744,213.77,-0.12,0.09,0.06
8024,7960867,63.4404547,10.3488664,15.58,8.725,214.56,-0.11,0.1,0.07
8028,7960887,63.4404547,10.3488664,15.57,8.717,214.97,-0.11,0.11,0.07
8042,7960927,63.4404546,10.3488664,15.56,8.701,215.83,-0.11,0.11,0.09
8055,7960967,63.4404546,10.3488663,15.54,8.686,216.7,-0.11,0.13,0.09
8059,7960987,63.4404546,10.3488663,15.53,8.679,217.14,-0.11,0.13,0.1
8073,7961027,63.4404545,10.3488663,15.52,8.667,218.0,-0.11,0.14,0.1
8086,7961067,63.4404545,10.3488663,15.52,8.66,218.87,-0.12,0.15,0.1
8090,7961087,63.4404544,10.3488663,15.51,8.657,219.29,-0.12,0.16,0.1
8104,7961127,63.4404544,10.3488663,15.51,8.651,220.11,-0.12,0.16,0.09
8118,7961147,63.4404544,10.3488663,15.51,8.652,220.51,-0.13,0.17,0.09
8122,7961187,63.4404543,10.3488663,15.51,8.652,221.3,-0.12,0.17,0.08
8136,7961227,63.4404542,10.3488663,15.51,8.652,222.08,-0.12,0.18,0.07
8148,7961248,63.4404542,10.3488664,15.51,8.653,222.47,-0.12,0.18,0.07
8153,7961287,63.4404542,10.3488664,15.51,8.655,223.23,-0.11,0.18,0.06
8167,7961327,63.4404541,10.3488664,15.51,8.658,223.99,-0.1,0.18,0.06
8179,7961347,63.4404541,10.3488664,15.51,8.657,224.37,-0.1,0.18,0.06
8195,7961387,63.4404541,10.3488664,15.51,8.656,225.13,-0.09,0.18,0.06
8200,7961427,63.440454,10.3488664,15.51,8.654,225.88,-0.08,0.17,0.07
8212,7961447,63.440454,10.3488664,15.51,8.65,226.25,-0.07,0.17,0.07
8227,7961487,63.440454,10.3488665,15.5,8.642,226.99,-0.06,0.17,0.08
8232,7961527,63.440454,10.3488665,15.49,8.635,227.73,-0.05,0.17,0.09
8244,7961547,63.440454,10.3488665,15.48,8.627,228.1,-0.05,0.16,0.09
8259,7961587,63.4404539,10.3488665,15.47,8.613,228.84,-0.04,0.17,0.1
8273,7961627,63.4404539,10.3488665,15.46,8.6,229.58,-0.03,0.17,0.1
8276,7961647,63.4404539,10.3488665,15.45,8.591,229.97,-0.03,0.17,0.1
8281,7961687,63.4404539,10.3488666,15.43,8.574,230.71,-0.03,0.17,0.1
8295,7961727,63.4404539,10.3488665,15.42,8.56,231.46,-0.03,0.17,0.09
8307,7961747,63.4404539,10.3488665,15.41,8.553,231.83,-0.03,0.17,0.08
8312,7961787,63.4404539,10.3488666,15.4,8.54,232.59,-0.03,0.18,0.07
8326,7961807,63.4404539,10.3488666,15.39,8.534,232.97,-0.03,0.18,0.06
8339,7961847,63.4404538,10.3488666,15.38,8.526,233.75,-0.03,0.18,0.03
8344,7961887,63.4404538,10.3488667,15.38,8.52,234.54,-0.02,0.18,0.0
8356,7961907,63.4404538,10.3488667,15.37,8.519,234.93,-0.02,0.18,0.0
8370,7961947,63.4404538,10.3488667,15.37,8.518,235.74,-0.02,0.18,-0.02
8375,7961987,63.4404538,10.3488667,15.38,8.52,236.54,-0.02,0.17,-0.04
8388,7962007,63.4404538,10.3488667,15.38,8.522,236.93,-0.02,0.17,-0.05
8401,7962047,63.4404538,10.3488668,15.38,8.525,237.71,-0.01,0.16,-0.06
8406,7962087,63.4404538,10.3488668,15.39,8.53,238.47,-0.01,0.15,-0.07
8419,7962107,63.4404538,10.3488668,15.39,8.532,238.85,-0.01,0.15,-0.08
8432,7962147,63.4404538,10.3488668,15.39,8.534,239.6,0.0,0.14,-0.08
8438,7962187,63.4404538,10.3488668,15.39,8.534,240.35,0.0,0.13,-0.07
8451,7962207,63.4404538,10.3488668,15.39,8.534,240.75,0.0,0.13,-0.07
8464,7962247,63.4404538,10.3488668,15.39,8.531,241.51,0.0,0.12,-0.06
8478,7962287,63.4404538,10.3488668,15.38,8.525,242.29,0.0,0.12,-0.04
8482,7962307,63.4404538,10.3488668,15.38,8.522,242.68,0.0,0.12,-0.03
8495,7962347,63.4404538,10.3488668,15.37,8.513,243.49,0.0,0.11,-0.02
8511,7962387,63.4404538,10.3488668,15.36,8.503,244.31,0.0,0.1,-0.01
8525,7962407,63.4404538,10.3488667,15.35,8.498,244.72,0.0,0.1,0.0
8528,7962447,63.4404538,10.3488667,15.34,8.487,245.55,0.0,0.1,0.0
8532,7962467,63.4404538,10.3488667,15.34,8.481,245.97,0.0,0.09,0.0
8547,7962507,63.4404538,10.3488667,15.33,8.47,246.82,0.0,0.09,0.01
8560,7962547,63.4404538,10.3488667,15.31,8.459,247.64,0.0,0.08,0.02
8564,7962567,63.4404538,10.3488666,15.31,8.454,248.04,0.0,0.07,0.02
8579,7962607,63.4404538,10.3488666,15.3,8.445,248.85,0.0,0.07,0.02
8592,7962647,63.4404538,10.3488666,15.29,8.437,249.64,0.0,0.06,0.02
8596,7962667,63.4404538,10.3488666,15.29,8.433,250.04,0.0,0.06,0.02
8610,7962707,63.4404538,10.3488665,15.28,8.427,250.82,-0.01,0.05,0.02
8623,7962747,63.4404538,10.3488664,15.28,8.422,251.6,-0.01,0.05,0.01
8627,7962767,63.4404538,10.3488664,15.28,8.42,251.99,-0.01,0.05,0.01
8641,7962807,63.4404538,10.3488664,15.27,8.416,252.79,-0.02,0.04,0.0
8655,7962847,63.4404538,10.3488663,15.27,8.412,253.58,-0.02,0.04,0.0
8659,7962867,63.4404538,10.3488663,15.27,8.41,253.97,-0.02,0.04,-0.01
8673,7962907,63.4404538,10.3488663,15.26,8.408,254.75,-0.03,0.03,-0.01
8686,7962947,63.4404538,10.3488662,15.26,8.406,255.54,-0.04,0.03,-0.02
8690,7962967,63.4404538,10.3488662,15.26,8.404,255.94,-0.04,0.03,-0.02
8704,7963007,63.4404538,10.3488661,15.26,8.403,256.76,-0.04,0.02,-0.02
8717,7963047,63.4404537,10.3488661,15.26,8.401,257.55,-0.05,0.02,-0.02
8721,7963067,63.4404537,10.3488661,15.26,8.401,257.97,-0.05,0.02,-0.02
8735,7963107,63.4404537,10.348866,15.26,8.4,258.8,-0.05,0.01,-0.01
8739,7963127,63.4404537,10.3488659,15.25,8.399,259.21,-0.05,0.01,-0.01
8753,7963167,63.4404537,10.3488658,15.26,8.401,260.07,-0.05,0.0,0.0
8766,7963207,63.4404537,10.3488658,15.26,8.403,260.94,-0.05,0.0,0.0
8771,7963227,63.4404537,10.3488657,15.26,8.403,261.39,-0.05,0.0,0.0
8784,7963267,63.4404536,10.3488657,15.26,8.409,262.28,-0.05,0.0,0.01
8797,7963307,63.4404536,10.3488656,15.27,8.414,263.18,-0.05,0.0,0.02
8802,7963327,63.4404536,10.3488655,15.27,8.416,263.63,-0.05,0.0,0.02
8815,7963367,63.4404536,10.3488654,15.28,8.424,264.55,-0.06,-0.01,0.03
8830,7963407,63.4404535,10.3488654,15.29,8.431,265.42,-0.06,-0.01,0.03
8835,7963427,63.4404535,10.3488653,15.29,8.434,265.85,-0.06,-0.02,0.03
8848,7963467,63.4404535,10.3488653,15.3,8.443,266.69,-0.06,-0.02,0.04
8862,7963507,63.4404535,10.3488652,15.31,8.45,267.52,-0.06,-0.02,0.04
8867,7963527,63.4404535,10.3488651,15.31,8.453,267.92,-0.06,-0.02,0.04
8880,7963567,63.4404534,10.348865,15.32,8.46,268.73,-0.06,-0.02,0.05
