packet_index,time_boot_ms,roll_rad,pitch_rad,yaw_rad,roll_deg,pitch_deg,yaw_deg,rollspeed_radps,pitchspeed_radps,yawspeed_radps
2,7935587,-0.03605153411626816,-0.010028284974396229,2.0435328483581543,-2.0656007498340654,-0.5745784047873628,117.0858075072699,0.1599666327238083,0.014611545950174332,-0.009287627413868904
16,7935607,-0.032990310341119766,-0.008671226911246777,2.043504238128662,-1.8902055473729578,-0.4968247052147012,117.0841682618691,0.16033650934696198,0.029033146798610687,-0.006377608049660921
29,7935647,-0.02700912579894066,-0.0050013745203614235,2.043454885482788,-1.5475089166172074,-0.286557651780976,117.08134056355271,0.15583878755569458,0.060906097292900085,-0.0021435394883155823
34,7935687,-0.02186177670955658,-0.0004924306413158774,2.0433733463287354,-1.2525875381149922,-0.02821419745032024,117.07666871416042,0.14492039382457733,0.09043417125940323,-0.000591157004237175
46,7935707,-0.019569287076592445,0.0018157141748815775,2.0433499813079834,-1.1212375575686522,0.10403275902279306,117.0753299970831,0.1372578740119934,0.10196636617183685,-0.0004564523696899414
60,7935747,-0.015791283920407295,0.00670988904312253,2.0432889461517334,-0.9047739217321387,0.3844483231719954,117.07183294022806,0.11799392849206924,0.11653636395931244,-0.0006764540448784828
65,7935787,-0.013057660311460495,0.012033245526254177,2.0431814193725586,-0.7481488261621664,0.6894541824990436,117.0656721095967,0.09365104883909225,0.1266283541917801,-0.0015361160039901733
77,7935807,-0.012078942731022835,0.014787048101425171,2.0431532859802246,-0.6920724394678328,0.8472354476685992,117.06406018495258,0.08067190647125244,0.13067971169948578,-0.001878403127193451
93,7935847,-0.010750798508524895,0.020100891590118408,2.0431227684020996,-0.6159753809340166,1.151696252563795,117.06231165652505,0.05519974231719971,0.13512861728668213,-0.0018838364630937576
97,7935887,-0.010171070694923401,0.024887852370738983,2.0432522296905518,-0.5827594239483042,1.425968901988004,117.06972924196369,0.03210090100765228,0.13133057951927185,-0.0003243768587708473
110,7935907,-0.01003654208034277,0.0269506573677063,2.043379545211792,-0.575051502109092,1.5441589222727277,117.07702388399727,0.022517574951052666,0.12578459084033966,0.0012220470234751701
123,7935947,-0.010041238740086555,0.0303395576775074,2.043809652328491,-0.5753206008902199,1.738328607214908,117.10166720652268,0.007473152130842209,0.10689665377140045,0.005422201938927174
128,7935987,-0.010099323466420174,0.03246241435408592,2.0444252490997314,-0.5786486105633085,1.8599593352940258,117.13693830339662,-0.0007240790873765945,0.08137381076812744,0.010369806550443172
141,7936007,-0.010106731206178665,0.03307104855775833,2.0447981357574463,-0.5790730427872014,1.8948315064317605,117.15830313512042,-0.0023576635867357254,0.0667295753955841,0.012789182364940643
154,7936047,-0.009880551137030125,0.03343678638339043,2.045658826828003,-0.5661138794150129,1.9157867402487712,117.2076171009279,-0.0014637839049100876,0.03640580177307129,0.017516473308205605
158,7936067,-0.009561962448060513,0.03321994096040726,2.0461368560791016,-0.547860092136448,1.9033624127051065,117.23500615949966,0.0015107356011867523,0.02152937650680542,0.019604505971074104
172,7936107,-0.008379005827009678,0.032194580882787704,2.047133445739746,-0.4800816704031785,1.8446136077762996,117.29210654096097,0.012745566666126251,-0.005712628364562988,0.022819824516773224
185,7936147,-0.006411713548004627,0.03062366507947445,2.0481503009796143,-0.36736412574751587,1.7546067622760466,117.35036805458118,0.029338566586375237,-0.026854705065488815,0.024660607799887657
191,7936167,-0.005179539322853088,0.029736392199993134,2.0486629009246826,-0.29676574302153025,1.7037697710053477,117.37973786801223,0.038728266954422,-0.034688305109739304,0.02520219050347805
204,7936207,-0.002424476435407996,0.027938539162278175,2.0497140884399414,-0.13891226727780032,1.600760379759506,117.4399664761134,0.056024983525276184,-0.04409255087375641,0.025812257081270218
217,7936247,0.0004761905875056982,0.026266470551490784,2.0508360862731934,0.027283710907931618,1.5049579053050859,117.50425221658156,0.06741151213645935,-0.04600982367992401,0.026396572589874268
221,7936267,0.001779576763510704,0.025566289201378822,2.0514166355133057,0.10196223786871395,1.4648404690498986,117.53751523783953,0.06952952593564987,-0.044397301971912384,0.026853471994400024
235,7936307,0.0040131076239049435,0.024443306028842926,2.0526366233825684,0.22993412958152734,1.4004982727993802,117.60741539380544,0.06649673730134964,-0.037823501974344254,0.02832578308880329
248,7936347,0.005427856929600239,0.02384939230978489,2.0540127754211426,0.3109932938669313,1.3664695233024362,117.68626309758406,0.054184481501579285,-0.027492012828588486,0.030766654759645462
252,7936367,0.005793975666165352,0.023751195520162582,2.054748296737671,0.33197035227277427,1.3608432616953439,117.72840536476305,0.044997986406087875,-0.021260445937514305,0.03234201669692993
267,7936407,0.005786785390228033,0.023937609046697617,2.0563607215881348,0.33155837980803143,1.3715239700099513,117.82079050347663,0.02288139797747135,-0.007898977026343346,0.03593877702951431
281,7936447,0.0046413918025791645,0.024619020521640778,2.058100700378418,0.2659321613544035,1.4105659716359789,117.92048394460214,-0.0030826758593320847,0.005348920822143555,0.03961755335330963
285,7936467,0.003631197614595294,0.025131581351161003,2.058972120285034,0.20805229789428245,1.4399335439112124,117.97041262743494,-0.01712466962635517,0.011846290901303291,0.041111480444669724
298,7936507,0.0007844854262657464,0.026356643065810204,2.0607645511627197,0.0449477040145486,1.5101244098036715,118.07311135179525,-0.046098463237285614,0.02297733537852764,0.04286160692572594
313,7936547,-0.002831177320331335,0.027766063809394836,2.062397003173828,-0.16221451150814342,1.5908782699692612,118.1666439622894,-0.07191610336303711,0.031284675002098083,0.04256695508956909
317,7936567,-0.004802572075277567,0.028435589745640755,2.0631396770477295,-0.2751671107207897,1.6292392803906974,118.20919604081858,-0.08258108794689178,0.033467624336481094,0.04139741510152817
331,7936607,-0.009007691405713558,0.029727211222052574,2.064460515975952,-0.5161027007036506,1.7032437397175508,118.28487453682231,-0.09839680045843124,0.034666161984205246,0.03749798983335495
345,7936647,-0.013227283023297787,0.030690837651491165,2.065514326095581,-0.7578674916600069,1.758455467151643,118.34525340908523,-0.10664323717355728,0.031185228377580643,0.03194557875394821
349,7936667,-0.01526268757879734,0.031109265983104706,2.0659520626068115,-0.8744875822918327,1.7824296445817993,118.37033386371752,-0.10763330012559891,0.028309078887104988,0.028815504163503647
362,7936707,-0.01918024569749832,0.031570807099342346,2.066683530807495,-1.0989471284906096,1.8088740026139731,118.41224390446472,-0.10526055097579956,0.020847106352448463,0.022659454494714737
367,7936727,-0.02102605625987053,0.03165839612483978,2.0670087337493896,-1.2047042834952062,1.81389248410664,118.43087666052051,-0.1024741679430008,0.016121886670589447,0.019870948046445847
380,7936767,-0.024520043283700943,0.03150032460689545,2.0675742626190186,-1.4048949936341644,1.8048356532672032,118.46327907794306,-0.0955461636185646,0.005992507562041283,0.015574846416711807
393,7936807,-0.027684923261404037,0.031055063009262085,2.0681960582733154,-1.5862292590220097,1.7793240429435593,118.49890534465383,-0.08683061599731445,-0.004341498017311096,0.013412246480584145
398,7936827,-0.029097063466906548,0.030757209286093712,2.0685060024261475,-1.6671389328780404,1.7622582816937535,118.51666383649588,-0.08213207125663757,-0.008324598893523216,0.01317850686609745
412,7936867,-0.03156435117125511,0.02989954501390457,2.0691637992858887,-1.8085041051817345,1.7131177386581562,118.554352820336,-0.07256150245666504,-0.0156807042658329,0.013584720902144909
425,7936907,-0.033407896757125854,0.02883227914571762,2.069910764694214,-1.9141314865921009,1.6519679087926784,118.59715078567531,-0.05989890545606613,-0.02212400920689106,0.014809347689151764
430,7936927,-0.034250903874635696,0.028209710493683815,2.070319175720215,-1.9624322365249038,1.6162973525739925,118.62055101377177,-0.05377534404397011,-0.025283463299274445,0.01563451997935772
443,7936967,-0.03567839786410332,0.027006443589925766,2.0711517333984375,-2.044221617401691,1.547355237360882,118.66825305493514,-0.04371355473995209,-0.029630247503519058,0.017503775656223297
457,7937007,-0.03675338253378868,0.025804324075579643,2.0719070434570312,-2.105813702015927,1.478478862718533,118.71152913351634,-0.034760914742946625,-0.03184050694108009,0.017877068370580673
461,7937027,-0.03711285442113876,0.02531118132174015,2.0722203254699707,-2.126409924014689,1.4502238642260712,118.72947887065513,-0.03027210384607315,-0.031272631138563156,0.01733306422829628
474,7937067,-0.0374346487224102,0.02440463937819004,2.072688579559326,-2.144847379348904,1.398282836909063,118.75630785371494,-0.019582301378250122,-0.027722492814064026,0.01424772571772337
487,7937107,-0.037159308791160583,0.023825129494071007,2.0728626251220703,-2.1290715633568786,1.365079366362927,118.76627992990316,-0.006794698536396027,-0.021948138251900673,0.009032787755131721
492,7937127,-0.0368058905005455,0.023596512153744698,2.072831153869629,-2.1088221869019064,1.3519805576387234,118.76447675996228,0.00025475025177001953,-0.018717966973781586,0.005781357176601887
505,7937167,-0.03577364608645439,0.023387493565678596,2.0725646018981934,-2.049678938548531,1.3400046747027523,118.74920445697813,0.014087616465985775,-0.011944519355893135,-0.0013885833323001862
519,7937207,-0.034292615950107574,0.023258492350578308,2.072033405303955,-1.9648221624041737,1.3326134495254465,118.71876913403655,0.026988442987203598,-0.005946522578597069,-0.008615989238023758
524,7937227,-0.033445343375205994,0.02321169711649418,2.0717010498046875,-1.916277019765131,1.329932280111099,118.69972656663056,0.032685503363609314,-0.003986958414316177,-0.011974095366895199
537,7937267,-0.03162744268774986,0.02298683114349842,2.07094669342041,-1.812118982799964,1.3170484089023395,118.65650512956272,0.04134389013051987,-0.0024081822484731674,-0.017307845875620842
550,7937307,-0.02977556735277176,0.022387437522411346,2.070173740386963,-1.706014341921343,1.2827056841469866,118.61221818298435,0.046118758618831635,-0.006215037778019905,-0.020495448261499405
555,7937327,-0.02887084148824215,0.021900063380599022,2.069793462753296,-1.6541773682674716,1.2547812027773297,118.59042987953201,0.04710204154253006,-0.009958130307495594,-0.021297041326761246
568,7937367,-0.02713581919670105,0.020379086956381798,2.0690383911132812,-1.55476791360105,1.1676356729307833,118.54716746132915,0.046435169875621796,-0.02191251516342163,-0.021811364218592644
574,7937387,-0.026403125375509262,0.019391944631934166,2.068711996078491,-1.5127876499714477,1.1110765839612002,118.52846640338166,0.044795922935009,-0.029152821749448776,-0.021432317793369293
588,7937427,-0.025208180770277977,0.0169207826256752,2.068096399307251,-1.4443223673397687,0.9694894305094806,118.49319530650772,0.03880118578672409,-0.04554130509495735,-0.020088527351617813
601,7937467,-0.02453858219087124,0.014004179276525974,2.0675575733184814,-1.405957194771807,0.802380368089509,118.46232285145925,0.029188286513090134,-0.061062708497047424,-0.018504027277231216
605,7937487,-0.02439185418188572,0.012412774376571178,2.0672996044158936,-1.3975502991205793,0.7111995838256602,118.44754232209534,0.02323811501264572,-0.06767033040523529,-0.01765456050634384
620,7937527,-0.024378661066293716,0.009186625480651855,2.0668346881866455,-1.3967943892785293,0.5263548680086926,118.42090458433229,0.011162865906953812,-0.07716186344623566,-0.016277508810162544
633,7937567,-0.024812716990709305,0.005975767504423857,2.0664122104644775,-1.4216639618201918,0.3423862573549115,118.39669839391377,-0.0006853658705949783,-0.08122269064188004,-0.014833886176347733
637,7937587,-0.025144247338175774,0.00447101378813386,2.066239833831787,-1.4406592515105263,0.25617022020486857,118.38682194037393,-0.006057435646653175,-0.08123502135276794,-0.014107855968177319
652,7937627,-0.02608790248632431,0.0017607836052775383,2.065915107727051,-1.4947267088152298,0.10088546921823201,118.36821650507481,-0.015824677422642708,-0.07680018246173859,-0.012540135532617569
665,7937667,-0.02730243280529976,-0.00042835171916522086,2.065674304962158,-1.5643141701832006,-0.024542745655340252,118.35441952295139,-0.024187060073018074,-0.06685332953929901,-0.010561888106167316
669,7937687,-0.02795080654323101,-0.0011884631821885705,2.0656089782714844,-1.6014632489137828,-0.06809392444609252,118.35067657928623,-0.027406400069594383,-0.05984870344400406,-0.009302426129579544
683,7937727,-0.029310066252946854,-0.0021057899575680494,2.065479040145874,-1.6793430935426779,-0.12065287710968194,118.34323167309091,-0.032043371349573135,-0.04241640865802765,-0.006875433027744293
696,7937767,-0.03068319335579872,-0.0020749669056385756,2.0653834342956543,-1.758017481271116,-0.11888684632241052,118.33775386137656,-0.0343429297208786,-0.02121826633810997,-0.004950314294546843
700,7937787,-0.03139844164252281,-0.0017533267382532358,2.0653533935546875,-1.7989981894043694,-0.1004582222093492,118.33603265370571,-0.03493882343173027,-0.009991500526666641,-0.004116368480026722
714,7937827,-0.032723091542720795,-0.0004864332440774888,2.065279245376587,-1.8748950380181395,-0.027870571900497156,118.33178427604197,-0.03492586314678192,0.012236831709742546,-0.0028804494068026543
728,7937867,-0.033980801701545715,0.0014134332304820418,2.065152406692505,-1.946956521969536,0.08098375873016274,118.32451695476507,-0.0336313471198082,0.03247725963592529,-0.0024383990094065666
732,7937887,-0.03459794819355011,0.002567163435742259,2.0650835037231445,-1.9823164113026919,0.14708763018833534,118.32056910542481,-0.03277767449617386,0.04123111441731453,-0.0025486499071121216
746,7937927,-0.03588433936238289,0.005170349031686783,2.064915418624878,-2.056021196079711,0.2962391781252046,118.31093853869508,-0.03148171678185463,0.05553709715604782,-0.002998586744070053
759,7937967,-0.03723793476819992,0.0079167066141963,2.0647170543670654,-2.133576500001325,0.4535938766367517,118.29957310391619,-0.03209632635116577,0.0649031549692154,-0.0034747645258903503
763,7937987,-0.03796277567744255,0.009287466295063496,2.0646326541900635,-2.175106824919353,0.5321326210771417,118.29473732998382,-0.03292839229106903,0.06760555505752563,-0.0036334767937660217
777,7938027,-0.0394936203956604,0.011949358507990837,2.0644989013671875,-2.2628177663631295,0.6846478103966174,118.28707385773507,-0.03538595139980316,0.06929437816143036,-0.0034147975966334343
789,7938047,-0.040306851267814636,0.01320489589124918,2.0644659996032715,-2.3094124631073103,0.7565848034782197,118.28518872552414,-0.03688019514083862,0.06859558820724487,-0.0029897019267082214
794,7938087,-0.042035624384880066,0.01552194356918335,2.0644867420196533,-2.408463866450835,0.8893418563544353,118.28637717843972,-0.04002324491739273,0.06440318375825882,-0.001435249112546444
808,7938127,-0.04387279599905014,0.017439065501093864,2.0646629333496094,-2.513726046184017,0.9991848518648746,118.296472198033,-0.043424949049949646,0.05729629844427109,0.0013428013771772385
820,7938147,-0.044828347861766815,0.018230648711323738,2.0647895336151123,-2.568475135023547,1.0445392289444633,118.30372585893156,-0.04498715698719025,0.052545491605997086,0.002901654690504074
826,7938187,-0.04687574878334999,0.019483644515275955,2.065171003341675,-2.685782566801458,1.116330600258527,118.3255824642756,-0.04826092720031738,0.04188469797372818,0.006148382090032101
840,7938227,-0.04906614497303963,0.020230351015925407,2.065685272216797,-2.811283023932211,1.1591137312807231,118.35504790035503,-0.05147846043109894,0.029384657740592957,0.009516416117548943
852,7938247,-0.05015045031905174,0.02038370817899704,2.0659866333007812,-2.873409143962178,1.1679004494828271,118.37231461857682,-0.05281131714582443,0.02291971631348133,0.011011197231709957
857,7938287,-0.05225691944360733,0.02029290609061718,2.066545248031616,-2.9941009344738303,1.1626978730476873,118.4043208850275,-0.054016631096601486,0.00940353237092495,0.012859778478741646
871,7938327,-0.05418043211102486,0.019786952063441277,2.0669970512390137,-3.1043100921568056,1.1337088426628608,118.43020730198185,-0.05264992266893387,-0.0035035666078329086,0.01251515094190836
883,7938347,-0.05498319864273071,0.019417641684412956,2.067133665084839,-3.150305226357906,1.112548916614161,118.4380346987707,-0.05046342685818672,-0.009001527912914753,0.011218780651688576
890,7938387,-0.05626025050878525,0.018420206382870674,2.067161798477173,-3.223474908502137,1.0554000834984298,118.43964662341482,-0.04288593679666519,-0.01859927922487259,0.006072615273296833
904,7938427,-0.05692771077156067,0.017203807830810547,2.066782236099243,-3.2617175645518617,0.9857055802595601,118.41789930109749,-0.03116701729595661,-0.025527697056531906,-0.0021179011091589928
916,7938447,-0.05697239562869072,0.016518376767635345,2.0664448738098145,-3.2642778182735586,0.9464332731924562,118.39856986574635,-0.02367452345788479,-0.028649423271417618,-0.007030554115772247
921,7938487,-0.05644423887133598,0.015147008933126926,2.0654585361480713,-3.234016665155817,0.8678596841151287,118.34205688055367,-0.005877995863556862,-0.03247814252972603,-0.01753087155520916
936,7938527,-0.05490520969033241,0.013697255402803421,2.064063310623169,-3.145836788536837,0.7847949254934005,118.26211634650784,0.015858495607972145,-0.03433549031615257,-0.02820727601647377
948,7938547,-0.053784582763910294,0.013085375539958477,2.063283681869507,-3.081629595244132,0.7497367917833414,118.21744690933595,0.027628175914287567,-0.033919114619493484,-0.032929565757513046
953,7938587,-0.05088759586215019,0.01199709065258503,2.061615467071533,-2.915644472468598,0.6873826608289728,118.12186524209079,0.05146237462759018,-0.03066401183605194,-0.04024456813931465
968,7938627,-0.04722153767943382,0.0112827243283391,2.0598843097686768,-2.7055948111495494,0.6464524854234069,118.02267723496387,0.07415082305669785,-0.024561505764722824,-0.044442757964134216
980,7938647,-0.045274365693330765,0.01103653758764267,2.059072732925415,-2.594030074359738,0.6323470242094199,117.97617730709442,0.08370742946863174,-0.020921718329191208,-0.04526282474398613
985,7938687,-0.0407826192677021,0.010741880163550377,2.0574755668640137,-2.3366719615282427,0.6154643974067351,117.8846664325946,0.10048820823431015,-0.012710703536868095,-0.04436304420232773
997,7938707,-0.03852757439017296,0.010711606591939926,2.0567996501922607,-2.207467407433227,0.6137298495226692,117.84593926000062,0.10642001777887344,-0.008893299847841263,-0.04262138530611992
1011,7938747,-0.034153684973716736,0.010709365829825401,2.055720806121826,-1.9568620038133469,0.613601463310614,117.78412604801201,0.11288278549909592,-0.00274079293012619,-0.03690268099308014
1016,7938787,-0.029722949489951134,0.0108486944809556,2.054950714111328,-1.7029995604547228,0.6215844069856252,117.74000302597372,0.11254462599754333,0.0016894098371267319,-0.028225312009453773
1028,7938807,-0.02776191383600235,0.010885264724493027,2.0547235012054443,-1.5906404940087802,0.6236797275960853,117.72698468541567,0.10991710424423218,0.0027018990367650986,-0.023658443242311478
1043,7938847,-0.02428826130926609,0.010966965928673744,2.0545270442962646,-1.391614864731838,0.628360861776777,117.7157285336635,0.10056042671203613,0.0030298344790935516,-0.014247722923755646
1048,7938887,-0.021446146070957184,0.01100399624556303,2.054555892944336,-1.2287736566869196,0.6304825426485651,117.71738143944265,0.08682916313409805,0.0023501738905906677,-0.0058889021165668964
1061,7938907,-0.020249364897608757,0.011004585772752762,2.054610252380371,-1.1602031464533402,0.6305163200684449,117.72049600570416,0.07902597635984421,0.0015824362635612488,-0.0026797689497470856
1074,7938947,-0.018234703689813614,0.010967794805765152,2.0547308921813965,-1.0447715620979494,0.6284083529358497,117.72740815714423,0.06356292963027954,0.00021721795201301575,0.001438794657588005
1079,7938987,-0.01663256622850895,0.0107878427952528,2.0547890663146973,-0.952975847365388,0.6180978622185981,117.73074128945919,0.05011814460158348,-0.002084890380501747,0.002445715479552746
1091,7939007,-0.015940722078084946,0.01064981333911419,2.054757595062256,-0.9133360974652786,0.6101893569333696,117.7289381195183,0.04447367787361145,-0.0033878814429044724,0.0019442904740571976
1105,7939047,-0.014653331600129604,0.010229094885289669,2.054564952850342,-0.8395740564931076,0.586083965165955,117.71790053381956,0.03611090034246445,-0.006824726238846779,-0.0008116308599710464
1110,7939087,-0.013314862735569477,0.009666124358773232,2.0541415214538574,-0.7628854395441449,0.5538281300063054,117.69363970188768,0.032032210379838943,-0.010515761561691761,-0.00538366474211216
1123,7939107,-0.012598336674273014,0.009315689094364643,2.0538535118103027,-0.7218315203207254,0.5337496683631421,117.67713796485293,0.031898822635412216,-0.012476662173867226,-0.008018279448151588
1136,7939147,-0.010964012704789639,0.00866616889834404,2.0531787872314453,-0.6281916545122604,0.49653490242265164,117.63847909415065,0.034852683544158936,-0.015541819855570793,-0.013101572170853615
1151,7939187,-0.009150045923888683,0.007959593087434769,2.0524423122406006,-0.5242590137897036,0.4560510905515167,117.59628218545832,0.04013840854167938,-0.01723737269639969,-0.016837570816278458
1165,7939207,-0.008220645599067211,0.007684736512601376,2.052074909210205,-0.4710082976993455,0.4403029688421416,117.57523154243634,0.04259419068694115,-0.017286624759435654,-0.017861060798168182
1168,7939247,-0.00641504256054759,0.007197225000709295,2.0514159202575684,-0.3675548641161738,0.41237061674668357,117.5374742567045,0.045603200793266296,-0.015581459738314152,-0.018269330263137817
1173,7939287,-0.004875648766756058,0.006917769089341164,2.050954580307007,-0.2793540967232868,0.3963589724653076,117.51104142461655,0.044270314276218414,-0.01215841993689537,-0.01595441997051239
1187,7939307,-0.004259780514985323,0.006887535564601421,2.0508153438568115,-0.24406744516072335,0.394626719097916,117.50306376366598,0.041729576885700226,-0.009648745879530907,-0.013820885680615902
1201,7939347,-0.0035298021975904703,0.007110230624675751,2.0507614612579346,-0.20224276843793704,0.4073862061585874,117.49997651816113,0.03245103731751442,-0.0030798260122537613,-0.007995045743882656
1206,7939367,-0.0034751014318317175,0.007429345510900021,2.050891637802124,-0.19910864542382675,0.42567014231903555,117.5074350847348,0.024986470118165016,0.0015564095228910446,-0.0040544429793953896
1220,7939407,-0.003947632387280464,0.008415459655225277,2.051325798034668,-0.22618267486032428,0.48217032090702727,117.53231063369198,0.00732048787176609,0.012310361489653587,0.0040118517354130745
1232,7939447,-0.005306633654981852,0.010039590299129486,2.052006959915161,-0.3040477118525423,0.5752261521806032,117.57133833460942,-0.013125794008374214,0.02573917992413044,0.011558102443814278
1236,7939467,-0.006335311569273472,0.011077024042606354,2.052433967590332,-0.3629866148197724,0.6346667272062855,117.59580407221641,-0.024249928072094917,0.03313424065709114,0.01501408126205206
1251,7939507,-0.008991005830466747,0.013664348982274532,2.053417921066284,-0.5151466876632603,0.7829095264782124,117.6521804536257,-0.046829693019390106,0.048944421112537384,0.021102912724018097
1264,7939547,-0.012220816686749458,0.01685050129890442,2.0545237064361572,-0.7002012183537942,0.9654626071069349,117.71553728836673,-0.0669391006231308,0.06517410278320312,0.025956392288208008
1268,7939567,-0.013944256119430065,0.01864551194012165,2.055039882659912,-0.7989470240928139,1.0683091410297538,117.7451120074729,-0.07485589385032654,0.07278713583946228,0.027433637529611588
1282,7939607,-0.017333481460809708,0.02243443764746189,2.055978536605835,-0.9931353319726531,1.2853985929489697,117.79889291699757,-0.08459243178367615,0.08598052710294724,0.0280524380505085
1296,7939647,-0.020483318716287613,0.026540927588939667,2.056779146194458,-1.1736077128646074,1.5206831352085708,117.84476446746338,-0.08507756888866425,0.09526064246892929,0.025980863720178604
1300,7939667,-0.021798759698867798,0.028542382642626762,2.0570785999298096,-1.2489769293649942,1.6353580626699709,117.86192190265845,-0.08193204551935196,0.09815039485692978,0.024095190688967705
1313,7939707,-0.02386636473238468,0.03245912492275238,2.0574827194213867,-1.3674419714855168,1.8597708647616156,117.8850762439448,-0.069827601313591,0.10014216601848602,0.01897278055548668
1327,7939747,-0.025123773142695427,0.03609969839453697,2.0576491355895996,-1.4394861665205765,2.0683603597021625,117.89461118802613,-0.051822979003190994,0.09773111343383789,0.012990066781640053
1331,7939767,-0.02542129158973694,0.03772691264748573,2.0576388835906982,-1.4565327178633416,2.1615928687596595,117.8940237917575,-0.04149612411856651,0.09447342157363892,0.009812929667532444
1345,7939807,-0.025322673842310905,0.04046447575092316,2.0575265884399414,-1.4508823371507429,2.3184436807373596,117.88758975355935,-0.019167499616742134,0.0837176963686943,0.003817124292254448
1360,7939847,-0.024357950314879417,0.042310722172260284,2.0572924613952637,-1.3956077506319453,2.4242258086211086,117.87417526202945,0.0037307124584913254,0.06685271114110947,-0.0010892488062381744
1374,7939867,-0.023578597232699394,0.042880650609731674,2.057175397872925,-1.3509541082725176,2.456880302712705,117.8674680162645,0.014934050850570202,0.05655372142791748,-0.0028685852885246277
1377,7939907,-0.021546024829149246,0.0431484617292881,2.0569345951080322,-1.2344962879943324,2.472224749569962,117.85367103414107,0.03543700650334358,0.03262072801589966,-0.005009056534618139
1391,7939947,-0.019015377387404442,0.0422789491713047,2.0567800998687744,-1.0895008701467763,2.422405349763889,117.84481910897674,0.05208341404795647,0.004728684201836586,-0.005240693688392639
1394,7939967,-0.017687484622001648,0.04143591225147247,2.0567445755004883,-1.0134182190432406,2.3741028922837932,117.84278371260407,0.05811329931020737,-0.009291661903262138,-0.004697935190051794
1407,7940007,-0.015036476776003838,0.03900201991200447,2.056781053543091,-0.8615266580114989,2.2346511334430548,117.8448737504901,0.06551582366228104,-0.03703000396490097,-0.00256465096026659
1412,7940027,-0.013757534325122833,0.03747205436229706,2.056886672973633,-0.7882486533358997,2.146990564644407,117.85092529809474,0.0668686106801033,-0.05007437989115715,-0.0008585527539253235
1425,7940067,-0.011425605043768883,0.033933088183403015,2.057246208190918,-0.6546389473913432,1.9442227387542383,117.87152514863149,0.06490934640169144,-0.07283533364534378,0.003619574010372162
1439,7940107,-0.009487436152994633,0.030057575553655624,2.0577871799468994,-0.5435900499664265,1.722172221620066,117.902520547085,0.058126360177993774,-0.08939387649297714,0.008634088560938835
1453,7940127,-0.008717966265976429,0.028110060840845108,2.0580968856811523,-0.4995026729778751,1.6105878480363909,117.9202653785487,0.05332810431718826,-0.09450463950634003,0.011123384349048138
1456,7940167,-0.007790038827806711,0.02429892309010029,2.058825731277466,-0.4463363470763636,1.3922257397757312,117.96202515513416,0.03963163495063782,-0.09885800629854202,0.015347753651440144
1470,7940207,-0.007461691275238991,0.020775342360138893,2.0595815181732178,-0.42752341810078326,1.1903394351753174,118.00532855447204,0.023416001349687576,-0.09615419059991837,0.018256431445479393
1475,7940227,-0.00770251639187336,0.01916586235165596,2.0599923133850098,-0.44132168088467844,1.0981230234785653,118.0288653863519,0.013875959441065788,-0.09243427962064743,0.019243724644184113
1488,7940267,-0.008986974135041237,0.016656039282679558,2.0607454776763916,-0.5149156885310965,0.9543207543016458,118.07201852152804,-0.008474208414554596,-0.0800723135471344,0.020106688141822815
1502,7940307,-0.011199737899005413,0.01510211918503046,2.0614025592803955,-0.641697713265726,0.8652876910057957,118.10966652423315,-0.03300147503614426,-0.061789266765117645,0.01921727880835533
1506,7940327,-0.012542380951344967,0.014778603799641132,2.0616865158081055,-0.718625493557345,0.846751624815439,118.12593603483613,-0.044703174382448196,-0.04998397082090378,0.018362246453762054
1519,7940367,-0.015745993703603745,0.0147864343598485,2.0621142387390137,-0.9021789834560626,0.8472002828665441,118.15044275357813,-0.0650835782289505,-0.02431793510913849,0.015563871711492538
1535,7940407,-0.01959846168756485,0.01582016609609127,2.062382221221924,-1.122909139646307,0.9064287485019857,118.16579701883232,-0.08282288908958435,0.002050952985882759,0.011851456947624683
1539,7940427,-0.021754730492830276,0.016569172963500023,2.062434434890747,-1.2464542416837323,0.9493436808308221,118.16878864168878,-0.09079436212778091,0.01423095166683197,0.009770470671355724
1552,7940467,-0.0265042744576931,0.01868937909603119,2.0624613761901855,-1.5185830654822035,1.070822543922613,118.1703322644412,-0.10627280920743942,0.035925254225730896,0.0057319654151797295
1565,7940507,-0.031696662306785583,0.02118803933262825,2.06229829788208,-1.8160849748302141,1.2139852299167841,118.16098856565662,-0.11910927295684814,0.05310674011707306,0.0018111038953065872
1571,7940527,-0.03436315432190895,0.02249233052134514,2.0622172355651855,-1.9688637134021172,1.288715610286363,118.15634403702101,-0.12407413870096207,0.05856133997440338,0.00020916853100061417
1584,7940567,-0.039844732731580734,0.024960840120911598,2.062042713165283,-2.282935021346344,1.43015079202905,118.14634464007612,-0.13233640789985657,0.064410001039505,-0.0015605026856064796
1598,7940607,-0.045373521745204926,0.027022497728466988,2.061915636062622,-2.5997112976453076,1.5482750717430125,118.1390636584209,-0.1371850073337555,0.06127965450286865,-0.0016618650406599045
1603,7940627,-0.04809866473078728,0.02786957286298275,2.0618844032287598,-2.755850489288857,1.5968089018812421,118.13727414885834,-0.138239786028862,0.05742168053984642,-0.001166507601737976
1616,7940667,-0.053296152502298355,0.028882725164294243,2.0619313716888428,-3.053644602667297,1.6548582527503573,118.13996524339133,-0.13652245700359344,0.04397521913051605,0.0005431361496448517
1620,7940687,-0.055813804268836975,0.029131559655070305,2.0620241165161133,-3.197895423173616,1.6691154188691126,118.1452791305656,-0.13410136103630066,0.035333096981048584,0.001786472275853157
1635,7940727,-0.06047637388110161,0.028880514204502106,2.06233549118042,-3.4650409836423286,1.6547315740855948,118.16311958467767,-0.1270197331905365,0.015229346230626106,0.00483015738427639
1648,7940767,-0.06440562754869461,0.02769051119685173,2.0628108978271484,-3.690170635431707,1.586549424139354,118.19035837908768,-0.11502580344676971,-0.008074486628174782,0.007826939225196838
1652,7940787,-0.06607333570718765,0.026683159172534943,2.063100814819336,-3.785723274372893,1.5288324046620423,118.20696939914916,-0.10629679262638092,-0.020609984174370766,0.009305406361818314
1666,7940827,-0.06822050362825394,0.024051640182733536,2.063751220703125,-3.9087469341558703,1.3780574728378916,118.24423491126075,-0.08319329470396042,-0.045084528625011444,0.011472153477370739
1682,7940867,-0.06886453181505203,0.020621685311198235,2.0644524097442627,-3.945647031146864,1.1815355347785825,118.28441008395876,-0.05191623419523239,-0.06802557408809662,0.012486126273870468
1686,7940887,-0.06861665099859238,0.018757540732622147,2.0647928714752197,-3.9314445065414687,1.0747279180239793,118.30391710422832,-0.03406839072704315,-0.07814272493124008,0.012590814381837845
1700,7940927,-0.06688529253005981,0.014781337231397629,2.065310001373291,-3.8322449734703192,0.8469082389186733,118.33354646484783,0.004936650395393372,-0.09288797527551651,0.010953052900731564
1713,7940967,-0.06355731934309006,0.010675635188817978,2.065685749053955,-3.64156615552425,0.6116688399406178,118.35507522111172,0.04558242857456207,-0.10174146294593811,0.007382097654044628
1717,7940987,-0.06135183945298195,0.008567318320274353,2.0658106803894043,-3.5152014660200788,0.4908711814968301,118.36223325936189,0.06567748636007309,-0.10399520397186279,0.00545863900333643
1731,7941027,-0.05593656376004219,0.004454208072274923,2.0659730434417725,-3.2049290239148482,0.2552073236144555,118.37153597701145,0.10398883372545242,-0.10595681518316269,0.0016356045380234718
1744,7941067,-0.04930626228451729,0.0005828279536217451,2.0659477710723877,-2.8250407324679094,0.03339358192477248,118.3700879769074,0.13788440823554993,-0.10227546840906143,-0.0019484050571918488
1748,7941087,-0.04578699544072151,-0.001109651173464954,2.065865993499756,-2.6234015953380854,-0.06357832897128106,118.36540246713678,0.15165306627750397,-0.09877081215381622,-0.0036632465198636055
1762,7941127,-0.0385710783302784,-0.0038213415537029505,2.0656259059906006,-2.2099599995934587,-0.21894674310514367,118.35164646614837,0.17217546701431274,-0.0860973447561264,-0.006645160727202892
1775,7941167,-0.03143861144781113,-0.005665336735546589,2.065272331237793,-1.8012997497112522,-0.3245998844672429,118.3313881250701,0.18124604225158691,-0.06761457771062851,-0.00896487757563591
1780,7941187,-0.028096800670027733,-0.006114734336733818,2.0650734901428223,-1.6098280962129328,-0.3503484703385745,118.31999536953452,0.1809130162000656,-0.05614185333251953,-0.00980339664965868
1794,7941227,-0.022067079320549965,-0.006243356503546238,2.0646674633026123,-1.2643505112479292,-0.35771797764875385,118.29673174522146,0.1710275113582611,-0.029746245592832565,-0.010570024140179157
1807,7941267,-0.017210790887475014,-0.005192737095057964,2.0642857551574707,-0.9861056799345348,-0.29752191966784475,118.27486147949908,0.14993588626384735,-0.001271059736609459,-0.010380278341472149
1811,7941287,-0.015281638130545616,-0.004294039215892553,2.0641188621520996,-0.8755733689264532,-0.24603032413430864,118.26529921466107,0.1359979510307312,0.013202643021941185,-0.009884550236165524
1825,7941327,-0.01248684711754322,-0.0018775032367557287,2.0638530254364014,-0.715443639260324,-0.10757301148825463,118.25006789281194,0.10385698080062866,0.03958296775817871,-0.008327118121087551
1837,7941347,-0.01164949219673872,-0.0003985775401815772,2.0637636184692383,-0.6674667363437148,-0.02283681086111036,118.24494525093442,0.08608939498662949,0.05147388204932213,-0.007289651315659285
1844,7941387,-0.011117643676698208,0.0027839618269354105,2.0636658668518066,-0.6369940608051144,0.15950926300892912,118.23934449581502,0.04779932647943497,0.06982002407312393,-0.004638213664293289
1858,7941427,-0.012038477696478367,0.005804325453937054,2.0637102127075195,-0.6897539637705837,0.3325633514309489,118.24188532618626,0.010144339874386787,0.07764841616153717,-0.0016463473439216614
1870,7941447,-0.012941231019794941,0.007255240809172392,2.063776731491089,-0.7414779191380324,0.41569467771665836,118.24569657174312,-0.007824353873729706,0.07827236503362656,-1.905672252178192e-05
1875,7941487,-0.015517184510827065,0.00990432407706976,2.0640387535095215,-0.8890691823961636,0.5674759685459015,118.26070932753882,-0.040078118443489075,0.07463125884532928,0.0035249022766947746
1890,7941527,-0.01882830075919628,0.012011097744107246,2.0644567012786865,-1.0787821689049106,0.6881852080564492,118.28465597076888,-0.06623002141714096,0.06574252247810364,0.0075419582426548
1902,7941547,-0.020666062831878662,0.012756550684571266,2.064735174179077,-1.1840781794188255,0.7308965153706546,118.30061129267003,-0.07639214396476746,0.058936357498168945,0.009590630419552326
1907,7941587,-0.024549253284931183,0.01371059287339449,2.0653486251831055,-1.406568603424229,0.7855591062676485,118.33575944613892,-0.09111010283231735,0.0419333279132843,0.013443670235574245
1922,7941627,-0.028411872684955597,0.01377603318542242,2.066051721572876,-1.6278803929109822,0.7893085599568681,118.37604390186365,-0.09805218130350113,0.021777261048555374,0.016370128840208054
1934,7941647,-0.03036988154053688,0.013497335836291313,2.066452741622925,-1.74006603658503,0.7733403780901716,118.39902065823158,-0.09880802035331726,0.01052926667034626,0.017574170604348183
1939,7941687,-0.03379812464118004,0.012386788614094257,2.067185163497925,-1.9364898973967262,0.7097107093083032,118.44098534049213,-0.09533363580703735,-0.010466037318110466,0.01876598224043846
1953,7941727,-0.036567576229572296,0.010568535886704922,2.0678186416625977,-2.0951677849774044,0.6055325019407432,118.47728096574158,-0.08497250080108643,-0.030234457924962044,0.01795782893896103
1965,7941747,-0.037711989134550095,0.009476863779127598,2.0680928230285645,-2.1607378144529386,0.5429842975644109,118.49299040083261,-0.07796096056699753,-0.0390787348151207,0.016830697655677795
1970,7941787,-0.03940070420503616,0.006943474058061838,2.0685300827026367,-2.2574940607919274,0.39783175868551807,118.51804353470821,-0.06100623309612274,-0.05412246659398079,0.013633253052830696
1984,7941827,-0.04029782861471176,0.004177602007985115,2.068819522857666,-2.308895503164505,0.23935896354292513,118.534627234013,-0.041648756712675095,-0.0648491382598877,0.009516860358417034
1997,7941847,-0.04046175628900528,0.002782149240374565,2.068913459777832,-2.3182878670469185,0.15940540944899056,118.54000942307897,-0.03166482225060463,-0.06817350536584854,0.007403087802231312
2002,7941887,-0.04022497683763504,0.00011188632197445258,2.0690178871154785,-2.3047214038079806,0.006410614034377973,118.54599266879191,-0.011853063479065895,-0.07059644907712936,0.0034765582531690598
2016,7941927,-0.03929930925369263,-0.0022511992137879133,2.069049835205078,-2.2516845580160085,-0.12898421379321656,118.54782315948947,0.007398273795843124,-0.06687581539154053,0.0006383545696735382
2028,7941947,-0.03859037160873413,-0.0031855457928031683,2.0690488815307617,-2.211065423021943,-0.18251832937327736,118.54776851797611,0.01618032157421112,-0.06289159506559372,-0.0002992181107401848
2033,7941987,-0.036903735250234604,-0.004427666310220957,2.069049596786499,-2.114428278106606,-0.2536865926679227,118.54780949911112,0.031611405313014984,-0.04983300343155861,-0.0009829569607973099
2046,7942007,-0.03587375581264496,-0.00467564444988966,2.0690455436706543,-2.055414803347461,-0.26789469348244505,118.54757727267935,0.038193680346012115,-0.040753960609436035,-0.0009260866791009903
2059,7942047,-0.03345751762390137,-0.00433067511767149,2.069082260131836,-1.9169745528341187,-0.24812940668489752,118.54968097094371,0.050474271178245544,-0.017930813133716583,3.810971975326538e-06
2064,7942087,-0.030674561858177185,-0.0028092574793845415,2.0691802501678467,-1.7575229328865247,-0.1609585971342941,118.55529538644147,0.06141532212495804,0.009539209306240082,0.0017929263412952423
2077,7942107,-0.029166968539357185,-0.0016030740225687623,2.0692496299743652,-1.671144198496018,-0.09184937574024976,118.55927055653841,0.06622438132762909,0.024244703352451324,0.0028923479840159416
2090,7942147,-0.02598424442112446,0.0016651552869006991,2.0694875717163086,-1.4887875391667864,0.09540637017330579,118.57290361412176,0.07431856542825699,0.05414283275604248,0.005449983291327953
2096,7942187,-0.022628245875239372,0.005823453422635794,2.069812059402466,-1.2965029864355295,0.33365930330804505,118.59149538904254,0.08049076050519943,0.0822293683886528,0.008416889235377312
2108,7942207,-0.020886223763227463,0.007977020926773548,2.069999933242798,-1.1966924715987812,0.45704963219166084,118.60225976717447,0.08289913088083267,0.09321711957454681,0.009728404693305492
2122,7942247,-0.017339924350380898,0.012838135473430157,2.070465326309204,-0.9935044823529511,0.735570979444735,118.6289248256942,0.08622084558010101,0.10932841897010803,0.012151384726166725
2136,7942287,-0.014087184332311153,0.017877524718642235,2.070958137512207,-0.8071362074642476,1.0243067145190046,118.65716082772303,0.08562838286161423,0.11999095976352692,0.013713279739022255
2150,7942307,-0.012560474686324596,0.02046196348965168,2.071225643157959,-0.7196621882073059,1.1723841485078232,118.67248777222055,0.08392190933227539,0.12396739423274994,0.014261913485825062
2164,7942347,-0.009886018931865692,0.025324547663331032,2.0717411041259766,-0.5664271609823344,1.450989699186759,118.70202151019168,0.07732288539409637,0.12659122049808502,0.014841095544397831
2169,7942387,-0.008037454448640347,0.029723552986979485,2.0722968578338623,-0.46051221793573993,1.7030341382873961,118.73386385210227,0.06419700384140015,0.1214350089430809,0.014967379160225391
2183,7942407,-0.007455392275005579,0.03152891993522644,2.0726029872894287,-0.42716251197225685,1.80647404489436,118.75140377789087,0.05528896301984787,0.11535532027482986,0.015235397964715958
2186,7942447,-0.007239317987114191,0.03432846441864967,2.0732216835021973,-0.4147823672147856,1.9668761283536433,118.78685245968323,0.03233502805233002,0.09554122388362885,0.015985725447535515
2191,7942487,-0.008246254175901413,0.03577019274234772,2.0738301277160645,-0.47247556107128175,2.0494810765060123,118.82171374520698,0.0035966094583272934,0.06804545223712921,0.016405077651143074
2205,7942507,-0.00930497795343399,0.035997822880744934,2.0741424560546875,-0.5331359651940459,2.0625233227261517,118.83960884083241,-0.012749042361974716,0.05100327730178833,0.0164287481456995
2218,7942547,-0.012277411296963692,0.035465072840452194,2.0747084617614746,-0.7034438506622578,2.031998993881953,118.87203857901164,-0.04508719965815544,0.017567118629813194,0.01614929735660553
2223,7942587,-0.016357537358999252,0.03374675288796425,2.0751638412475586,-0.9372178538982281,1.9335465127512736,118.89812990164108,-0.07626112550497055,-0.015606525354087353,0.014779577031731606
2237,7942607,-0.01875161938369274,0.032533757388591766,2.0753188133239746,-1.0743886497213,1.8640469900688668,118.9070091475621,-0.09080209583044052,-0.030626261606812477,0.013437213376164436
2250,7942647,-0.02376726269721985,0.029409391805529594,2.0754990577697754,-1.3617638431294148,1.6850340285034737,118.91733639358716,-0.11402708292007446,-0.05774109065532684,0.009542513638734818
2254,7942667,-0.026403754949569702,0.027626894414424896,2.075528144836426,-1.5128237219080016,1.5829044510000945,118.91900295974465,-0.12182484567165375,-0.06926348805427551,0.007144130766391754
2268,7942707,-0.03174639865756035,0.023767411708831787,2.075408458709717,-1.8189346578179904,1.3617723808658773,118.91214544981796,-0.13189822435379028,-0.0871458351612091,0.001758018508553505
2281,7942747,-0.036705341190099716,0.02020331472158432,2.0751194953918457,-2.103061135780412,1.1575646657213055,118.89558907126984,-0.13280929625034332,-0.09484656155109406,-0.003733033314347267
2285,7942767,-0.038897328078746796,0.018690679222345352,2.074944019317627,-2.2286527332479023,1.0708970356732483,118.88553503281159,-0.12920759618282318,-0.09317851066589355,-0.006040265783667564
2298,7942807,-0.042588118463754654,0.016423720866441727,2.074524402618408,-2.440119445376317,0.9410098895480545,118.86149276693314,-0.11310684680938721,-0.07917112112045288,-0.009378773160278797
2313,7942847,-0.04507962986826897,0.01558159664273262,2.074165105819702,-2.582872533463699,0.8927597257037919,118.84090657677471,-0.08961024135351181,-0.053612083196640015,-0.010180018842220306
2317,7942867,-0.045810967683792114,0.015692144632339478,2.0740208625793457,-2.6247751036914924,0.899093658941921,118.832642047879,-0.07540441304445267,-0.037623096257448196,-0.009447735734283924
2330,7942907,-0.046316467225551605,0.017088307067751884,2.0738015174865723,-2.6537380939801087,0.9790878740057583,118.82007449980618,-0.04410550743341446,-0.0017117597162723541,-0.006534128449857235
2344,7942947,-0.04522496089339256,0.019864298403263092,2.0736982822418213,-2.591199387835591,1.1381404614954354,118.81415955598494,-0.00859452411532402,0.03617143630981445,-0.0024295952171087265
2348,7942967,-0.04416210576891899,0.021711161360144615,2.0736987590789795,-2.5303022749694035,1.2439579142637984,118.81418687674163,0.010079851374030113,0.054051563143730164,-0.00022253673523664474
2361,7943007,-0.04101461544632912,0.025948697701096535,2.0737295150756836,-2.3499643634267335,1.4867508621336532,118.81594906554749,0.046768561005592346,0.08557545393705368,0.0037847328931093216
2375,7943047,-0.036698997020721436,0.030465032905340195,2.073859453201294,-2.1026976416505203,1.7455178082031695,118.8233939717428,0.08100493252277374,0.10503702610731125,0.00670713372528553
2379,7943067,-0.03411845117807388,0.033026937395334244,2.073925733566284,-1.954843256026785,1.8923041229954443,118.82719155692133,0.09647625684738159,0.11222558468580246,0.0077699413523077965
2392,7943107,-0.02858114242553711,0.03797803446650505,2.0740480422973633,-1.637578834645577,2.1759810891331144,118.83419933100977,0.1213984340429306,0.12110994756221771,0.00847558118402958
2406,7943147,-0.02264408767223358,0.04285566881299019,2.0741078853607178,-1.297410654543201,2.4554489511947644,118.83762808597311,0.13943132758140564,0.1246565729379654,0.0076268743723630905
2412,7943167,-0.01964448019862175,0.045094095170497894,2.0741074085235596,-1.1255458061093435,2.5837013342307977,118.83760076521644,0.14538522064685822,0.12346112728118896,0.00654295738786459
2424,7943207,-0.013861442916095257,0.04915929585695267,2.073986768722534,-0.7942021770537707,2.816620176438341,118.83068861377637,0.14998352527618408,0.11555986106395721,0.0034353425726294518
2438,7943247,-0.008609275333583355,0.05220149829983711,2.0737292766571045,-0.49327514128041017,2.9909255368400087,118.81593540516916,0.1449122279882431,0.09927015006542206,-0.0006801504641771317
2442,7943267,-0.006292872596532106,0.05342266336083412,2.073577404022217,-0.3605550407948214,3.0608931409239735,118.80723374416655,0.13888822495937347,0.08854666352272034,-0.0026749949902296066
2455,7943307,-0.0024924888275563717,0.054983679205179214,2.0731358528137207,-0.14280909030249095,3.1503327605579976,118.78193472348083,0.12072829157114029,0.06492908298969269,-0.00638235779479146
2460,7943327,-0.001021822914481163,0.055244844406843185,2.0729002952575684,-0.058546140409527894,3.1652964243690263,118.76843826968089,0.10823015123605728,0.05090409517288208,-0.008012850768864155
2473,7943367,0.0014369292184710503,0.054396264255046844,2.0723631381988525,0.08232997967742299,3.1166763630925254,118.7376614372808,0.08242999017238617,0.016844959929585457,-0.0104513606056571
2488,7943407,0.0024871903005987406,0.05180151015520096,2.0718400478363037,0.1425055070701824,2.968007904297089,118.70769056720279,0.05550452321767807,-0.024641312658786774,-0.01167130097746849
2493,7943427,0.0025697778910398483,0.049947407096624374,2.071629047393799,0.14723742744261284,2.8617756242583536,118.69560113237186,0.040456727147102356,-0.04529045522212982,-0.011376336216926575
2506,7943467,0.0019671276677399874,0.045093633234500885,2.0712451934814453,0.11270811312491417,2.583674867247764,118.67360792324443,0.010750435292720795,-0.08650901913642883,-0.00979307945817709
2521,7943507,0.0006372616626322269,0.03914247825741768,2.070883274078369,0.03651240371431633,2.242698803832622,118.65287146892426,-0.014924721792340279,-0.12223421782255173,-0.007787657901644707
2525,7943527,-0.0002812414604704827,0.03574904799461365,2.0707359313964844,-0.016113948709054034,2.048269571701981,118.64442935511013,-0.02576615661382675,-0.13830271363258362,-0.006922167260199785
2538,7943567,-0.0026945637073367834,0.02872718870639801,2.070495128631592,-0.15438712805952204,1.645946670152489,118.63063237298671,-0.04519277438521385,-0.16316723823547363,-0.005179333034902811
2552,7943607,-0.005514292046427727,0.021178577095270157,2.0702972412109375,-0.31594566126286655,1.2134430836514143,118.61929425896449,-0.06101975589990616,-0.180047407746315,-0.003987770527601242
2557,7943627,-0.007067951373755932,0.017440082505345345,2.0702128410339355,-0.4049637835199072,0.9992431219162312,118.61445848503212,-0.06713651865720749,-0.18527306616306305,-0.003436497412621975
2570,7943667,-0.010704160667955875,0.009916716255247593,2.0700716972351074,-0.6133032295038079,0.5681859880544655,118.60637154105483,-0.0787716656923294,-0.1887703388929367,-0.0027733659371733665
2583,7943707,-0.01484084315598011,0.003261145204305649,2.069906711578369,-0.8503176772532732,0.18684985658604225,118.59691855924352,-0.0912250354886055,-0.18236084282398224,-0.002753199078142643
2588,7943727,-0.017092512920498848,0.00022550101857632399,2.0698282718658447,-0.9793288516174128,0.01292025664032454,118.59242429476966,-0.09788749366998672,-0.17552995681762695,-0.0030113495886325836
2601,7943767,-0.02195289172232151,-0.005094427149742842,2.069598913192749,-1.2578080437967032,-0.2918891747171263,118.57928301080655,-0.11067377030849457,-0.1567523330450058,-0.004199028946459293
2614,7943807,-0.027224568650126457,-0.009177200496196747,2.06935977935791,-1.5598528827164186,-0.5258148561774385,118.5655816513315,-0.12278460711240768,-0.13109895586967468,-0.0055932579562067986
2619,7943827,-0.029933644458651543,-0.01070904266089201,2.0692293643951416,-1.7150714929258972,-0.613582947094661,118.55810942437951,-0.12794238328933716,-0.1162080466747284,-0.006102568004280329
2633,7943867,-0.03545321524143219,-0.012665754184126854,2.06892991065979,-2.0313196035029484,-0.7256942591006321,118.54095198918444,-0.1354721039533615,-0.08285623043775558,-0.006902474910020828
2646,7943907,-0.04076873138546944,-0.013268531300127506,2.068546772003174,-2.335876244489936,-0.7602308438345371,118.51899976119202,-0.13743442296981812,-0.0475350022315979,-0.007835104130208492
2651,7943927,-0.04339979216456413,-0.01300243753939867,2.068305492401123,-2.4866249227744643,-0.7449847943900109,118.50517545831191,-0.13588552176952362,-0.02867935225367546,-0.008399540558457375
2664,7943967,-0.04784500226378441,-0.01166327390819788,2.0677833557128906,-2.7413167005087162,-0.6682563702447917,118.47525922974725,-0.12700605392456055,0.005873994901776314,-0.009546449407935143
2668,7943987,-0.04972703754901886,-0.01056353747844696,2.067500591278076,-2.84914937924735,-0.6052461142432787,118.45905802103599,-0.11959774047136307,0.021761246025562286,-0.010074478574097157
2682,7944027,-0.05266310274600983,-0.007697745226323605,2.0669057369232178,-3.0173735234101793,-0.44104831323531923,118.42497537707762,-0.09914620220661163,0.05081015080213547,-0.0106333764269948
2695,7944067,-0.05416493117809296,-0.004178991541266441,2.0662620067596436,-3.103421954121292,-0.2394385779354381,118.38809235555955,-0.0708404928445816,0.07360056042671204,-0.01097414456307888
2699,7944087,-0.05435634031891823,-0.0022497521713376045,2.065943956375122,-3.114388890050806,-0.1289013043680376,118.36986941085397,-0.05399046093225479,0.08284907042980194,-0.011010795831680298
2713,7944127,-0.053609997034072876,0.0014303054194897413,2.0652964115142822,-3.0716265697612366,0.08195046395145093,118.33276782328245,-0.017370427027344704,0.0936078205704689,-0.011056178249418736
2726,7944167,-0.051539450883865356,0.005051374435424805,2.0646841526031494,-2.9529930140672853,0.2894224358901203,118.29768797170526,0.01991071179509163,0.09528224170207977,-0.010865927673876286
2731,7944187,-0.05008453503251076,0.006787686143070459,2.064389228820801,-2.869632476237984,0.3889057686573692,118.28079008369865,0.037259750068187714,0.09418462961912155,-0.010741181671619415
2745,7944227,-0.0463494174182415,0.010315719991922379,2.063755989074707,-2.6556260009553823,0.5910472181758799,118.24450811882754,0.06878314167261124,0.09069449454545975,-0.010750667192041874
2758,7944267,-0.04191461205482483,0.01342657022178173,2.0631184577941895,-2.401530370669626,0.7692858070441229,118.20798026714631,0.09404373168945312,0.08538176119327545,-0.011516994796693325
2762,7944287,-0.039544202387332916,0.014878849498927593,2.062770366668701,-2.2657159010053305,0.8524952802988908,118.18803611476989,0.1039685532450676,0.08209801465272903,-0.012052446603775024
2776,7944327,-0.034682199358940125,0.017412185668945312,2.062037229537964,-1.9871436474985984,0.9976447509287425,118.1460304513743,0.11755061894655228,0.07389520853757858,-0.013726374134421349
2789,7944367,-0.030092593282461166,0.019509149715304375,2.0612733364105225,-1.7241785896887571,1.1177919405757921,118.10226259917286,0.12147930264472961,0.06321418285369873,-0.01564866490662098
2795,7944387,-0.028031613677740097,0.020468423143029213,2.0608763694763184,-1.6060931566756993,1.1727542593834732,118.07951806923671,0.11935454607009888,0.05808083340525627,-0.016405638307332993
2809,7944427,-0.024747567251324654,0.02210910990834236,2.0600008964538574,-1.417931156717074,1.2667586865388876,118.02935715997215,0.10625879466533661,0.04899538308382034,-0.018059298396110535
2822,7944467,-0.02256632409989834,0.023098208010196686,2.0591275691986084,-1.2929551300485311,1.3234298332995413,117.97931919411263,0.08216634392738342,0.03834051266312599,-0.019670207053422928
2826,7944487,-0.021831048652529716,0.023186158388853073,2.058687448501587,-1.2508269501347156,1.3284690188031298,117.95410213569694,0.06928606331348419,0.0306446123868227,-0.020177088677883148
2841,7944527,-0.02179785445332527,0.02282063104212284,2.0579042434692383,-1.2489250626159845,1.3075258445388724,117.90922779284996,0.03723800927400589,0.010732835158705711,-0.020056748762726784
2854,7944567,-0.023227082565426826,0.02151280641555786,2.0573065280914307,-1.330813801400854,1.2325930130934262,117.87498122435152,-3.980286419391632e-05,-0.010500239208340645,-0.017765190452337265
2867,7944587,-0.02440614067018032,0.020594730973243713,2.0570626258850098,-1.3983688546039228,1.1799911649742192,117.86100665730967,-0.018644344061613083,-0.021755825728178024,-0.016164349392056465
2873,7944627,-0.027506116777658463,0.018149225041270256,2.056691884994507,-1.5759844021538136,1.039873996297933,117.83976476899093,-0.052154526114463806,-0.042863570153713226,-0.01255541481077671
2885,7944647,-0.029455332085490227,0.016666051000356674,2.0565764904022217,-1.6876662126548674,0.954894383470221,117.83315314587436,-0.06715233623981476,-0.0531264953315258,-0.010705909691751003
2890,7944687,-0.03385709226131439,0.01349615678191185,2.056497097015381,-1.9398684931583552,0.773272823250412,117.82860423988713,-0.09304408729076385,-0.0694795548915863,-0.006589681841433048
2904,7944727,-0.038510117679834366,0.009883325546979904,2.0565521717071533,-2.2064672116066433,0.5662728413957744,117.83175978728367,-0.11031793057918549,-0.0824667364358902,-0.0025678565725684166
2916,7944747,-0.0408453568816185,0.008113923482596874,2.0566468238830566,-2.3402665620223733,0.4648935708448916,117.83718295748467,-0.11521728336811066,-0.08661958575248718,-0.000730457715690136
2921,7944787,-0.045410171151161194,0.004495746921747923,2.056818962097168,-2.6018111539282636,0.2575873243750876,117.84704575064616,-0.11810481548309326,-0.09051895141601562,0.0020294617861509323
2935,7944827,-0.04927244782447815,0.0015553247649222612,2.056945323944092,-2.8231033066211526,0.08911354480222247,117.85428575116637,-0.11131313443183899,-0.08621267974376678,0.0029317867010831833
2948,7944847,-0.05087849125266075,0.0002709795371629298,2.0569605827331543,-2.915122816770738,0.015525983813844322,117.85516001538014,-0.10471590608358383,-0.08124106377363205,0.0026752054691314697
2953,7944887,-0.0533064603805542,-0.001561798737384379,2.0568063259124756,-3.0542352005870916,-0.08948447610098574,117.84632175059414,-0.08533929288387299,-0.06627364456653595,0.00035526882857084274
2967,7944927,-0.05453433096408844,-0.002424422884359956,2.0563600063323975,-3.1245870028118694,-0.13890919902875912,117.82074952234161,-0.05970832705497742,-0.04480970278382301,-0.004105918109416962
2979,7944947,-0.05464494228363037,-0.0024543129839003086,2.0560529232025146,-3.130924564587995,-0.14062177558164723,117.80315495503966,-0.04476730525493622,-0.032708533108234406,-0.006844394374638796
2984,7944987,-0.05393349751830101,-0.001687901676632464,2.05519437789917,-3.0901617821779475,-0.09670964230409564,117.75396393263723,-0.012867532670497894,-0.0060701873153448105,-0.012597053311765194
2998,7945027,-0.0520402155816555,-2.7421316190157086e-05,2.0541186332702637,-2.981684717779805,-0.001571125686389755,117.69232830556703,0.01947137527167797,0.020238816738128662,-0.018281694501638412
3010,7945047,-0.05076798424124718,0.0011244015768170357,2.053537607192993,-2.9087912314101363,0.06442346482947098,117.6590379635524,0.034351907670497894,0.03270441293716431,-0.020660750567913055
3015,7945087,-0.047593437135219574,0.003807434579357505,2.052302360534668,-2.726903080369285,0.21814993216935294,117.58826354337272,0.06044626981019974,0.05423647537827492,-0.02401014044880867
3029,7945127,-0.04406450316309929,0.006461598444730043,2.051180839538574,-2.5247100575864554,0.37022231979132825,117.52400512366124,0.07888408750295639,0.06602158397436142,-0.02494235336780548
3041,7945147,-0.04218336567282677,0.007793240249156952,2.050678253173828,-2.416928818710008,0.44651977500817547,117.49520904612046,0.08541634678840637,0.06848752498626709,-0.02436184138059616
3047,7945187,-0.03841336444020271,0.01040625013411045,2.0498218536376953,-2.2009236593215316,0.5962342132419758,117.4461409671231,0.0937085747718811,0.06913335621356964,-0.02167183719575405
3061,7945227,-0.0346970297396183,0.012925056740641594,2.0492377281188965,-1.9879933657200304,0.7405512012058793,117.41267304019003,0.09579303860664368,0.06715486943721771,-0.01669233851134777
3073,7945247,-0.03290385380387306,0.014056175947189331,2.049046754837036,-1.885251952677406,0.805359557867251,117.40173107713967,0.09536800533533096,0.06498666107654572,-0.013777063228189945
3078,7945287,-0.029579859226942062,0.016134468838572502,2.0488674640655518,-1.6948010922948862,0.9244369691355475,117.39145847262797,0.09119244664907455,0.05893367528915405,-0.007430481258779764
3090,7945307,-0.028043199330568314,0.016974464058876038,2.048868417739868,-1.60675696568566,0.9725651500701019,117.39151311414133,0.08773479610681534,0.05496225506067276,-0.004180433228611946
3104,7945347,-0.02526889555156231,0.018352407962083817,2.049058675765991,-1.4478010680614208,1.0515155201296909,117.40241409605667,0.07913266122341156,0.04479594528675079,0.0021337438374757767
3111,7945387,-0.022737829014658928,0.019300345331430435,2.0494163036346436,-1.3027816378300638,1.105828330635986,117.42290466356671,0.06944833695888519,0.033451009541749954,0.00770688708871603
3123,7945407,-0.02155734971165657,0.01959238387644291,2.049609422683716,-1.2351451559654836,1.1225609067203421,117.43396957002213,0.06542424857616425,0.027584752067923546,0.00966490525752306
3137,7945447,-0.019199490547180176,0.019838059321045876,2.0500190258026123,-1.1000497771547437,1.1366370728260922,117.4574381000103,0.06018686294555664,0.016106830909848213,0.012076939456164837
3142,7945487,-0.016731813549995422,0.019634684547781944,2.050333261489868,-0.9586623000145409,1.1249845566586387,117.47544247866244,0.05897518992424011,0.004480859264731407,0.012181205675005913
3156,7945507,-0.015460962429642677,0.019412247464060783,2.0504353046417236,-0.8858478944288564,1.1122398505542181,117.48128912059198,0.05962192639708519,-0.0007643662393093109,0.011371566914021969
3169,7945547,-0.01274790894240141,0.018680138513445854,2.050459861755371,-0.7304013800166816,1.070293097540231,117.482696139561,0.06276518106460571,-0.010469647124409676,0.007959526032209396
3174,7945587,-0.009784502908587456,0.017664937302470207,2.0502922534942627,-0.5606107212955396,1.0121263527947562,117.47309289358796,0.06811253726482391,-0.019236411899328232,0.0030286861583590508
3187,7945607,-0.008217905648052692,0.017081689089536667,2.0501198768615723,-0.47085131007014097,0.9787086917851168,117.46321644004813,0.07111269235610962,-0.022928236052393913,0.0003631114959716797
3201,7945647,-0.004870559088885784,0.015811478719115257,2.0496678352355957,-0.279062479662239,0.905930998466221,117.43731636271544,0.07718173414468765,-0.028713392093777657,-0.00492789875715971
