{"packet_index": 14, "message": {"header": {"component_id": 1, "sequence": 95, "system_id": 1}, "message": {"airspeed": 0.11800000816583633, "alt": 21.69999885559082, "climb": 0.08038356900215149, "groundspeed": 0.14233633875846863, "heading": 106, "throttle": 0, "type": "VFR_HUD"}}}
{"packet_index": 38, "message": {"header": {"component_id": 1, "sequence": 100, "system_id": 1}, "message": {"airspeed": 0.13600000739097595, "alt": 21.709999084472656, "climb": 0.1298804134130478, "groundspeed": 0.11741776019334793, "heading": 106, "throttle": 0, "type": "VFR_HUD"}}}
{"packet_index": 64, "message": {"header": {"component_id": 1, "sequence": 117, "system_id": 1}, "message": {"airspeed": 0.13600000739097595, "alt": 21.709999084472656, "climb": 0.14406871795654297, "groundspeed": 0.09410297870635986, "heading": 105, "throttle": 0, "type": "VFR_HUD"}}}
{"packet_index": 88, "message": {"header": {"component_id": 1, "sequence": 133, "system_id": 1}, "message": {"airspeed": 0.10400000214576721, "alt": 21.709999084472656, "climb": 0.11356329917907715, "groundspeed": 0.07773588597774506, "heading": 105, "throttle": 0, "type": "VFR_HUD"}}}
{"packet_index": 112, "message": {"header": {"component_id": 1, "sequence": 138, "system_id": 1}, "message": {"airspeed": 0.10400000214576721, "alt": 21.709999084472656, "climb": 0.05297016724944115, "groundspeed": 0.06785070151090622, "heading": 105, "throttle": 0, "type": "VFR_HUD"}}}
{"packet_index": 138, "message": {"header": {"component_id": 1, "sequence": 154, "system_id": 1}, "message": {"airspeed": 0.07100000232458115, "alt": 21.69999885559082, "climb": -0.007535391487181187, "groundspeed": 0.06302215158939362, "heading": 105, "throttle": 0, "type": "VFR_HUD"}}}
{"packet_index": 162, "message": {"header": {"component_id": 1, "sequence": 161, "system_id": 1}, "message": {"airspeed": 0.07100000232458115, "alt": 21.689998626708984, "climb": -0.03956657275557518, "groundspeed": 0.06368829309940338, "heading": 104, "throttle": 0, "type": "VFR_HUD"}}}
{"packet_index": 186, "message": {"header": {"component_id": 1, "sequence": 166, "system_id": 1}, "message": {"airspeed": 0.03800000250339508, "alt": 21.68000030517578, "climb": -0.03126214072108269, "groundspeed": 0.06664619594812393, "heading": 104, "throttle": 0, "type": "VFR_HUD"}}}
{"packet_index": 189, "message": {"header": {"component_id": 1, "sequence": 180, "system_id": 1}, "message": {"altitude": 32970, "latitude": 634405552, "longitude": 103484873, "time_usec": 4439367504, "type": "GPS_GLOBAL_ORIGIN"}}}
{"packet_index": 190, "message": {"header": {"component_id": 1, "sequence": 181, "system_id": 1}, "message": {"altitude": 6860, "approach_x": 0.0, "approach_y": 0.0, "approach_z": 0.0, "latitude": 634405553, "longitude": 103484876, "q": [null, null, null, null], "time_usec": 4439367509, "type": "HOME_POSITION", "x": 0.011131884530186653, "y": 0.01493206899613142, "z": 26.10999870300293}}}
{"packet_index": 215, "message": {"header": {"component_id": 1, "sequence": 196, "system_id": 1}, "message": {"airspeed": 0.03800000250339508, "alt": 21.68000030517578, "climb": 0.00406899768859148, "groundspeed": 0.06944584846496582, "heading": 103, "throttle": 0, "type": "VFR_HUD"}}}
{"packet_index": 228, "message": {"header": {"component_id": 1, "sequence": 199, "system_id": 1}, "message": {"autopilot": {"type": "MAV_AUTOPILOT_ARDUPILOTMEGA"}, "base_mode": {"bits": 129}, "custom_mode": 4, "mavlink_version": 3, "mavtype": {"type": "MAV_TYPE_SURFACE_BOAT"}, "system_status": {"type": "MAV_STATE_STANDBY"}, "type": "HEARTBEAT"}}}
{"packet_index": 239, "message": {"header": {"component_id": 1, "sequence": 202, "system_id": 1}, "message": {"airspeed": 0.030000001192092896, "alt": 21.670000076293945, "climb": 0.039668239653110504, "groundspeed": 0.07081843912601471, "heading": 103, "throttle": 0, "type": "VFR_HUD"}}}
{"packet_index": 263, "message": {"header": {"component_id": 1, "sequence": 207, "system_id": 1}, "message": {"airspeed": 0.030000001192092896, "alt": 21.649999618530273, "climb": 0.05339643359184265, "groundspeed": 0.06959132105112076, "heading": 103, "throttle": 0, "type": "VFR_HUD"}}}
{"packet_index": 287, "message": {"header": {"component_id": 1, "sequence": 212, "system_id": 1}, "message": {"airspeed": 0.020000001415610313, "alt": 21.639999389648438, "climb": 0.044483259320259094, "groundspeed": 0.06534043699502945, "heading": 103, "throttle": 0, "type": "VFR_HUD"}}}
{"packet_index": 313, "message": {"header": {"component_id": 1, "sequence": 228, "system_id": 1}, "message": {"airspeed": 0.020000001415610313, "alt": 21.6299991607666, "climb": 0.027399584650993347, "groundspeed": 0.05593181401491165, "heading": 103, "throttle": 0, "type": "VFR_HUD"}}}
{"packet_index": 337, "message": {"header": {"component_id": 1, "sequence": 244, "system_id": 1}, "message": {"airspeed": 0.032999999821186066, "alt": 21.6299991607666, "climb": 0.01490764133632183, "groundspeed": 0.04104171320796013, "heading": 103, "throttle": 0, "type": "VFR_HUD"}}}
{"packet_index": 361, "message": {"header": {"component_id": 1, "sequence": 249, "system_id": 1}, "message": {"airspeed": 0.032999999821186066, "alt": 21.649999618530273, "climb": 0.010879072360694408, "groundspeed": 0.0215927604585886, "heading": 102, "throttle": 0, "type": "VFR_HUD"}}}
{"packet_index": 387, "message": {"header": {"component_id": 1, "sequence": 9, "system_id": 1}, "message": {"airspeed": 0.020000001415610313, "alt": 21.670000076293945, "climb": 0.010298771783709526, "groundspeed": 0.013146182522177696, "heading": 102, "throttle": 0, "type": "VFR_HUD"}}}
{"packet_index": 412, "message": {"header": {"component_id": 1, "sequence": 14, "system_id": 1}, "message": {"airspeed": 0.020000001415610313, "alt": 21.69999885559082, "climb": 0.005841393489390612, "groundspeed": 0.026371117681264877, "heading": 102, "throttle": 0, "type": "VFR_HUD"}}}
{"packet_index": 435, "message": {"header": {"component_id": 1, "sequence": 21, "system_id": 1}, "message": {"airspeed": 0.030000001192092896, "alt": 21.709999084472656, "climb": -0.010548329912126064, "groundspeed": 0.03200704604387283, "heading": 102, "throttle": 0, "type": "VFR_HUD"}}}
{"packet_index": 438, "message": {"header": {"component_id": 1, "sequence": 35, "system_id": 1}, "message": {"altitude": 32970, "latitude": 634405552, "longitude": 103484873, "time_usec": 4440367576, "type": "GPS_GLOBAL_ORIGIN"}}}
{"packet_index": 439, "message": {"header": {"component_id": 1, "sequence": 36, "system_id": 1}, "message": {"altitude": 6860, "approach_x": 0.0, "approach_y": 0.0, "approach_z": 0.0, "latitude": 634405553, "longitude": 103484876, "q": [null, null, null, null], "time_usec": 4440367583, "type": "HOME_POSITION", "x": 0.011131884530186653, "y": 0.01493206899613142, "z": 26.10999870300293}}}
{"packet_index": 464, "message": {"header": {"component_id": 1, "sequence": 51, "system_id": 1}, "message": {"airspeed": 0.030000001192092896, "alt": 21.709999084472656, "climb": -0.0401340052485466, "groundspeed": 0.029473740607500076, "heading": 102, "throttle": 0, "type": "VFR_HUD"}}}
{"packet_index": 487, "message": {"header": {"component_id": 1, "sequence": 59, "system_id": 1}, "message": {"airspeed": 0.058000002056360245, "alt": 21.69999885559082, "climb": -0.0781760960817337, "groundspeed": 0.023919325321912766, "heading": 102, "throttle": 0, "type": "VFR_HUD"}}}
{"packet_index": 519, "message": {"header": {"component_id": 1, "sequence": 76, "system_id": 1}, "message": {"airspeed": 0.058000002056360245, "alt": 21.68000030517578, "climb": -0.11424490064382553, "groundspeed": 0.025606926530599594, "heading": 101, "throttle": 0, "type": "VFR_HUD"}}}
{"packet_index": 550, "message": {"header": {"component_id": 1, "sequence": 89, "system_id": 1}, "message": {"airspeed": 0.01900000125169754, "alt": 21.68000030517578, "climb": -0.13529027998447418, "groundspeed": 0.04199570044875145, "heading": 101, "throttle": 0, "type": "VFR_HUD"}}}
{"packet_index": 582, "message": {"header": {"component_id": 1, "sequence": 111, "system_id": 1}, "message": {"airspeed": 0.01900000125169754, "alt": 21.68000030517578, "climb": -0.13631649315357208, "groundspeed": 0.06938359141349792, "heading": 101, "throttle": 0, "type": "VFR_HUD"}}}
{"packet_index": 614, "message": {"header": {"component_id": 1, "sequence": 135, "system_id": 1}, "message": {"airspeed": 0.005000000353902578, "alt": 21.69999885559082, "climb": -0.12229695916175842, "groundspeed": 0.1007983610033989, "heading": 100, "throttle": 0, "type": "VFR_HUD"}}}
{"packet_index": 646, "message": {"header": {"component_id": 1, "sequence": 148, "system_id": 1}, "message": {"airspeed": 0.005000000353902578, "alt": 21.719999313354492, "climb": -0.10268724709749222, "groundspeed": 0.12868130207061768, "heading": 100, "throttle": 0, "type": "VFR_HUD"}}}
{"packet_index": 678, "message": {"header": {"component_id": 1, "sequence": 170, "system_id": 1}, "message": {"airspeed": 0.06200000271201134, "alt": 21.729999542236328, "climb": -0.08617527782917023, "groundspeed": 0.15042683482170105, "heading": 99, "throttle": 0, "type": "VFR_HUD"}}}
{"packet_index": 710, "message": {"header": {"component_id": 1, "sequence": 183, "system_id": 1}, "message": {"airspeed": 0.06200000271201134, "alt": 21.729999542236328, "climb": -0.07326465100049973, "groundspeed": 0.16582700610160828, "heading": 99, "throttle": 0, "type": "VFR_HUD"}}}
{"packet_index": 742, "message": {"header": {"component_id": 1, "sequence": 198, "system_id": 1}, "message": {"airspeed": 0.10900000482797623, "alt": 21.69999885559082, "climb": -0.06616505235433578, "groundspeed": 0.1768093705177307, "heading": 99, "throttle": 0, "type": "VFR_HUD"}}}
{"packet_index": 748, "message": {"header": {"component_id": 1, "sequence": 215, "system_id": 1}, "message": {"altitude": 32970, "latitude": 634405552, "longitude": 103484873, "time_usec": 4441367467, "type": "GPS_GLOBAL_ORIGIN"}}}
{"packet_index": 749, "message": {"header": {"component_id": 1, "sequence": 216, "system_id": 1}, "message": {"altitude": 6860, "approach_x": 0.0, "approach_y": 0.0, "approach_z": 0.0, "latitude": 634405553, "longitude": 103484876, "q": [null, null, null, null], "time_usec": 4441367472, "type": "HOME_POSITION", "x": 0.011131884530186653, "y": 0.01493206899613142, "z": 26.10999870300293}}}
{"packet_index": 777, "message": {"header": {"component_id": 1, "sequence": 234, "system_id": 1}, "message": {"airspeed": 0.10900000482797623, "alt": 21.65999984741211, "climb": -0.06836984306573868, "groundspeed": 0.18544405698776245, "heading": 99, "throttle": 0, "type": "VFR_HUD"}}}
{"packet_index": 796, "message": {"header": {"component_id": 1, "sequence": 243, "system_id": 1}, "message": {"autopilot": {"type": "MAV_AUTOPILOT_ARDUPILOTMEGA"}, "base_mode": {"bits": 129}, "custom_mode": 4, "mavlink_version": 3, "mavtype": {"type": "MAV_TYPE_SURFACE_BOAT"}, "system_status": {"type": "MAV_STATE_STANDBY"}, "type": "HEARTBEAT"}}}
{"packet_index": 809, "message": {"header": {"component_id": 1, "sequence": 248, "system_id": 1}, "message": {"airspeed": 0.15300001204013824, "alt": 21.619998931884766, "climb": -0.08022613078355789, "groundspeed": 0.19220642745494843, "heading": 98, "throttle": 0, "type": "VFR_HUD"}}}
{"packet_index": 842, "message": {"header": {"component_id": 1, "sequence": 5, "system_id": 1}, "message": {"airspeed": 0.15300001204013824, "alt": 21.579999923706055, "climb": -0.08433417975902557, "groundspeed": 0.19400902092456818, "heading": 98, "throttle": 0, "type": "VFR_HUD"}}}
{"packet_index": 874, "message": {"header": {"component_id": 1, "sequence": 18, "system_id": 1}, "message": {"airspeed": 0.16600000858306885, "alt": 21.579999923706055, "climb": -0.05805821344256401, "groundspeed": 0.18511751294136047, "heading": 98, "throttle": 0, "type": "VFR_HUD"}}}
{"packet_index": 905, "message": {"header": {"component_id": 1, "sequence": 40, "system_id": 1}, "message": {"airspeed": 0.16600000858306885, "alt": 21.600000381469727, "climb": -0.0003018817806150764, "groundspeed": 0.16574835777282715, "heading": 97, "throttle": 0, "type": "VFR_HUD"}}}
{"packet_index": 941, "message": {"header": {"component_id": 1, "sequence": 67, "system_id": 1}, "message": {"airspeed": 0.1850000023841858, "alt": 21.639999389648438, "climb": 0.06591102480888367, "groundspeed": 0.14230619370937347, "heading": 97, "throttle": 0, "type": "VFR_HUD"}}}
{"packet_index": 972, "message": {"header": {"component_id": 1, "sequence": 80, "system_id": 1}, "message": {"airspeed": 0.1850000023841858, "alt": 21.68000030517578, "climb": 0.11682316660881042, "groundspeed": 0.11936403065919876, "heading": 97, "throttle": 0, "type": "VFR_HUD"}}}
{"packet_index": 1005, "message": {"header": {"component_id": 1, "sequence": 102, "system_id": 1}, "message": {"airspeed": 0.13100001215934753, "alt": 21.689998626708984, "climb": 0.14079149067401886, "groundspeed": 0.09978772699832916, "heading": 97, "throttle": 0, "type": "VFR_HUD"}}}
{"packet_index": 1036, "message": {"header": {"component_id": 1, "sequence": 117, "system_id": 1}, "message": {"airspeed": 0.13100001215934753, "alt": 21.670000076293945, "climb": 0.14157608151435852, "groundspeed": 0.08368419110774994, "heading": 97, "throttle": 0, "type": "VFR_HUD"}}}
{"packet_index": 1069, "message": {"header": {"component_id": 1, "sequence": 130, "system_id": 1}, "message": {"airspeed": 0.11100000888109207, "alt": 21.60999870300293, "climb": 0.1289096623659134, "groundspeed": 0.06569449603557587, "heading": 96, "throttle": 0, "type": "VFR_HUD"}}}
{"packet_index": 1071, "message": {"header": {"component_id": 1, "sequence": 144, "system_id": 1}, "message": {"altitude": 32970, "latitude": 634405552, "longitude": 103484873, "time_usec": 4442367457, "type": "GPS_GLOBAL_ORIGIN"}}}
{"packet_index": 1072, "message": {"header": {"component_id": 1, "sequence": 145, "system_id": 1}, "message": {"altitude": 6860, "approach_x": 0.0, "approach_y": 0.0, "approach_z": 0.0, "latitude": 634405553, "longitude": 103484876, "q": [null, null, null, null], "time_usec": 4442367462, "type": "HOME_POSITION", "x": 0.011131884530186653, "y": 0.01493206899613142, "z": 26.10999870300293}}}
{"packet_index": 1103, "message": {"header": {"component_id": 1, "sequence": 166, "system_id": 1}, "message": {"airspeed": 0.11100000888109207, "alt": 21.53999900817871, "climb": 0.10939960926771164, "groundspeed": 0.04447470232844353, "heading": 96, "throttle": 0, "type": "VFR_HUD"}}}
{"packet_index": 1122, "message": {"header": {"component_id": 1, "sequence": 175, "system_id": 1}, "message": {"autopilot": {"type": "MAV_AUTOPILOT_ARDUPILOTMEGA"}, "base_mode": {"bits": 129}, "custom_mode": 4, "mavlink_version": 3, "mavtype": {"type": "MAV_TYPE_SURFACE_BOAT"}, "system_status": {"type": "MAV_STATE_STANDBY"}, "type": "HEARTBEAT"}}}
{"packet_index": 1135, "message": {"header": {"component_id": 1, "sequence": 180, "system_id": 1}, "message": {"airspeed": 0.09200000762939453, "alt": 21.489999771118164, "climb": 0.08779951930046082, "groundspeed": 0.0251142717897892, "heading": 96, "throttle": 0, "type": "VFR_HUD"}}}
{"packet_index": 1168, "message": {"header": {"component_id": 1, "sequence": 193, "system_id": 1}, "message": {"airspeed": 0.09200000762939453, "alt": 21.44999885559082, "climb": 0.06988070905208588, "groundspeed": 0.03445639833807945, "heading": 96, "throttle": 0, "type": "VFR_HUD"}}}
{"packet_index": 1200, "message": {"header": {"component_id": 1, "sequence": 206, "system_id": 1}, "message": {"airspeed": 0.058000002056360245, "alt": 21.44999885559082, "climb": 0.058936718851327896, "groundspeed": 0.056787166744470596, "heading": 96, "throttle": 0, "type": "VFR_HUD"}}}
{"packet_index": 1232, "message": {"header": {"component_id": 1, "sequence": 228, "system_id": 1}, "message": {"airspeed": 0.058000002056360245, "alt": 21.479999542236328, "climb": 0.05071384087204933, "groundspeed": 0.07564009726047516, "heading": 95, "throttle": 0, "type": "VFR_HUD"}}}
{"packet_index": 1264, "message": {"header": {"component_id": 1, "sequence": 252, "system_id": 1}, "message": {"airspeed": 0.05300000309944153, "alt": 21.529998779296875, "climb": 0.03689122945070267, "groundspeed": 0.08841138333082199, "heading": 95, "throttle": 0, "type": "VFR_HUD"}}}
{"packet_index": 1293, "message": {"header": {"component_id": 1, "sequence": 7, "system_id": 1}, "message": {"airspeed": 0.05300000309944153, "alt": 21.56999969482422, "climb": 0.014805668033659458, "groundspeed": 0.09438853710889816, "heading": 95, "throttle": 0, "type": "VFR_HUD"}}}
{"packet_index": 1321, "message": {"header": {"component_id": 1, "sequence": 25, "system_id": 1}, "message": {"airspeed": 0.08400000631809235, "alt": 21.600000381469727, "climb": -0.011563610285520554, "groundspeed": 0.0942014828324318, "heading": 95, "throttle": 0, "type": "VFR_HUD"}}}
{"packet_index": 1347, "message": {"header": {"component_id": 1, "sequence": 32, "system_id": 1}, "message": {"airspeed": 0.08400000631809235, "alt": 21.600000381469727, "climb": -0.03815019130706787, "groundspeed": 0.08700202405452728, "heading": 94, "throttle": 0, "type": "VFR_HUD"}}}
{"packet_index": 1373, "message": {"header": {"component_id": 1, "sequence": 41, "system_id": 1}, "message": {"airspeed": 0.10900000482797623, "alt": 21.59000015258789, "climb": -0.06498299539089203, "groundspeed": 0.07393709570169449, "heading": 94, "throttle": 0, "type": "VFR_HUD"}}}
{"packet_index": 1377, "message": {"header": {"component_id": 1, "sequence": 56, "system_id": 1}, "message": {"altitude": 32970, "latitude": 634405552, "longitude": 103484873, "time_usec": 4443367462, "type": "GPS_GLOBAL_ORIGIN"}}}
{"packet_index": 1378, "message": {"header": {"component_id": 1, "sequence": 57, "system_id": 1}, "message": {"altitude": 6860, "approach_x": 0.0, "approach_y": 0.0, "approach_z": 0.0, "latitude": 634405553, "longitude": 103484876, "q": [null, null, null, null], "time_usec": 4443367467, "type": "HOME_POSITION", "x": 0.011131884530186653, "y": 0.01493206899613142, "z": 26.10999870300293}}}
{"packet_index": 1404, "message": {"header": {"component_id": 1, "sequence": 73, "system_id": 1}, "message": {"airspeed": 0.10900000482797623, "alt": 21.56999969482422, "climb": -0.09445638209581375, "groundspeed": 0.05656073987483978, "heading": 94, "throttle": 0, "type": "VFR_HUD"}}}
{"packet_index": 1419, "message": {"header": {"component_id": 1, "sequence": 78, "system_id": 1}, "message": {"autopilot": {"type": "MAV_AUTOPILOT_ARDUPILOTMEGA"}, "base_mode": {"bits": 129}, "custom_mode": 4, "mavlink_version": 3, "mavtype": {"type": "MAV_TYPE_SURFACE_BOAT"}, "system_status": {"type": "MAV_STATE_STANDBY"}, "type": "HEARTBEAT"}}}
{"packet_index": 1430, "message": {"header": {"component_id": 1, "sequence": 81, "system_id": 1}, "message": {"airspeed": 0.07900000363588333, "alt": 21.53999900817871, "climb": -0.12658849358558655, "groundspeed": 0.03792605549097061, "heading": 94, "throttle": 0, "type": "VFR_HUD"}}}
{"packet_index": 1456, "message": {"header": {"component_id": 1, "sequence": 87, "system_id": 1}, "message": {"airspeed": 0.07900000363588333, "alt": 21.510000228881836, "climb": -0.1540532261133194, "groundspeed": 0.025783780962228775, "heading": 93, "throttle": 0, "type": "VFR_HUD"}}}
{"packet_index": 1479, "message": {"header": {"component_id": 1, "sequence": 92, "system_id": 1}, "message": {"airspeed": 0.039000000804662704, "alt": 21.5, "climb": -0.16593749821186066, "groundspeed": 0.019385244697332382, "heading": 93, "throttle": 0, "type": "VFR_HUD"}}}
{"packet_index": 1505, "message": {"header": {"component_id": 1, "sequence": 108, "system_id": 1}, "message": {"airspeed": 0.039000000804662704, "alt": 21.510000228881836, "climb": -0.15919126570224762, "groundspeed": 0.010963824577629566, "heading": 93, "throttle": 0, "type": "VFR_HUD"}}}
{"packet_index": 1529, "message": {"header": {"component_id": 1, "sequence": 124, "system_id": 1}, "message": {"airspeed": 0.04700000211596489, "alt": 21.53999900817871, "climb": -0.13865673542022705, "groundspeed": 0.01663089357316494, "heading": 93, "throttle": 0, "type": "VFR_HUD"}}}
{"packet_index": 1553, "message": {"header": {"component_id": 1, "sequence": 129, "system_id": 1}, "message": {"airspeed": 0.04700000211596489, "alt": 21.59000015258789, "climb": -0.1147637739777565, "groundspeed": 0.04609880596399307, "heading": 92, "throttle": 0, "type": "VFR_HUD"}}}
{"packet_index": 1579, "message": {"header": {"component_id": 1, "sequence": 145, "system_id": 1}, "message": {"airspeed": 0.06700000166893005, "alt": 21.639999389648438, "climb": -0.09221581369638443, "groundspeed": 0.08378268778324127, "heading": 92, "throttle": 0, "type": "VFR_HUD"}}}
{"packet_index": 1603, "message": {"header": {"component_id": 1, "sequence": 150, "system_id": 1}, "message": {"airspeed": 0.06700000166893005, "alt": 21.670000076293945, "climb": -0.06968159973621368, "groundspeed": 0.11664979159832001, "heading": 92, "throttle": 0, "type": "VFR_HUD"}}}
{"packet_index": 1628, "message": {"header": {"component_id": 1, "sequence": 157, "system_id": 1}, "message": {"airspeed": 0.09000000357627869, "alt": 21.689998626708984, "climb": -0.04212755337357521, "groundspeed": 0.13720160722732544, "heading": 92, "throttle": 0, "type": "VFR_HUD"}}}
{"packet_index": 1630, "message": {"header": {"component_id": 1, "sequence": 171, "system_id": 1}, "message": {"altitude": 32970, "latitude": 634405552, "longitude": 103484873, "time_usec": 4444367600, "type": "GPS_GLOBAL_ORIGIN"}}}
{"packet_index": 1631, "message": {"header": {"component_id": 1, "sequence": 172, "system_id": 1}, "message": {"altitude": 6860, "approach_x": 0.0, "approach_y": 0.0, "approach_z": 0.0, "latitude": 634405553, "longitude": 103484876, "q": [null, null, null, null], "time_usec": 4444367607, "type": "HOME_POSITION", "x": 0.011131884530186653, "y": 0.01493206899613142, "z": 26.10999870300293}}}
{"packet_index": 1656, "message": {"header": {"component_id": 1, "sequence": 187, "system_id": 1}, "message": {"airspeed": 0.09000000357627869, "alt": 21.670000076293945, "climb": -0.009293856099247932, "groundspeed": 0.1421504020690918, "heading": 91, "throttle": 0, "type": "VFR_HUD"}}}
{"packet_index": 1669, "message": {"header": {"component_id": 1, "sequence": 190, "system_id": 1}, "message": {"autopilot": {"type": "MAV_AUTOPILOT_ARDUPILOTMEGA"}, "base_mode": {"bits": 129}, "custom_mode": 4, "mavlink_version": 3, "mavtype": {"type": "MAV_TYPE_SURFACE_BOAT"}, "system_status": {"type": "MAV_STATE_STANDBY"}, "type": "HEARTBEAT"}}}
{"packet_index": 1680, "message": {"header": {"component_id": 1, "sequence": 193, "system_id": 1}, "message": {"airspeed": 0.10300000756978989, "alt": 21.6299991607666, "climb": 0.016345594078302383, "groundspeed": 0.13400448858737946, "heading": 91, "throttle": 0, "type": "VFR_HUD"}}}
{"packet_index": 1704, "message": {"header": {"component_id": 1, "sequence": 199, "system_id": 1}, "message": {"airspeed": 0.10300000756978989, "alt": 21.579999923706055, "climb": 0.02122494950890541, "groundspeed": 0.11745700985193253, "heading": 91, "throttle": 0, "type": "VFR_HUD"}}}
{"packet_index": 1728, "message": {"header": {"component_id": 1, "sequence": 204, "system_id": 1}, "message": {"airspeed": 0.11000000685453415, "alt": 21.529998779296875, "climb": 0.00045799516374245286, "groundspeed": 0.1004573181271553, "heading": 91, "throttle": 0, "type": "VFR_HUD"}}}
{"packet_index": 1755, "message": {"header": {"component_id": 1, "sequence": 220, "system_id": 1}, "message": {"airspeed": 0.11000000685453415, "alt": 21.489999771118164, "climb": -0.03132089599967003, "groundspeed": 0.08487121015787125, "heading": 90, "throttle": 0, "type": "VFR_HUD"}}}
{"packet_index": 1778, "message": {"header": {"component_id": 1, "sequence": 236, "system_id": 1}, "message": {"airspeed": 0.11300000548362732, "alt": 21.469999313354492, "climb": -0.0481230691075325, "groundspeed": 0.07096435129642487, "heading": 90, "throttle": 0, "type": "VFR_HUD"}}}
{"packet_index": 1802, "message": {"header": {"component_id": 1, "sequence": 241, "system_id": 1}, "message": {"airspeed": 0.11300000548362732, "alt": 21.479999542236328, "climb": -0.02749008871614933, "groundspeed": 0.060610003769397736, "heading": 90, "throttle": 0, "type": "VFR_HUD"}}}
{"packet_index": 1829, "message": {"header": {"component_id": 1, "sequence": 1, "system_id": 1}, "message": {"airspeed": 0.11300000548362732, "alt": 21.520000457763672, "climb": 0.028309285640716553, "groundspeed": 0.05224515497684479, "heading": 89, "throttle": 0, "type": "VFR_HUD"}}}
{"packet_index": 1852, "message": {"header": {"component_id": 1, "sequence": 8, "system_id": 1}, "message": {"airspeed": 0.11300000548362732, "alt": 21.559999465942383, "climb": 0.09596753120422363, "groundspeed": 0.04213110730051994, "heading": 89, "throttle": 0, "type": "VFR_HUD"}}}
{"packet_index": 1876, "message": {"header": {"component_id": 1, "sequence": 13, "system_id": 1}, "message": {"airspeed": 0.07500000298023224, "alt": 21.59000015258789, "climb": 0.13797900080680847, "groundspeed": 0.02984423004090786, "heading": 89, "throttle": 0, "type": "VFR_HUD"}}}
{"packet_index": 1888, "message": {"header": {"component_id": 1, "sequence": 27, "system_id": 1}, "message": {"altitude": 32970, "latitude": 634405552, "longitude": 103484873, "time_usec": 4445367456, "type": "GPS_GLOBAL_ORIGIN"}}}
{"packet_index": 1889, "message": {"header": {"component_id": 1, "sequence": 28, "system_id": 1}, "message": {"altitude": 6860, "approach_x": 0.0, "approach_y": 0.0, "approach_z": 0.0, "latitude": 634405553, "longitude": 103484876, "q": [null, null, null, null], "time_usec": 4445367461, "type": "HOME_POSITION", "x": 0.011131884530186653, "y": 0.01493206899613142, "z": 26.10999870300293}}}
{"packet_index": 1905, "message": {"header": {"component_id": 1, "sequence": 43, "system_id": 1}, "message": {"airspeed": 0.07500000298023224, "alt": 21.600000381469727, "climb": 0.13332751393318176, "groundspeed": 0.02059640921652317, "heading": 89, "throttle": 0, "type": "VFR_HUD"}}}
{"packet_index": 1918, "message": {"header": {"component_id": 1, "sequence": 46, "system_id": 1}, "message": {"autopilot": {"type": "MAV_AUTOPILOT_ARDUPILOTMEGA"}, "base_mode": {"bits": 129}, "custom_mode": 4, "mavlink_version": 3, "mavtype": {"type": "MAV_TYPE_SURFACE_BOAT"}, "system_status": {"type": "MAV_STATE_STANDBY"}, "type": "HEARTBEAT"}}}
{"packet_index": 1929, "message": {"header": {"component_id": 1, "sequence": 49, "system_id": 1}, "message": {"airspeed": 0.020000001415610313, "alt": 21.579999923706055, "climb": 0.0855250284075737, "groundspeed": 0.01548889372497797, "heading": 88, "throttle": 0, "type": "VFR_HUD"}}}
{"packet_index": 1953, "message": {"header": {"component_id": 1, "sequence": 54, "system_id": 1}, "message": {"airspeed": 0.020000001415610313, "alt": 21.549999237060547, "climb": 0.02056683786213398, "groundspeed": 0.02232269011437893, "heading": 88, "throttle": 0, "type": "VFR_HUD"}}}
{"packet_index": 1977, "message": {"header": {"component_id": 1, "sequence": 60, "system_id": 1}, "message": {"airspeed": 0.032999999821186066, "alt": 21.520000457763672, "climb": -0.031388506293296814, "groundspeed": 0.03650084137916565, "heading": 88, "throttle": 0, "type": "VFR_HUD"}}}
{"packet_index": 2003, "message": {"header": {"component_id": 1, "sequence": 76, "system_id": 1}, "message": {"airspeed": 0.032999999821186066, "alt": 21.489999771118164, "climb": -0.05729988217353821, "groundspeed": 0.04944979399442673, "heading": 87, "throttle": 0, "type": "VFR_HUD"}}}
{"packet_index": 2027, "message": {"header": {"component_id": 1, "sequence": 92, "system_id": 1}, "message": {"airspeed": 0.03200000151991844, "alt": 21.489999771118164, "climb": -0.05966741219162941, "groundspeed": 0.059727754443883896, "heading": 87, "throttle": 0, "type": "VFR_HUD"}}}
{"packet_index": 2051, "message": {"header": {"component_id": 1, "sequence": 97, "system_id": 1}, "message": {"airspeed": 0.03200000151991844, "alt": 21.5, "climb": -0.05531947687268257, "groundspeed": 0.0697069987654686, "heading": 87, "throttle": 0, "type": "VFR_HUD"}}}
{"packet_index": 2077, "message": {"header": {"component_id": 1, "sequence": 113, "system_id": 1}, "message": {"airspeed": 0.017000000923871994, "alt": 21.520000457763672, "climb": -0.05685770511627197, "groundspeed": 0.07719181478023529, "heading": 87, "throttle": 0, "type": "VFR_HUD"}}}
{"packet_index": 2101, "message": {"header": {"component_id": 1, "sequence": 118, "system_id": 1}, "message": {"airspeed": 0.017000000923871994, "alt": 21.549999237060547, "climb": -0.06444776803255081, "groundspeed": 0.07686200737953186, "heading": 86, "throttle": 0, "type": "VFR_HUD"}}}
{"packet_index": 2125, "message": {"header": {"component_id": 1, "sequence": 125, "system_id": 1}, "message": {"airspeed": 0.020000001415610313, "alt": 21.56999969482422, "climb": -0.06685695797204971, "groundspeed": 0.06592463701963425, "heading": 86, "throttle": 0, "type": "VFR_HUD"}}}
{"packet_index": 2128, "message": {"header": {"component_id": 1, "sequence": 139, "system_id": 1}, "message": {"altitude": 32970, "latitude": 634405552, "longitude": 103484873, "time_usec": 4446367452, "type": "GPS_GLOBAL_ORIGIN"}}}
{"packet_index": 2129, "message": {"header": {"component_id": 1, "sequence": 140, "system_id": 1}, "message": {"altitude": 6860, "approach_x": 0.0, "approach_y": 0.0, "approach_z": 0.0, "latitude": 634405553, "longitude": 103484876, "q": [null, null, null, null], "time_usec": 4446367457, "type": "HOME_POSITION", "x": 0.011131884530186653, "y": 0.01493206899613142, "z": 26.10999870300293}}}
{"packet_index": 2154, "message": {"header": {"component_id": 1, "sequence": 155, "system_id": 1}, "message": {"airspeed": 0.020000001415610313, "alt": 21.600000381469727, "climb": -0.05532330274581909, "groundspeed": 0.04704238101840019, "heading": 86, "throttle": 0, "type": "VFR_HUD"}}}
{"packet_index": 2167, "message": {"header": {"component_id": 1, "sequence": 158, "system_id": 1}, "message": {"autopilot": {"type": "MAV_AUTOPILOT_ARDUPILOTMEGA"}, "base_mode": {"bits": 129}, "custom_mode": 4, "mavlink_version": 3, "mavtype": {"type": "MAV_TYPE_SURFACE_BOAT"}, "system_status": {"type": "MAV_STATE_STANDBY"}, "type": "HEARTBEAT"}}}
{"packet_index": 2178, "message": {"header": {"component_id": 1, "sequence": 161, "system_id": 1}, "message": {"airspeed": 0.036000002175569534, "alt": 21.619998931884766, "climb": -0.035917747765779495, "groundspeed": 0.029291341081261635, "heading": 86, "throttle": 0, "type": "VFR_HUD"}}}
{"packet_index": 2202, "message": {"header": {"component_id": 1, "sequence": 166, "system_id": 1}, "message": {"airspeed": 0.036000002175569534, "alt": 21.639999389648438, "climb": -0.022674821317195892, "groundspeed": 0.025820164009928703, "heading": 86, "throttle": 0, "type": "VFR_HUD"}}}
{"packet_index": 2226, "message": {"header": {"component_id": 1, "sequence": 171, "system_id": 1}, "message": {"airspeed": 0.010000000707805157, "alt": 21.649999618530273, "climb": -0.02590465173125267, "groundspeed": 0.040661513805389404, "heading": 86, "throttle": 0, "type": "VFR_HUD"}}}
{"packet_index": 2252, "message": {"header": {"component_id": 1, "sequence": 187, "system_id": 1}, "message": {"airspeed": 0.010000000707805157, "alt": 21.65999984741211, "climb": -0.041121795773506165, "groundspeed": 0.06196586415171623, "heading": 85, "throttle": 0, "type": "VFR_HUD"}}}
{"packet_index": 2277, "message": {"header": {"component_id": 1, "sequence": 203, "system_id": 1}, "message": {"airspeed": 0.01600000075995922, "alt": 21.65999984741211, "climb": -0.048194460570812225, "groundspeed": 0.08292518556118011, "heading": 85, "throttle": 0, "type": "VFR_HUD"}}}
{"packet_index": 2301, "message": {"header": {"component_id": 1, "sequence": 208, "system_id": 1}, "message": {"airspeed": 0.01600000075995922, "alt": 21.649999618530273, "climb": -0.028871828690171242, "groundspeed": 0.0988052561879158, "heading": 85, "throttle": 0, "type": "VFR_HUD"}}}
{"packet_index": 2326, "message": {"header": {"component_id": 1, "sequence": 224, "system_id": 1}, "message": {"airspeed": 0.04200000315904617, "alt": 21.649999618530273, "climb": 0.015128281898796558, "groundspeed": 0.10473036020994186, "heading": 84, "throttle": 0, "type": "VFR_HUD"}}}
{"packet_index": 2350, "message": {"header": {"component_id": 1, "sequence": 229, "system_id": 1}, "message": {"airspeed": 0.04200000315904617, "alt": 21.639999389648438, "climb": 0.062277406454086304, "groundspeed": 0.09502898156642914, "heading": 84, "throttle": 0, "type": "VFR_HUD"}}}
{"packet_index": 2374, "message": {"header": {"component_id": 1, "sequence": 236, "system_id": 1}, "message": {"airspeed": 0.08100000023841858, "alt": 21.649999618530273, "climb": 0.08986023813486099, "groundspeed": 0.07110562175512314, "heading": 84, "throttle": 0, "type": "VFR_HUD"}}}
{"packet_index": 2377, "message": {"header": {"component_id": 1, "sequence": 250, "system_id": 1}, "message": {"altitude": 32970, "latitude": 634405552, "longitude": 103484873, "time_usec": 4447367457, "type": "GPS_GLOBAL_ORIGIN"}}}
{"packet_index": 2378, "message": {"header": {"component_id": 1, "sequence": 251, "system_id": 1}, "message": {"altitude": 6860, "approach_x": 0.0, "approach_y": 0.0, "approach_z": 0.0, "latitude": 634405553, "longitude": 103484876, "q": [null, null, null, null], "time_usec": 4447367462, "type": "HOME_POSITION", "x": 0.011131884530186653, "y": 0.01493206899613142, "z": 26.10999870300293}}}
{"packet_index": 2403, "message": {"header": {"component_id": 1, "sequence": 10, "system_id": 1}, "message": {"airspeed": 0.08100000023841858, "alt": 21.649999618530273, "climb": 0.09490639716386795, "groundspeed": 0.042380157858133316, "heading": 84, "throttle": 0, "type": "VFR_HUD"}}}
{"packet_index": 2416, "message": {"header": {"component_id": 1, "sequence": 13, "system_id": 1}, "message": {"autopilot": {"type": "MAV_AUTOPILOT_ARDUPILOTMEGA"}, "base_mode": {"bits": 129}, "custom_mode": 4, "mavlink_version": 3, "mavtype": {"type": "MAV_TYPE_SURFACE_BOAT"}, "system_status": {"type": "MAV_STATE_STANDBY"}, "type": "HEARTBEAT"}}}
{"packet_index": 2427, "message": {"header": {"component_id": 1, "sequence": 16, "system_id": 1}, "message": {"airspeed": 0.052000001072883606, "alt": 21.649999618530273, "climb": 0.08807603269815445, "groundspeed": 0.02246342971920967, "heading": 83, "throttle": 0, "type": "VFR_HUD"}}}
{"packet_index": 2451, "message": {"header": {"component_id": 1, "sequence": 21, "system_id": 1}, "message": {"airspeed": 0.052000001072883606, "alt": 21.639999389648438, "climb": 0.07712140679359436, "groundspeed": 0.021774716675281525, "heading": 83, "throttle": 0, "type": "VFR_HUD"}}}
{"packet_index": 2475, "message": {"header": {"component_id": 1, "sequence": 26, "system_id": 1}, "message": {"airspeed": 0.04200000315904617, "alt": 21.6299991607666, "climb": 0.06379468739032745, "groundspeed": 0.030108897015452385, "heading": 83, "throttle": 0, "type": "VFR_HUD"}}}
{"packet_index": 2501, "message": {"header": {"component_id": 1, "sequence": 42, "system_id": 1}, "message": {"airspeed": 0.04200000315904617, "alt": 21.619998931884766, "climb": 0.043703194707632065, "groundspeed": 0.04171033948659897, "heading": 83, "throttle": 0, "type": "VFR_HUD"}}}
{"packet_index": 2525, "message": {"header": {"component_id": 1, "sequence": 58, "system_id": 1}, "message": {"airspeed": 0.0020000000949949026, "alt": 21.619998931884766, "climb": 0.018420811742544174, "groundspeed": 0.05579448863863945, "heading": 83, "throttle": 0, "type": "VFR_HUD"}}}
{"packet_index": 2549, "message": {"header": {"component_id": 1, "sequence": 63, "system_id": 1}, "message": {"airspeed": 0.0020000000949949026, "alt": 21.619998931884766, "climb": -0.005564611405134201, "groundspeed": 0.06697357445955276, "heading": 82, "throttle": 0, "type": "VFR_HUD"}}}
{"packet_index": 2565, "message": {"header": {"component_id": 1, "sequence": 78, "system_id": 1}, "message": {"autopilot": {"type": "MAV_AUTOPILOT_ARDUPILOTMEGA"}, "base_mode": {"bits": 137}, "custom_mode": 10, "mavlink_version": 3, "mavtype": {"type": "MAV_TYPE_SURFACE_BOAT"}, "system_status": {"type": "MAV_STATE_ACTIVE"}, "type": "HEARTBEAT"}}}
{"packet_index": 2576, "message": {"header": {"component_id": 1, "sequence": 81, "system_id": 1}, "message": {"airspeed": 0.021000001579523087, "alt": 21.6299991607666, "climb": -0.022106396034359932, "groundspeed": 0.06845687329769135, "heading": 82, "throttle": 0, "type": "VFR_HUD"}}}
{"packet_index": 2577, "message": {"header": {"component_id": 1, "sequence": 84, "system_id": 1}, "message": {"chunk_seq": 0, "id": 0, "severity": {"type": "MAV_SEVERITY_INFO"}, "text": ["M", "i", "s", "s", "i", "o", "n", ":", " ", "1", " ", "W", "P", "\u0000", "\u0000", "\u0000", "\u0000", "\u0000", "\u0000", "\u0000", "\u0000", "\u0000", "\u0000", "\u0000", "\u0000", "\u0000", "\u0000", "\u0000", "\u0000", "\u0000", "\u0000", "\u0000", "\u0000", "\u0000", "\u0000", "\u0000", "\u0000", "\u0000", "\u0000", "\u0000", "\u0000", "\u0000", "\u0000", "\u0000", "\u0000", "\u0000", "\u0000", "\u0000", "\u0000", "\u0000"], "type": "STATUSTEXT"}}}
{"packet_index": 2601, "message": {"header": {"component_id": 1, "sequence": 89, "system_id": 1}, "message": {"airspeed": 0.021000001579523087, "alt": 21.639999389648438, "climb": -0.03086204268038273, "groundspeed": 0.05555051937699318, "heading": 82, "throttle": 0, "type": "VFR_HUD"}}}
{"packet_index": 2625, "message": {"header": {"component_id": 1, "sequence": 94, "system_id": 1}, "message": {"airspeed": 0.03100000135600567, "alt": 21.649999618530273, "climb": -0.0403224341571331, "groundspeed": 0.03415127843618393, "heading": 82, "throttle": 0, "type": "VFR_HUD"}}}
{"packet_index": 2628, "message": {"header": {"component_id": 1, "sequence": 110, "system_id": 1}, "message": {"altitude": 32970, "latitude": 634405552, "longitude": 103484873, "time_usec": 4448367505, "type": "GPS_GLOBAL_ORIGIN"}}}
{"packet_index": 2629, "message": {"header": {"component_id": 1, "sequence": 111, "system_id": 1}, "message": {"altitude": 6860, "approach_x": 0.0, "approach_y": 0.0, "approach_z": 0.0, "latitude": 634405553, "longitude": 103484876, "q": [null, null, null, null], "time_usec": 4448367510, "type": "HOME_POSITION", "x": 0.011131884530186653, "y": 0.01493206899613142, "z": 26.10999870300293}}}
{"packet_index": 2654, "message": {"header": {"component_id": 1, "sequence": 126, "system_id": 1}, "message": {"airspeed": 0.03100000135600567, "alt": 21.649999618530273, "climb": -0.05170656740665436, "groundspeed": 0.006116409786045551, "heading": 81, "throttle": 0, "type": "VFR_HUD"}}}
{"packet_index": 2667, "message": {"header": {"component_id": 1, "sequence": 129, "system_id": 1}, "message": {"autopilot": {"type": "MAV_AUTOPILOT_ARDUPILOTMEGA"}, "base_mode": {"bits": 137}, "custom_mode": 10, "mavlink_version": 3, "mavtype": {"type": "MAV_TYPE_SURFACE_BOAT"}, "system_status": {"type": "MAV_STATE_ACTIVE"}, "type": "HEARTBEAT"}}}
{"packet_index": 2678, "message": {"header": {"component_id": 1, "sequence": 132, "system_id": 1}, "message": {"airspeed": 0.03800000250339508, "alt": 21.649999618530273, "climb": -0.06697312742471695, "groundspeed": 0.01945536397397518, "heading": 80, "throttle": 0, "type": "VFR_HUD"}}}
{"packet_index": 2703, "message": {"header": {"component_id": 1, "sequence": 137, "system_id": 1}, "message": {"airspeed": 0.03800000250339508, "alt": 21.6299991607666, "climb": -0.07277258485555649, "groundspeed": 0.04676219820976257, "heading": 79, "throttle": 0, "type": "VFR_HUD"}}}
{"packet_index": 2726, "message": {"header": {"component_id": 1, "sequence": 142, "system_id": 1}, "message": {"airspeed": 0.009000000543892384, "alt": 21.619998931884766, "climb": -0.06092808395624161, "groundspeed": 0.06681942194700241, "heading": 78, "throttle": 0, "type": "VFR_HUD"}}}
{"packet_index": 2752, "message": {"header": {"component_id": 1, "sequence": 158, "system_id": 1}, "message": {"airspeed": 0.009000000543892384, "alt": 21.60999870300293, "climb": -0.036656830459833145, "groundspeed": 0.07890607416629791, "heading": 76, "throttle": 0, "type": "VFR_HUD"}}}
{"packet_index": 2776, "message": {"header": {"component_id": 1, "sequence": 177, "system_id": 1}, "message": {"airspeed": 0.055000003427267075, "alt": 21.60999870300293, "climb": -0.008493561297655106, "groundspeed": 0.09312118589878082, "heading": 74, "throttle": 0, "type": "VFR_HUD"}}}
{"packet_index": 2800, "message": {"header": {"component_id": 1, "sequence": 182, "system_id": 1}, "message": {"airspeed": 0.055000003427267075, "alt": 21.60999870300293, "climb": 0.011770126409828663, "groundspeed": 0.10431062430143356, "heading": 72, "throttle": 0, "type": "VFR_HUD"}}}
{"packet_index": 2826, "message": {"header": {"component_id": 1, "sequence": 198, "system_id": 1}, "message": {"airspeed": 0.08100000023841858, "alt": 21.6299991607666, "climb": 0.02539837546646595, "groundspeed": 0.10734104365110397, "heading": 70, "throttle": 0, "type": "VFR_HUD"}}}
{"packet_index": 2850, "message": {"header": {"component_id": 1, "sequence": 203, "system_id": 1}, "message": {"airspeed": 0.08100000023841858, "alt": 21.649999618530273, "climb": 0.027704203501343727, "groundspeed": 0.09991905093193054, "heading": 68, "throttle": 0, "type": "VFR_HUD"}}}
{"packet_index": 2874, "message": {"header": {"component_id": 1, "sequence": 210, "system_id": 1}, "message": {"airspeed": 0.09000000357627869, "alt": 21.65999984741211, "climb": 0.017555205151438713, "groundspeed": 0.09040248394012451, "heading": 67, "throttle": 0, "type": "VFR_HUD"}}}
{"packet_index": 2886, "message": {"header": {"component_id": 1, "sequence": 226, "system_id": 1}, "message": {"altitude": 32970, "latitude": 634405552, "longitude": 103484873, "time_usec": 4449367494, "type": "GPS_GLOBAL_ORIGIN"}}}
{"packet_index": 2887, "message": {"header": {"component_id": 1, "sequence": 227, "system_id": 1}, "message": {"altitude": 6860, "approach_x": 0.0, "approach_y": 0.0, "approach_z": 0.0, "latitude": 634405553, "longitude": 103484876, "q": [null, null, null, null], "time_usec": 4449367499, "type": "HOME_POSITION", "x": 0.011131884530186653, "y": 0.01493206899613142, "z": 26.10999870300293}}}
{"packet_index": 2903, "message": {"header": {"component_id": 1, "sequence": 242, "system_id": 1}, "message": {"airspeed": 0.09000000357627869, "alt": 21.670000076293945, "climb": -0.006818464491516352, "groundspeed": 0.08375713974237442, "heading": 65, "throttle": 0, "type": "VFR_HUD"}}}
{"packet_index": 2916, "message": {"header": {"component_id": 1, "sequence": 245, "system_id": 1}, "message": {"autopilot": {"type": "MAV_AUTOPILOT_ARDUPILOTMEGA"}, "base_mode": {"bits": 137}, "custom_mode": 10, "mavlink_version": 3, "mavtype": {"type": "MAV_TYPE_SURFACE_BOAT"}, "system_status": {"type": "MAV_STATE_ACTIVE"}, "type": "HEARTBEAT"}}}
{"packet_index": 2927, "message": {"header": {"component_id": 1, "sequence": 248, "system_id": 1}, "message": {"airspeed": 0.11100000888109207, "alt": 21.65999984741211, "climb": -0.03703775256872177, "groundspeed": 0.0820857584476471, "heading": 63, "throttle": 0, "type": "VFR_HUD"}}}
{"packet_index": 2951, "message": {"header": {"component_id": 1, "sequence": 253, "system_id": 1}, "message": {"airspeed": 0.11100000888109207, "alt": 21.639999389648438, "climb": -0.05879812687635422, "groundspeed": 0.08621871471405029, "heading": 61, "throttle": 0, "type": "VFR_HUD"}}}
{"packet_index": 2975, "message": {"header": {"component_id": 1, "sequence": 2, "system_id": 1}, "message": {"airspeed": 0.13700000941753387, "alt": 21.60999870300293, "climb": -0.06422985345125198, "groundspeed": 0.09094913303852081, "heading": 59, "throttle": 0, "type": "VFR_HUD"}}}
{"packet_index": 3001, "message": {"header": {"component_id": 1, "sequence": 18, "system_id": 1}, "message": {"airspeed": 0.13700000941753387, "alt": 21.59000015258789, "climb": -0.05602690577507019, "groundspeed": 0.0923856645822525, "heading": 57, "throttle": 0, "type": "VFR_HUD"}}}
{"packet_index": 3025, "message": {"header": {"component_id": 1, "sequence": 36, "system_id": 1}, "message": {"airspeed": 0.15900000929832458, "alt": 21.559999465942383, "climb": -0.04582066088914871, "groundspeed": 0.0981566458940506, "heading": 55, "throttle": 0, "type": "VFR_HUD"}}}
{"packet_index": 3049, "message": {"header": {"component_id": 1, "sequence": 41, "system_id": 1}, "message": {"airspeed": 0.15900000929832458, "alt": 21.549999237060547, "climb": -0.04139552265405655, "groundspeed": 0.09776926040649414, "heading": 53, "throttle": 0, "type": "VFR_HUD"}}}
{"packet_index": 3075, "message": {"header": {"component_id": 1, "sequence": 57, "system_id": 1}, "message": {"airspeed": 0.08800000697374344, "alt": 21.53999900817871, "climb": -0.045345209538936615, "groundspeed": 0.0944492295384407, "heading": 51, "throttle": 0, "type": "VFR_HUD"}}}
{"packet_index": 3099, "message": {"header": {"component_id": 1, "sequence": 62, "system_id": 1}, "message": {"airspeed": 0.08800000697374344, "alt": 21.529998779296875, "climb": -0.04641638696193695, "groundspeed": 0.08388075232505798, "heading": 49, "throttle": 0, "type": "VFR_HUD"}}}
{"packet_index": 3123, "message": {"header": {"component_id": 1, "sequence": 69, "system_id": 1}, "message": {"airspeed": 0.07200000435113907, "alt": 21.53999900817871, "climb": -0.03941522166132927, "groundspeed": 0.07322047650814056, "heading": 47, "throttle": 0, "type": "VFR_HUD"}}}
{"packet_index": 3126, "message": {"header": {"component_id": 1, "sequence": 85, "system_id": 1}, "message": {"altitude": 32970, "latitude": 634405552, "longitude": 103484873, "time_usec": 4450367572, "type": "GPS_GLOBAL_ORIGIN"}}}
{"packet_index": 3127, "message": {"header": {"component_id": 1, "sequence": 86, "system_id": 1}, "message": {"altitude": 6860, "approach_x": 0.0, "approach_y": 0.0, "approach_z": 0.0, "latitude": 634405553, "longitude": 103484876, "q": [null, null, null, null], "time_usec": 4450367577, "type": "HOME_POSITION", "x": 0.011131884530186653, "y": 0.01493206899613142, "z": 26.10999870300293}}}
{"packet_index": 3152, "message": {"header": {"component_id": 1, "sequence": 101, "system_id": 1}, "message": {"airspeed": 0.07200000435113907, "alt": 21.549999237060547, "climb": -0.01972041465342045, "groundspeed": 0.06548415869474411, "heading": 45, "throttle": 0, "type": "VFR_HUD"}}}
{"packet_index": 3165, "message": {"header": {"component_id": 1, "sequence": 104, "system_id": 1}, "message": {"autopilot": {"type": "MAV_AUTOPILOT_ARDUPILOTMEGA"}, "base_mode": {"bits": 137}, "custom_mode": 10, "mavlink_version": 3, "mavtype": {"type": "MAV_TYPE_SURFACE_BOAT"}, "system_status": {"type": "MAV_STATE_ACTIVE"}, "type": "HEARTBEAT"}}}
{"packet_index": 3176, "message": {"header": {"component_id": 1, "sequence": 107, "system_id": 1}, "message": {"airspeed": 0.07800000160932541, "alt": 21.559999465942383, "climb": 0.005581837613135576, "groundspeed": 0.062457125633955, "heading": 43, "throttle": 0, "type": "VFR_HUD"}}}
{"packet_index": 3200, "message": {"header": {"component_id": 1, "sequence": 112, "system_id": 1}, "message": {"airspeed": 0.07800000160932541, "alt": 21.579999923706055, "climb": 0.02584560215473175, "groundspeed": 0.06535761058330536, "heading": 41, "throttle": 0, "type": "VFR_HUD"}}}
{"packet_index": 3224, "message": {"header": {"component_id": 1, "sequence": 117, "system_id": 1}, "message": {"airspeed": 0.11300000548362732, "alt": 21.600000381469727, "climb": 0.043205127120018005, "groundspeed": 0.07180701196193695, "heading": 39, "throttle": 0, "type": "VFR_HUD"}}}
{"packet_index": 3250, "message": {"header": {"component_id": 1, "sequence": 133, "system_id": 1}, "message": {"airspeed": 0.11300000548362732, "alt": 21.619998931884766, "climb": 0.053996503353118896, "groundspeed": 0.08332061767578125, "heading": 37, "throttle": 0, "type": "VFR_HUD"}}}
{"packet_index": 3274, "message": {"header": {"component_id": 1, "sequence": 151, "system_id": 1}, "message": {"airspeed": 0.12000000476837158, "alt": 21.619998931884766, "climb": 0.06270446628332138, "groundspeed": 0.09309660643339157, "heading": 35, "throttle": 0, "type": "VFR_HUD"}}}
{"packet_index": 3298, "message": {"header": {"component_id": 1, "sequence": 156, "system_id": 1}, "message": {"airspeed": 0.12000000476837158, "alt": 21.619998931884766, "climb": 0.06223117932677269, "groundspeed": 0.10551385581493378, "heading": 33, "throttle": 0, "type": "VFR_HUD"}}}
{"packet_index": 3324, "message": {"header": {"component_id": 1, "sequence": 172, "system_id": 1}, "message": {"airspeed": 0.09600000083446503, "alt": 21.60999870300293, "climb": 0.05021607130765915, "groundspeed": 0.1157301515340805, "heading": 31, "throttle": 0, "type": "VFR_HUD"}}}
{"packet_index": 3348, "message": {"header": {"component_id": 1, "sequence": 179, "system_id": 1}, "message": {"airspeed": 0.09600000083446503, "alt": 21.600000381469727, "climb": 0.031671542674303055, "groundspeed": 0.12378693372011185, "heading": 29, "throttle": 0, "type": "VFR_HUD"}}}
{"packet_index": 3372, "message": {"header": {"component_id": 1, "sequence": 184, "system_id": 1}, "message": {"airspeed": 0.13600000739097595, "alt": 21.579999923706055, "climb": 0.014629330486059189, "groundspeed": 0.1285545527935028, "heading": 27, "throttle": 0, "type": "VFR_HUD"}}}
{"packet_index": 3375, "message": {"header": {"component_id": 1, "sequence": 200, "system_id": 1}, "message": {"altitude": 32970, "latitude": 634405552, "longitude": 103484873, "time_usec": 4451367519, "type": "GPS_GLOBAL_ORIGIN"}}}
{"packet_index": 3376, "message": {"header": {"component_id": 1, "sequence": 201, "system_id": 1}, "message": {"altitude": 6860, "approach_x": 0.0, "approach_y": 0.0, "approach_z": 0.0, "latitude": 634405553, "longitude": 103484876, "q": [null, null, null, null], "time_usec": 4451367523, "type": "HOME_POSITION", "x": 0.011131884530186653, "y": 0.01493206899613142, "z": 26.10999870300293}}}
{"packet_index": 3401, "message": {"header": {"component_id": 1, "sequence": 216, "system_id": 1}, "message": {"airspeed": 0.13600000739097595, "alt": 21.56999969482422, "climb": 0.0043533057905733585, "groundspeed": 0.1325683444738388, "heading": 25, "throttle": 0, "type": "VFR_HUD"}}}
{"packet_index": 3414, "message": {"header": {"component_id": 1, "sequence": 219, "system_id": 1}, "message": {"autopilot": {"type": "MAV_AUTOPILOT_ARDUPILOTMEGA"}, "base_mode": {"bits": 137}, "custom_mode": 10, "mavlink_version": 3, "mavtype": {"type": "MAV_TYPE_SURFACE_BOAT"}, "system_status": {"type": "MAV_STATE_ACTIVE"}, "type": "HEARTBEAT"}}}
{"packet_index": 3425, "message": {"header": {"component_id": 1, "sequence": 222, "system_id": 1}, "message": {"airspeed": 0.10700000822544098, "alt": 21.579999923706055, "climb": -0.0017405259422957897, "groundspeed": 0.14365915954113007, "heading": 23, "throttle": 0, "type": "VFR_HUD"}}}
{"packet_index": 3449, "message": {"header": {"component_id": 1, "sequence": 227, "system_id": 1}, "message": {"airspeed": 0.10700000822544098, "alt": 21.59000015258789, "climb": -0.0017501877155154943, "groundspeed": 0.16163218021392822, "heading": 21, "throttle": 0, "type": "VFR_HUD"}}}
{"packet_index": 3463, "message": {"header": {"component_id": 1, "sequence": 230, "system_id": 1}, "message": {"board_version": 0, "capabilities": {"bits": 61935}, "flight_custom_version": [51, 102, 99, 55, 48, 49, 49, 97], "flight_sw_version": 67503103, "middleware_custom_version": [0, 0, 0, 0, 0, 0, 0, 0], "middleware_sw_version": 0, "os_custom_version": [0, 0, 0, 0, 0, 0, 0, 0], "os_sw_version": 0, "product_id": 0, "type": "AUTOPILOT_VERSION", "uid": 0, "uid2": [97, 99, 51, 99, 53, 56, 52, 54, 99, 101, 56, 51, 52, 50, 98, 49, 51, 48], "vendor_id": 0}}}
{"packet_index": 3479, "message": {"header": {"component_id": 1, "sequence": 233, "system_id": 1}, "message": {"airspeed": 0.1340000033378601, "alt": 21.619998931884766, "climb": 0.0016603097319602966, "groundspeed": 0.17569629848003387, "heading": 19, "throttle": 0, "type": "VFR_HUD"}}}
{"packet_index": 3500, "message": {"header": {"component_id": 1, "sequence": 249, "system_id": 1}, "message": {"airspeed": 0.1340000033378601, "alt": 21.649999618530273, "climb": 0.015571312978863716, "groundspeed": 0.18345727026462555, "heading": 16, "throttle": 0, "type": "VFR_HUD"}}}
{"packet_index": 3524, "message": {"header": {"component_id": 1, "sequence": 11, "system_id": 1}, "message": {"airspeed": 0.15300001204013824, "alt": 21.670000076293945, "climb": 0.03311000019311905, "groundspeed": 0.17925119400024414, "heading": 14, "throttle": 0, "type": "VFR_HUD"}}}
{"packet_index": 3548, "message": {"header": {"component_id": 1, "sequence": 16, "system_id": 1}, "message": {"airspeed": 0.15300001204013824, "alt": 21.68000030517578, "climb": 0.04615004360675812, "groundspeed": 0.16909174621105194, "heading": 12, "throttle": 0, "type": "VFR_HUD"}}}
{"packet_index": 3574, "message": {"header": {"component_id": 1, "sequence": 32, "system_id": 1}, "message": {"airspeed": 0.17600001394748688, "alt": 21.68000030517578, "climb": 0.04607108607888222, "groundspeed": 0.1595778912305832, "heading": 11, "throttle": 0, "type": "VFR_HUD"}}}
{"packet_index": 3598, "message": {"header": {"component_id": 1, "sequence": 37, "system_id": 1}, "message": {"airspeed": 0.17600001394748688, "alt": 21.65999984741211, "climb": 0.03129704296588898, "groundspeed": 0.15260270237922668, "heading": 9, "throttle": 0, "type": "VFR_HUD"}}}
{"packet_index": 3622, "message": {"header": {"component_id": 1, "sequence": 44, "system_id": 1}, "message": {"airspeed": 0.16200000047683716, "alt": 21.639999389648438, "climb": 0.005451514385640621, "groundspeed": 0.15531164407730103, "heading": 7, "throttle": 0, "type": "VFR_HUD"}}}
{"packet_index": 3625, "message": {"header": {"component_id": 1, "sequence": 60, "system_id": 1}, "message": {"altitude": 32970, "latitude": 634405552, "longitude": 103484873, "time_usec": 4452367499, "type": "GPS_GLOBAL_ORIGIN"}}}
{"packet_index": 3626, "message": {"header": {"component_id": 1, "sequence": 61, "system_id": 1}, "message": {"altitude": 6860, "approach_x": 0.0, "approach_y": 0.0, "approach_z": 0.0, "latitude": 634405553, "longitude": 103484876, "q": [null, null, null, null], "time_usec": 4452367504, "type": "HOME_POSITION", "x": 0.011131884530186653, "y": 0.01493206899613142, "z": 26.10999870300293}}}
{"packet_index": 3651, "message": {"header": {"component_id": 1, "sequence": 76, "system_id": 1}, "message": {"airspeed": 0.16200000047683716, "alt": 21.619998931884766, "climb": -0.02697790041565895, "groundspeed": 0.1632259339094162, "heading": 5, "throttle": 0, "type": "VFR_HUD"}}}
{"packet_index": 3664, "message": {"header": {"component_id": 1, "sequence": 79, "system_id": 1}, "message": {"autopilot": {"type": "MAV_AUTOPILOT_ARDUPILOTMEGA"}, "base_mode": {"bits": 137}, "custom_mode": 10, "mavlink_version": 3, "mavtype": {"type": "MAV_TYPE_SURFACE_BOAT"}, "system_status": {"type": "MAV_STATE_ACTIVE"}, "type": "HEARTBEAT"}}}
{"packet_index": 3675, "message": {"header": {"component_id": 1, "sequence": 82, "system_id": 1}, "message": {"airspeed": 0.164000004529953, "alt": 21.600000381469727, "climb": -0.05247699096798897, "groundspeed": 0.16348698735237122, "heading": 3, "throttle": 0, "type": "VFR_HUD"}}}
{"packet_index": 3699, "message": {"header": {"component_id": 1, "sequence": 87, "system_id": 1}, "message": {"airspeed": 0.164000004529953, "alt": 21.600000381469727, "climb": -0.06055758148431778, "groundspeed": 0.15240199863910675, "heading": 0, "throttle": 0, "type": "VFR_HUD"}}}
{"packet_index": 3723, "message": {"header": {"component_id": 1, "sequence": 92, "system_id": 1}, "message": {"airspeed": 0.1420000046491623, "alt": 21.600000381469727, "climb": -0.055602043867111206, "groundspeed": 0.13850681483745575, "heading": 358, "throttle": 0, "type": "VFR_HUD"}}}
{"packet_index": 3749, "message": {"header": {"component_id": 1, "sequence": 108, "system_id": 1}, "message": {"airspeed": 0.1420000046491623, "alt": 21.619998931884766, "climb": -0.04504110664129257, "groundspeed": 0.1302891969680786, "heading": 356, "throttle": 0, "type": "VFR_HUD"}}}
{"packet_index": 3773, "message": {"header": {"component_id": 1, "sequence": 126, "system_id": 1}, "message": {"airspeed": 0.1080000028014183, "alt": 21.639999389648438, "climb": -0.04269684478640556, "groundspeed": 0.13162627816200256, "heading": 355, "throttle": 0, "type": "VFR_HUD"}}}
{"packet_index": 3797, "message": {"header": {"component_id": 1, "sequence": 131, "system_id": 1}, "message": {"airspeed": 0.1080000028014183, "alt": 21.65999984741211, "climb": -0.04596978425979614, "groundspeed": 0.1323801726102829, "heading": 353, "throttle": 0, "type": "VFR_HUD"}}}
{"packet_index": 3823, "message": {"header": {"component_id": 1, "sequence": 147, "system_id": 1}, "message": {"airspeed": 0.09100000560283661, "alt": 21.670000076293945, "climb": -0.04704923555254936, "groundspeed": 0.12820443511009216, "heading": 351, "throttle": 0, "type": "VFR_HUD"}}}
{"packet_index": 3847, "message": {"header": {"component_id": 1, "sequence": 152, "system_id": 1}, "message": {"airspeed": 0.09100000560283661, "alt": 21.670000076293945, "climb": -0.04349052533507347, "groundspeed": 0.11257409304380417, "heading": 349, "throttle": 0, "type": "VFR_HUD"}}}
{"packet_index": 3871, "message": {"header": {"component_id": 1, "sequence": 159, "system_id": 1}, "message": {"airspeed": 0.11800000816583633, "alt": 21.670000076293945, "climb": -0.03474404290318489, "groundspeed": 0.09131556749343872, "heading": 347, "throttle": 0, "type": "VFR_HUD"}}}
{"packet_index": 3883, "message": {"header": {"component_id": 1, "sequence": 175, "system_id": 1}, "message": {"altitude": 32970, "latitude": 634405552, "longitude": 103484873, "time_usec": 4453367496, "type": "GPS_GLOBAL_ORIGIN"}}}
{"packet_index": 3884, "message": {"header": {"component_id": 1, "sequence": 176, "system_id": 1}, "message": {"altitude": 6860, "approach_x": 0.0, "approach_y": 0.0, "approach_z": 0.0, "latitude": 634405553, "longitude": 103484876, "q": [null, null, null, null], "time_usec": 4453367501, "type": "HOME_POSITION", "x": 0.011131884530186653, "y": 0.01493206899613142, "z": 26.10999870300293}}}
{"packet_index": 3900, "message": {"header": {"component_id": 1, "sequence": 191, "system_id": 1}, "message": {"airspeed": 0.11800000816583633, "alt": 21.65999984741211, "climb": -0.03042067587375641, "groundspeed": 0.07515859603881836, "heading": 345, "throttle": 0, "type": "VFR_HUD"}}}
{"packet_index": 3913, "message": {"header": {"component_id": 1, "sequence": 194, "system_id": 1}, "message": {"autopilot": {"type": "MAV_AUTOPILOT_ARDUPILOTMEGA"}, "base_mode": {"bits": 137}, "custom_mode": 10, "mavlink_version": 3, "mavtype": {"type": "MAV_TYPE_SURFACE_BOAT"}, "system_status": {"type": "MAV_STATE_ACTIVE"}, "type": "HEARTBEAT"}}}
{"packet_index": 3924, "message": {"header": {"component_id": 1, "sequence": 197, "system_id": 1}, "message": {"airspeed": 0.08100000023841858, "alt": 21.639999389648438, "climb": -0.03166517615318298, "groundspeed": 0.06640778481960297, "heading": 343, "throttle": 0, "type": "VFR_HUD"}}}
{"packet_index": 3948, "message": {"header": {"component_id": 1, "sequence": 202, "system_id": 1}, "message": {"airspeed": 0.08100000023841858, "alt": 21.60999870300293, "climb": -0.04310987889766693, "groundspeed": 0.06720016151666641, "heading": 342, "throttle": 0, "type": "VFR_HUD"}}}
{"packet_index": 3972, "message": {"header": {"component_id": 1, "sequence": 207, "system_id": 1}, "message": {"airspeed": 0.058000002056360245, "alt": 21.59000015258789, "climb": -0.05030139908194542, "groundspeed": 0.07296670973300934, "heading": 340, "throttle": 0, "type": "VFR_HUD"}}}
{"packet_index": 3998, "message": {"header": {"component_id": 1, "sequence": 223, "system_id": 1}, "message": {"airspeed": 0.058000002056360245, "alt": 21.559999465942383, "climb": -0.06356527656316757, "groundspeed": 0.07374905794858932, "heading": 338, "throttle": 0, "type": "VFR_HUD"}}}
