packet_index,time_boot_ms,x_m,y_m,z_m,vx_mps,vy_mps,vz_mps
51,4438787,41.514068603515625,17.376554489135742,11.258112907409668,0.010701320134103298,0.1071353331208229,-0.14060714840888977
127,4439127,41.53534698486328,17.408903121948242,11.266108512878418,0.036822084337472916,0.0517350398004055,-0.003078014124184847
213,4439447,41.55078887939453,17.434289932250977,11.289484024047852,0.05976881831884384,0.03536120057106018,-0.00406899768859148
300,4439787,41.56862258911133,17.447643280029297,11.334304809570312,0.06187354400753975,0.005693966057151556,-0.03755541518330574
376,4440127,41.573944091796875,17.451814651489258,11.299851417541504,0.006552021484822035,-0.01007536705583334,-0.010318047367036343
462,4440447,41.565189361572266,17.447790145874023,11.257054328918457,-0.023501155897974968,-0.01778755523264408,0.0401340052485466
491,4440567,41.56037521362305,17.448143005371094,11.27109432220459,-0.023246794939041138,0.001331190811470151,0.0858335793018341
504,4440607,41.55854034423828,17.448949813842773,11.277034759521484,-0.021404754370450974,0.009222524240612984,0.10084494948387146
508,4440627,41.55767822265625,17.44945526123047,11.280219078063965,-0.01990969106554985,0.013463906943798065,0.1080259308218956
523,4440667,41.556156158447266,17.45064353942871,11.283411026000977,-0.016394255682826042,0.022308168932795525,0.11996731162071228
536,4440707,41.55488967895508,17.45212173461914,11.287214279174805,-0.011546253226697445,0.03158615902066231,0.12945720553398132
540,4440727,41.55436325073242,17.45298194885254,11.289302825927734,-0.008753473870456219,0.036488067358732224,0.13312886655330658
555,4440767,41.55381774902344,17.455305099487305,11.286713600158691,-0.0023296396248042583,0.04671173915266991,0.13695786893367767
568,4440807,41.553585052490234,17.457944869995117,11.28526782989502,0.005072804633527994,0.05746179819107056,0.1381274163722992
572,4440827,41.553592681884766,17.459394454956055,11.284897804260254,0.008768731728196144,0.06280841678380966,0.13786879181861877
587,4440867,41.553855895996094,17.462560653686523,11.277667045593262,0.01617312990128994,0.07372283935546875,0.13438007235527039
600,4440907,41.554443359375,17.46609878540039,11.271915435791016,0.02363944984972477,0.08495703339576721,0.12929370999336243
604,4440927,41.55488586425781,17.468101501464844,11.269631385803223,0.027509363368153572,0.0906488373875618,0.1261235624551773
619,4440967,41.55575942993164,17.47208595275879,11.25969123840332,0.033756330609321594,0.1011805608868599,0.11836462467908859
632,4441007,41.55690002441406,17.4764404296875,11.25136947631836,0.038806963711977005,0.11157195270061493,0.11041568964719772
636,4441027,41.55755615234375,17.478755950927734,11.247735977172852,0.04070543497800827,0.11653222143650055,0.10655828565359116
651,4441067,41.558998107910156,17.483654022216797,11.241018295288086,0.04376688599586487,0.1261264681816101,0.09909743815660477
664,4441107,41.56056213378906,17.488889694213867,11.235424041748047,0.04509082809090614,0.13510039448738098,0.09224972873926163
677,4441127,41.561370849609375,17.49163055419922,11.232999801635742,0.04534025117754936,0.13954317569732666,0.08910416066646576
683,4441167,41.56269454956055,17.497346878051758,11.232349395751953,0.04488355293869972,0.14714603126049042,0.08336930721998215
695,4441187,41.563411712646484,17.500452041625977,11.232223510742188,0.04428819566965103,0.15084461867809296,0.08058321475982666
700,4441227,41.564762115478516,17.506553649902344,11.232007026672363,0.042837563902139664,0.15740759670734406,0.07501611858606339
715,4441267,41.56610870361328,17.51287078857422,11.241308212280273,0.041638538241386414,0.16324181854724884,0.07156731188297272
727,4441287,41.56678009033203,17.516103744506836,11.245584487915039,0.04082717373967171,0.16566452383995056,0.0697617381811142
732,4441327,41.56812286376953,17.52269744873047,11.253475189208984,0.040213048458099365,0.1703440248966217,0.0666390061378479
747,4441367,41.569339752197266,17.52947998046875,11.270387649536133,0.040681883692741394,0.17405270040035248,0.06589136272668839
761,4441387,41.56998062133789,17.532917022705078,11.278119087219238,0.041388750076293945,0.17577174305915833,0.06582195311784744
766,4441427,41.57136154174805,17.539867401123047,11.29233169555664,0.04357947036623955,0.17874757945537567,0.0667138397693634
781,4441467,41.57289505004883,17.546899795532227,11.31325912475586,0.046797119081020355,0.1809217929840088,0.07030855864286423
793,4441487,41.57378005981445,17.550622940063477,11.322946548461914,0.04878932610154152,0.18193739652633667,0.07279080897569656
799,4441527,41.575599670410156,17.557754516601562,11.340715408325195,0.05274314060807228,0.18365365266799927,0.07793200016021729
814,4441567,41.57725524902344,17.565479278564453,11.356945991516113,0.05698910355567932,0.1845116913318634,0.08246026188135147
826,4441587,41.57817459106445,17.569320678710938,11.364471435546875,0.058814823627471924,0.1846897453069687,0.08406143635511398
831,4441627,41.580162048339844,17.576953887939453,11.378432273864746,0.06181603670120239,0.18431821465492249,0.08560120314359665
846,4441667,41.58229446411133,17.584482192993164,11.384154319763184,0.06293152272701263,0.18267980217933655,0.08171044290065765
858,4441687,41.58338928222656,17.588197708129883,11.38681697845459,0.06283994764089584,0.1813788115978241,0.0778890997171402
863,4441727,41.5855827331543,17.595495223999023,11.391646385192871,0.06134621426463127,0.17768803238868713,0.06677401065826416
878,4441767,41.58753967285156,17.603321075439453,11.383810997009277,0.05792911723256111,0.1725611686706543,0.04790028557181358
891,4441787,41.58845520019531,17.607023239135742,11.380078315734863,0.05562853813171387,0.1694432497024536,0.037270139902830124
895,4441827,41.59017562866211,17.614160537719727,11.372843742370605,0.04975944012403488,0.1627907007932663,0.013848047703504562
908,4441847,41.590965270996094,17.617591857910156,11.363899230957031,0.04654424265027046,0.15907907485961914,0.0003018817806150764
922,4441887,41.59238052368164,17.624170303344727,11.347007751464844,0.0393587127327919,0.15140724182128906,-0.02677033096551895
927,4441927,41.593536376953125,17.630373001098633,11.33117389678955,0.03141893073916435,0.14352717995643616,-0.05320282280445099
940,4441947,41.594120025634766,17.633737564086914,11.322223663330078,0.02759363315999508,0.139605313539505,-0.06591102480888367
954,4441987,41.59506607055664,17.640104293823242,11.305127143859863,0.019519269466400146,0.1313965618610382,-0.0893002524971962
959,4442027,41.59569549560547,17.64600944519043,11.288987159729004,0.010963530279695988,0.12314671277999878,-0.1090129166841507
971,4442047,41.59589385986328,17.64879608154297,11.284825325012207,0.006916027050465345,0.11916349828243256,-0.11682316660881042
986,4442087,41.59606170654297,17.654155731201172,11.276321411132812,-0.0009963660268113017,0.11079344153404236,-0.12971606850624084
1000,4442127,41.59593963623047,17.658981323242188,11.267939567565918,-0.008059227839112282,0.10280516743659973,-0.13909003138542175
1004,4442147,41.595497131347656,17.66163444519043,11.27266788482666,-0.011469450779259205,0.09912639111280441,-0.14079149067401886
1019,4442187,41.594478607177734,17.666587829589844,11.280537605285645,-0.017441220581531525,0.09175306558609009,-0.14287979900836945
1023,4442227,41.59331130981445,17.671085357666016,11.286588668823242,-0.022533787414431572,0.0840783417224884,-0.14347457885742188
1035,4442247,41.592681884765625,17.673168182373047,11.29865550994873,-0.02469172514975071,0.07995850592851639,-0.14157608151435852
1050,4442287,41.591346740722656,17.6769962310791,11.319938659667969,-0.02808697149157524,0.07173385471105576,-0.13747109472751617
1055,4442327,41.58995819091797,17.68037986755371,11.337905883789062,-0.02988424152135849,0.06298645585775375,-0.13286025822162628
1068,4442347,41.58844757080078,17.682334899902344,11.353869438171387,-0.030781332403421402,0.05803684890270233,-0.1289096623659134
1084,4442387,41.58561706542969,17.685691833496094,11.382572174072266,-0.03187660127878189,0.04832009598612785,-0.12135877460241318
1089,4442427,41.582969665527344,17.688486099243164,11.407182693481445,-0.0313166007399559,0.037841327488422394,-0.11377377808094025
1102,4442447,41.58172607421875,17.689668655395508,11.421713829040527,-0.030660154297947884,0.032217297703027725,-0.10939960926771164
1116,4442487,41.579402923583984,17.69158935546875,11.447714805603027,-0.028743239119648933,0.020093565806746483,-0.10046938061714172
1120,4442507,41.57832717895508,17.692323684692383,11.45934009552002,-0.0274520181119442,0.014022846706211567,-0.0960344448685646
1134,4442547,41.57568359375,17.693777084350586,11.479267120361328,-0.02504027634859085,0.0019264619331806898,-0.08779951930046082
1149,4442587,41.57270050048828,17.695003509521484,11.49560832977295,-0.02290492318570614,-0.0103860879316926,-0.0798240378499031
1153,4442607,41.57133483886719,17.695363998413086,11.502906799316406,-0.021947771310806274,-0.016362715512514114,-0.0762455016374588
1167,4442647,41.56880569458008,17.695592880249023,11.51124095916748,-0.019969956949353218,-0.02807924710214138,-0.06988070905208588
1181,4442687,41.566566467285156,17.695241928100586,11.514054298400879,-0.018715713173151016,-0.03907555714249611,-0.06479930132627487
1185,4442707,41.565528869628906,17.69485855102539,11.515247344970703,-0.018110502511262894,-0.04434719681739807,-0.062500961124897
1199,4442747,41.56297302246094,17.694108963012695,11.511067390441895,-0.017903054133057594,-0.05389121547341347,-0.058936718851327896
1213,4442787,41.560054779052734,17.693225860595703,11.501447677612305,-0.01818109303712845,-0.06245590001344681,-0.05596931278705597
1217,4442807,41.558692932128906,17.69259262084961,11.49703598022461,-0.018354911357164383,-0.06632960587739944,-0.05409674718976021
1231,4442847,41.55613327026367,17.69098472595215,11.483185768127441,-0.01893790066242218,-0.07323100417852402,-0.05071384087204933
1245,4442887,41.55376434326172,17.688976287841797,11.465601921081543,-0.019657189026474953,-0.07911795377731323,-0.046479061245918274
1249,4442907,41.552642822265625,17.687837600708008,11.45764446258545,-0.01997876912355423,-0.08175632357597351,-0.04371795430779457
1263,4442947,41.549869537353516,17.685672760009766,11.439950942993164,-0.02081872522830963,-0.08592528104782104,-0.03689122945070267
1277,4442987,41.54673767089844,17.683691024780273,11.421581268310547,-0.0215816218405962,-0.08905694633722305,-0.028884299099445343
1281,4443007,41.54527282714844,17.682586669921875,11.413358688354492,-0.02143053710460663,-0.09028970450162888,-0.024297572672367096
1310,4443127,41.53783416748047,17.674827575683594,11.37279987335205,-0.018567655235528946,-0.09309855103492737,0.005989266559481621
1403,4443447,41.519893646240234,17.656078338623047,11.394886016845703,-0.0040350137278437614,-0.05641663074493408,0.09445638209581375
1492,4443787,41.50340270996094,17.648765563964844,11.462811470031738,-0.014382653869688511,-0.007301843259483576,0.16521558165550232
1567,4444107,41.497798919677734,17.656957626342773,11.34341049194336,0.010111762210726738,0.06813410669565201,0.10094426572322845
1654,4444447,41.50292205810547,17.698108673095703,11.29555892944336,0.0013569070724770427,0.14214393496513367,0.009293856099247932
1742,4444787,41.50497055053711,17.739864349365234,11.455204963684082,0.005914024077355862,0.09379051625728607,0.012117050588130951
1816,4445107,41.50260925292969,17.76668357849121,11.463790893554688,-0.027495194226503372,0.047979045659303665,-0.003066017059609294
1903,4445447,41.4939079284668,17.790851593017578,11.369322776794434,-0.008782369084656239,0.0186301376670599,-0.13332751393318176
1990,4445787,41.480289459228516,17.80211067199707,11.458962440490723,-0.04005563631653786,-0.013144494965672493,0.045230474323034286
2065,4446107,41.45689010620117,17.796213150024414,11.453448295593262,-0.049645762890577316,-0.055990319699048996,0.055182673037052155
2152,4446447,41.4376220703125,17.78815460205078,11.368414878845215,-0.03561628982424736,-0.030732156708836555,0.05532330274581909
2239,4446787,41.42999267578125,17.800260543823242,11.306975364685059,-0.017285840585827827,0.04561417177319527,0.03134525567293167
2314,4447107,41.42889404296875,17.83058738708496,11.31624698638916,0.023899592459201813,0.10128653049468994,0.0042585949413478374
2400,4447447,41.42996597290039,17.85769271850586,11.317705154418945,0.008920107036828995,0.04143077880144119,-0.09490639716386795
2488,4447787,41.413814544677734,17.864648818969727,11.337263107299805,-0.028635557740926743,-0.019027531147003174,-0.05650605633854866
2563,4448107,41.395294189453125,17.85992431640625,11.33762264251709,-0.041318781673908234,-0.05557754263281822,0.016682565212249756
2651,4448447,41.38383102416992,17.857397079467773,11.314204216003418,0.002698643133044243,-0.005488879047334194,0.05170656740665436
2739,4448787,41.38732147216797,17.875822067260742,11.3500394821167,0.04944043233990669,0.05192560330033302,0.05381273850798607
2814,4449107,41.40346145629883,17.895198822021484,11.343769073486328,0.10206183046102524,0.03294055536389351,-0.02138146385550499
2900,4449447,41.423301696777344,17.903974533081055,11.296730995178223,0.08375256508588791,-0.0008754462469369173,0.006818464491516352
2988,4449787,41.44450759887695,17.914867401123047,11.364219665527344,0.08848361670970917,0.020950090140104294,0.06182435527443886
3063,4450107,41.47361373901367,17.933942794799805,11.421635627746582,0.0891166552901268,0.036766041070222855,0.043658383190631866
3149,4450447,41.485713958740234,17.956602096557617,11.418349266052246,0.04021552577614784,0.05168062075972557,0.01972041465342045
3228,4450767,41.483177185058594,17.978879928588867,11.359067916870117,0.059978995472192764,0.043989282101392746,-0.045879241079092026
3312,4451107,41.49923324584961,17.99850082397461,11.350564002990723,0.11143255233764648,0.0009997701272368431,-0.056211791932582855
3398,4451447,41.52391052246094,18.003328323364258,11.391093254089355,0.12579920887947083,-0.041820161044597626,-0.0043533057905733585
3481,4451767,41.55156326293945,17.99710464477539,11.339842796325684,0.15436334908008575,-0.08939293026924133,-0.004268181975930929
3562,4452107,41.58296585083008,17.979768753051758,11.283286094665527,0.11349057406187057,-0.1181013211607933,-0.04842372238636017
3648,4452447,41.605560302734375,17.95668601989746,11.34666919708252,0.08139443397521973,-0.14148375391960144,0.02697790041565895
3727,4452767,41.62202453613281,17.924285888671875,11.359085083007812,0.03025650419294834,-0.13277508318424225,0.05340011790394783
3811,4453107,41.62625503540039,17.895967483520508,11.301751136779785,0.01622774638235569,-0.13058806955814362,0.04596579819917679
3898,4453447,41.62688446044922,17.873998641967773,11.304762840270996,0.003685370087623596,-0.07506819069385529,0.03042067587375641
3976,4453767,41.62744903564453,17.85954475402832,11.38475513458252,0.01749933511018753,-0.0729055181145668,0.052926044911146164
4060,4454107,41.63597106933594,17.848947525024414,11.407537460327148,0.041492901742458344,-0.028192471712827682,0.10898192226886749
4146,4454447,41.66753005981445,17.863544464111328,11.351652145385742,0.11343681812286377,-0.008828152902424335,-0.009768793359398842
4225,4454767,41.70741653442383,17.872711181640625,11.385878562927246,0.06646090745925903,-0.08022821694612503,-0.22199182212352753
4311,4455107,41.718387603759766,17.8525333404541,11.47513484954834,0.006232846062630415,-0.17009718716144562,-0.14989511668682098
4397,4455447,41.71128845214844,17.795654296875,11.440711975097656,-0.061448708176612854,-0.2944994270801544,-0.01259197574108839
4476,4455767,41.69304656982422,17.71637725830078,11.356742858886719,-0.11285141855478287,-0.3086545169353485,-0.026166340336203575
4560,4456107,41.6719970703125,17.6521053314209,11.446639060974121,-0.08511935919523239,-0.19072826206684113,0.24469265341758728
4646,4456447,41.671329498291016,17.630924224853516,11.429008483886719,-0.013056369498372078,-0.013696903362870216,0.2637839615345001
4734,4456767,41.691436767578125,17.664453506469727,11.277941703796387,0.08624857664108276,0.08600009977817535,-0.03564939275383949
4809,4457107,41.726097106933594,17.695402145385742,11.411749839782715,0.15533095598220825,-0.013115053065121174,-0.03548610955476761
4888,4457427,41.756099700927734,17.680280685424805,11.449271202087402,0.15431544184684753,-0.18197081983089447,-0.08760774880647659
4974,4457767,41.78744125366211,17.60527992248535,11.377385139465332,0.1261535882949829,-0.3940276503562927,-0.13784533739089966
5058,4458107,41.82122039794922,17.46395492553711,11.388221740722656,0.14079515635967255,-0.5544251203536987,-0.006862168200314045
5135,4458427,41.87842559814453,17.29369354248047,11.377760887145996,0.20794445276260376,-0.643730103969574,0.06148872897028923
5223,4458767,41.96485900878906,17.092082977294922,11.306096076965332,0.2352510392665863,-0.6745357513427734,-0.04698894917964935
5307,4459107,42.06435012817383,16.89192771911621,11.345163345336914,0.30284374952316284,-0.6177781820297241,0.08347529172897339
5384,4459427,42.17132568359375,16.71086883544922,11.355488777160645,0.3274615406990051,-0.58417809009552,0.05213787034153938
5472,4459767,42.296051025390625,16.521387100219727,11.3500337600708,0.39096227288246155,-0.5836926698684692,0.0663406252861023
5556,4460107,42.4246940612793,16.32411003112793,11.330442428588867,0.3590753972530365,-0.6045075058937073,-0.11072700470685959
5633,4460427,42.53364181518555,16.13237762451172,11.36284351348877,0.34717267751693726,-0.6288233995437622,-0.005804008338600397
5721,4460767,42.63411331176758,15.918058395385742,11.355514526367188,0.2727009952068329,-0.6363895535469055,-0.06866646558046341
5805,4461107,42.721065521240234,15.702821731567383,11.356644630432129,0.26461178064346313,-0.6366738080978394,0.11988944560289383
5882,4461427,42.79396057128906,15.507206916809082,11.34432601928711,0.2262655347585678,-0.5642234683036804,0.03628697618842125
5970,4461767,42.85075378417969,15.335248947143555,11.36264705657959,0.18164725601673126,-0.45799940824508667,-0.04925411194562912
6054,4462107,42.88535690307617,15.194433212280273,11.465099334716797,0.1551961898803711,-0.30583423376083374,0.04700944200158119
6131,4462427,42.9036979675293,15.108531951904297,11.452788352966309,0.12713584303855896,-0.17655955255031586,-0.05544612556695938
6232,4462767,42.911705017089844,15.058518409729004,11.493535995483398,0.12914274632930756,-0.07478713989257812,-0.010029463097453117
6305,4463107,42.91492462158203,15.045090675354004,11.547816276550293,0.12034487724304199,0.027462543919682503,0.0716453418135643
6382,4463427,42.90850067138672,15.074052810668945,11.561922073364258,0.0932544693350792,0.12063711136579514,0.06312043964862823
6470,4463767,42.89804458618164,15.124829292297363,11.6028470993042,0.09988266229629517,0.12267722934484482,0.05259616672992706
6553,4464087,42.880096435546875,15.16804027557373,11.618595123291016,0.051962655037641525,0.09524397552013397,0.028783688321709633
6631,4464427,42.844966888427734,15.224637985229492,11.6362943649292,0.024352939799427986,0.14957019686698914,0.14879076182842255
6719,4464767,42.81937789916992,15.305910110473633,11.604780197143555,0.05965021252632141,0.21522624790668488,0.09747081995010376
6802,4465087,42.7979736328125,15.393834114074707,11.570477485656738,0.027139872312545776,0.22446787357330322,-0.15299172699451447
6880,4465427,42.75315475463867,15.476348876953125,11.545193672180176,-0.031139349564909935,0.13977055251598358,-0.1353338211774826
6968,4465767,42.68555450439453,15.502998352050781,11.468822479248047,-0.1133185550570488,-0.01839386858046055,-0.07579131424427032
7051,4466087,42.60786819458008,15.4945068359375,11.47706127166748,-0.16076964139938354,-0.057524748146533966,0.11920901387929916
7129,4466427,42.537025451660156,15.484049797058105,11.450553894042969,-0.16417068243026733,-0.04251076653599739,0.11098460853099823
7217,4466767,42.48114013671875,15.487022399902344,11.35216999053955,-0.13869555294513702,0.05937951058149338,0.1363266408443451
7300,4467087,42.43617630004883,15.518248558044434,11.309319496154785,-0.10943509638309479,0.14990682899951935,0.08597738295793533
7378,4467427,42.39854431152344,15.577767372131348,11.33951187133789,-0.06309457868337631,0.20724770426750183,-0.008045068942010403
7466,4467767,42.3701057434082,15.650918006896973,11.358935356140137,-0.05406726524233818,0.19112014770507812,-0.17057625949382782
7549,4468087,42.3298454284668,15.692983627319336,11.31208610534668,-0.10028016567230225,0.07276061177253723,-0.19314239919185638
7627,4468427,42.27653121948242,15.695456504821777,11.273508071899414,-0.12271144986152649,-0.05797209218144417,-0.07108040899038315
7715,4468767,42.2137565612793,15.657197952270508,11.199825286865234,-0.1822635680437088,-0.1777949035167694,-0.11091016978025436
7798,4469087,42.14811325073242,15.592057228088379,11.188462257385254,-0.18198581039905548,-0.21613168716430664,0.06474684178829193
7885,4469427,42.10175704956055,15.521524429321289,11.174416542053223,-0.09937130659818649,-0.1566513180732727,0.13769686222076416
7964,4469767,42.092655181884766,15.479721069335938,11.134001731872559,0.0018025675090029836,-0.0497993528842926,0.029613787308335304
8047,4470087,42.1120491027832,15.468165397644043,11.147903442382812,0.1405811458826065,0.047338858246803284,-0.02827984280884266
8125,4470427,42.14496994018555,15.478240966796875,11.1926908493042,0.19009919464588165,0.09494857490062714,0.015276075340807438
8164,4470567,42.1588249206543,15.486289978027344,11.171161651611328,0.19253669679164886,0.09444321691989899,-0.02211732417345047
8177,4470607,42.162254333496094,15.488659858703613,11.162761688232422,0.19238576292991638,0.09248752892017365,-0.035625897347927094
8181,4470627,42.1641731262207,15.489883422851562,11.15871524810791,0.19396214187145233,0.09219514578580856,-0.04394131898880005
8195,4470667,42.16858673095703,15.49247932434082,11.15014362335205,0.1945493370294571,0.09005367755889893,-0.05900370702147484
8208,4470707,42.173282623291016,15.495054244995117,11.141908645629883,0.1963803619146347,0.08958998322486877,-0.0743698924779892
8212,4470727,42.17579650878906,15.49635124206543,11.137873649597168,0.1973123848438263,0.08705814182758331,-0.08009453117847443
8227,4470767,42.17892074584961,15.499736785888672,11.13455581665039,0.19810247421264648,0.08574960380792618,-0.09140036255121231
8240,4470807,42.18265151977539,15.50301742553711,11.130824089050293,0.1984562873840332,0.08220591396093369,-0.10132914036512375
8244,4470827,42.18474197387695,15.504629135131836,11.128822326660156,0.20140792429447174,0.08157532662153244,-0.10594777017831802
8258,4470867,42.18946838378906,15.507840156555176,11.131954193115234,0.208370640873909,0.08064359426498413,-0.11476969718933105
8271,4470907,42.19499206542969,15.511101722717285,11.133767127990723,0.2200586199760437,0.08447825908660889,-0.12454372644424438
8275,4470927,42.19809341430664,15.512775421142578,11.134212493896484,0.22801227867603302,0.0847267359495163,-0.1290268898010254
8289,4470967,42.202816009521484,15.517032623291016,11.144769668579102,0.2432241588830948,0.08851643651723862,-0.13431861996650696
8302,4471007,42.20853042602539,15.521294593811035,11.153154373168945,0.2603977620601654,0.09233324974775314,-0.13878381252288818
8316,4471027,42.21186828613281,15.523442268371582,11.156641960144043,0.2692878246307373,0.09234511852264404,-0.1383085995912552
8330,4471067,42.21951675415039,15.527782440185547,11.171247482299805,0.2918175756931305,0.09531247615814209,-0.13857761025428772
8344,4471107,42.2285270690918,15.532113075256348,11.183403015136719,0.3161178529262543,0.09767881780862808,-0.1307617574930191
8347,4471127,42.23353958129883,15.534297943115234,11.188713073730469,0.3260798752307892,0.0980709046125412,-0.12920942902565002
8361,4471167,42.24207305908203,15.539344787597656,11.204169273376465,0.3516576290130615,0.09946803748607635,-0.11714698374271393
8364,4471187,42.246917724609375,15.541864395141602,11.211080551147461,0.36217814683914185,0.10282380133867264,-0.11109065264463425
8378,4471227,42.257686614990234,15.546896934509277,11.223470687866211,0.3848188817501068,0.10236378014087677,-0.09766220301389694
8383,4471267,42.27023696899414,15.552043914794922,11.233258247375488,0.4060192108154297,0.10969425737857819,-0.08218075335025787
8395,4471287,42.27680969238281,15.55459976196289,11.237751960754395,0.41685548424720764,0.10926451534032822,-0.07473432272672653
8400,4471327,42.29087448120117,15.55972957611084,11.246049880981445,0.43552881479263306,0.11419602483510971,-0.05766921862959862
8414,4471367,42.30246353149414,15.565394401550293,11.246299743652344,0.45369240641593933,0.11963101476430893,-0.04319465905427933
8430,4471387,42.30883026123047,15.568266868591309,11.246554374694824,0.46400782465934753,0.12311429530382156,-0.03357607498764992
8445,4471427,42.322593688964844,15.574126243591309,11.247382164001465,0.4804857075214386,0.1306430548429489,-0.016367673873901367
8448,4471467,42.33768844604492,15.5801362991333,11.236149787902832,0.49940910935401917,0.13501998782157898,-0.0031364476308226585
8462,4471487,42.3457145690918,15.583220481872559,11.231283187866211,0.5083906054496765,0.14130422472953796,0.002658060286194086
8466,4471527,42.363216400146484,15.589607238769531,11.222944259643555,0.5279935002326965,0.14293327927589417,0.017365289852023125
8480,4471567,42.378543853759766,15.596982955932617,11.20280647277832,0.5428488254547119,0.15100571513175964,0.02704959362745285
8492,4471587,42.38672637939453,15.600663185119629,11.193944931030273,0.5526730418205261,0.15082119405269623,0.031815752387046814
8497,4471627,42.40410614013672,15.607987403869629,11.178384780883789,0.5689064264297485,0.15642938017845154,0.04105767607688904
8511,4471667,42.4227409362793,15.615358352661133,11.152819633483887,0.5863179564476013,0.15997612476348877,0.046232596039772034
8523,4471687,42.432518005371094,15.619038581848145,11.141473770141602,0.593069314956665,0.16060210764408112,0.04892574995756149
8528,4471727,42.4530029296875,15.62643051147461,11.12131404876709,0.6142398118972778,0.1642557829618454,0.05101115629076958
8543,4471767,42.47230911254883,15.63519287109375,11.094623565673828,0.6297884583473206,0.16772450506687164,0.049698784947395325
8555,4471787,42.482421875,15.639527320861816,11.082674026489258,0.6359610557556152,0.17091187834739685,0.04657452926039696
8560,4471827,42.504154205322266,15.64829158782959,11.06113338470459,0.6485214233398438,0.17404772341251373,0.03776191920042038
8572,4471847,42.515071868896484,15.652580261230469,11.049091339111328,0.6528829336166382,0.17630313336849213,0.030633628368377686
8586,4471887,42.53752899169922,15.66108512878418,11.027137756347656,0.6608545780181885,0.17859691381454468,0.015718767419457436
8591,4471927,42.56071472167969,15.66955852508545,11.007523536682129,0.6662281155586243,0.1824362725019455,-0.0022955788299441338
8603,4471947,42.57123947143555,15.674592971801758,10.999028205871582,0.666317880153656,0.18389880657196045,-0.01354074478149414
8617,4471987,42.59287643432617,15.684508323669434,10.982962608337402,0.6679606437683105,0.18840831518173218,-0.04022250324487686
8622,4472027,42.615135192871094,15.694318771362305,10.967828750610352,0.6671743988990784,0.1929202824831009,-0.06729532033205032
8634,4472047,42.62647247314453,15.69918441772461,10.963095664978027,0.6675487756729126,0.19417420029640198,-0.08196640759706497
8648,4472087,42.65019226074219,15.708995819091797,10.953290939331055,0.6667582392692566,0.19655446708202362,-0.11317674070596695
8654,4472127,42.67363739013672,15.718523025512695,10.943170547485352,0.6659013628959656,0.20067737996578217,-0.14288532733917236
8666,4472147,42.68463897705078,15.72435474395752,10.942765235900879,0.6660672426223755,0.20054011046886444,-0.1544814258813858
8680,4472187,42.707088470458984,15.735732078552246,10.94074821472168,0.6649813055992126,0.20314298570156097,-0.17812350392341614
8685,4472227,42.73006820678711,15.74683666229248,10.937397003173828,0.6648809313774109,0.20573921501636505,-0.19516129791736603
8697,4472247,42.74174880981445,15.752281188964844,10.941301345825195,0.6670412421226501,0.20644143223762512,-0.2000117003917694
8711,4472287,42.765438079833984,15.762920379638672,10.947346687316895,0.6666190028190613,0.20712071657180786,-0.206031933426857
8716,4472327,42.78950881958008,15.773314476013184,10.951552391052246,0.6666377186775208,0.2086591124534607,-0.20291362702846527
8728,4472347,42.80048370361328,15.779248237609863,10.959891319274902,0.6676398515701294,0.2090209424495697,-0.19626809656620026
8744,4472387,42.82356262207031,15.791062355041504,10.974442481994629,0.6677324175834656,0.21193043887615204,-0.17645549774169922
8749,4472427,42.8465461730957,15.802409172058105,10.987316131591797,0.6678420901298523,0.21531671285629272,-0.1493435651063919
8762,4472447,42.858245849609375,15.808019638061523,10.997915267944336,0.6688764095306396,0.21885396540164948,-0.13257235288619995
8776,4472487,42.881935119628906,15.819171905517578,11.017526626586914,0.6679280400276184,0.22549736499786377,-0.09601309150457382
8780,4472507,42.893924713134766,15.824749946594238,11.026715278625488,0.666024923324585,0.22884789109230042,-0.07618532329797745
8795,4472547,42.91680145263672,15.83673095703125,11.046499252319336,0.6622951030731201,0.23823505640029907,-0.0336044579744339
8809,4472587,42.93873977661133,15.849534034729004,11.06722640991211,0.6565181016921997,0.24821199476718903,0.004963062237948179
8813,4472607,42.94984817504883,15.85594367980957,11.077117919921875,0.6521331667900085,0.2538900673389435,0.023701505735516548
8826,4472647,42.97226333618164,15.86885929107666,11.094264030456543,0.6468670964241028,0.2654598653316498,0.05602802336215973
8840,4472687,42.99557876586914,15.8821382522583,11.108920097351074,0.6427492499351501,0.27585268020629883,0.08060397207736969
8844,4472707,43.00701141357422,15.888705253601074,11.115947723388672,0.6400326490402222,0.28223806619644165,0.08800039440393448
8857,4472747,43.028770446777344,15.902664184570312,11.123501777648926,0.6388388872146606,0.2895680367946625,0.09512057900428772
8872,4472787,43.04967498779297,15.917265892028809,11.125236511230469,0.6351080536842346,0.2948604226112366,0.0902799665927887
8876,4472807,43.06031036376953,15.924468994140625,11.126091957092285,0.6332946419715881,0.29488301277160645,0.08458149433135986
8889,4472847,43.0817756652832,15.938718795776367,11.120186805725098,0.6266735792160034,0.29909855127334595,0.06641832739114761
8903,4472887,43.10354232788086,15.952696800231934,11.107686042785645,0.6238824129104614,0.2964571416378021,0.03874009847640991
8907,4472907,43.11454772949219,15.959548950195312,11.101720809936523,0.6223855018615723,0.297247976064682,0.02328423224389553
8920,4472947,43.1364860534668,15.974098205566406,11.08415699005127,0.6190001368522644,0.2989192008972168,-0.009546061977744102
8934,4472987,43.15909194946289,15.989459037780762,11.061960220336914,0.6160554885864258,0.298546701669693,-0.04279565066099167
8938,4473007,43.17020797729492,15.996856689453125,11.0514554977417,0.617725133895874,0.29975512623786926,-0.05735396966338158
8951,4473047,43.192710876464844,16.011322021484375,11.0293607711792,0.6178796291351318,0.29771167039871216,-0.08256444334983826
8965,4473087,43.21564483642578,16.02547836303711,11.006880760192871,0.6221492886543274,0.30012956261634827,-0.10223323106765747
8970,4473107,43.227291107177734,16.032489776611328,10.996345520019531,0.6239516139030457,0.30119866132736206,-0.10751061886548996
8983,4473147,43.250099182128906,16.047189712524414,10.979287147521973,0.6308797597885132,0.30248183012008667,-0.10916008055210114
8988,4473167,43.26130294799805,16.054841995239258,10.97265625,0.6339116096496582,0.3048156797885895,-0.10643257200717926
9001,4473207,43.28428268432617,16.070043563842773,10.960586547851562,0.6432194709777832,0.31237682700157166,-0.09169753640890121
9014,4473247,43.30872344970703,16.085477828979492,10.95443344116211,0.6535500288009644,0.31763365864753723,-0.06514463573694229
9019,4473267,43.32091522216797,16.092967987060547,10.953962326049805,0.6613526344299316,0.32009392976760864,-0.04852898791432381
9032,4473307,43.34584426879883,16.10790252685547,10.953987121582031,0.6716703176498413,0.32822367548942566,-0.009597442112863064
9045,4473347,43.37067794799805,16.123485565185547,10.958944320678711,0.6835013031959534,0.3378445506095886,0.03368654474616051
9050,4473367,43.38299560546875,16.13157844543457,10.963541030883789,0.6853713393211365,0.342121422290802,0.057227931916713715
9065,4473407,43.40817642211914,16.147762298583984,10.973433494567871,0.6945235133171082,0.34983396530151367,0.10303330421447754
9080,4473447,43.43401336669922,16.16394805908203,10.983870506286621,0.699323296546936,0.3591594099998474,0.14546604454517365
9084,4473467,43.44712448120117,16.172086715698242,10.989263534545898,0.7031109929084778,0.3654373288154602,0.16533306241035461
9097,4473507,43.47370147705078,16.18848419189453,11.00064468383789,0.7066031694412231,0.374488890171051,0.19580699503421783
9111,4473547,43.500450134277344,16.20639419555664,11.009130477905273,0.7057058215141296,0.3877924978733063,0.2138308435678482
9116,4473567,43.513160705566406,16.21567153930664,11.011733055114746,0.7047536969184875,0.3946092128753662,0.21683599054813385
9129,4473607,43.53885269165039,16.234323501586914,11.017355918884277,0.7031962275505066,0.4067775309085846,0.21467451751232147
9143,4473647,43.56486892700195,16.25308609008789,11.018157958984375,0.7031615972518921,0.4169876277446747,0.1973828822374344
9147,4473667,43.577972412109375,16.26249122619629,11.016304969787598,0.7017779350280762,0.42327991127967834,0.18580272793769836
9160,4473707,43.60431671142578,16.28141212463379,11.012995719909668,0.6998499035835266,0.43265315890312195,0.1575407236814499
9173,4473747,43.630252838134766,16.301298141479492,11.00525188446045,0.6971790790557861,0.44111377000808716,0.12183993309736252
9179,4473767,43.643009185791016,16.311695098876953,10.999327659606934,0.6931442022323608,0.44560736417770386,0.10193409025669098
9192,4473807,43.66879653930664,16.332361221313477,10.98791217803955,0.6951362490653992,0.449664443731308,0.060969822108745575
9196,4473827,43.68251419067383,16.343107223510742,10.982375144958496,0.6970546245574951,0.455987811088562,0.041052721440792084
9210,4473867,43.7088737487793,16.36362075805664,10.969279289245605,0.700255811214447,0.4598527252674103,0.0014952224446460605
9223,4473907,43.73571014404297,16.3839054107666,10.956616401672363,0.707200288772583,0.4585769474506378,-0.027585910633206367
9227,4473927,43.7492790222168,16.393917083740234,10.950483322143555,0.7076802253723145,0.4571826457977295,-0.0412023551762104
9241,4473967,43.77490997314453,16.413908004760742,10.943520545959473,0.7181118130683899,0.45411184430122375,-0.06011784076690674
9254,4474007,43.80126953125,16.4334659576416,10.93665599822998,0.7258118987083435,0.44813236594200134,-0.0684070885181427
9258,4474027,43.814693450927734,16.44306182861328,10.93334674835205,0.7272338271141052,0.4458983540534973,-0.07038931548595428
9272,4474067,43.84191131591797,16.461957931518555,10.936983108520508,0.7284121513366699,0.44083207845687866,-0.0675484836101532
9286,4474107,43.87017822265625,16.480838775634766,10.939845085144043,0.7264111042022705,0.4328494369983673,-0.06573647260665894
9290,4474127,43.883995056152344,16.489898681640625,10.941064834594727,0.727390468120575,0.43137577176094055,-0.06409168988466263
9304,4474167,43.907752990722656,16.50762367248535,10.9531831741333,0.7203988432884216,0.4277905523777008,-0.062350597232580185
9317,4474207,43.931915283203125,16.52507781982422,10.96342658996582,0.7134983539581299,0.4234663248062134,-0.0641256719827652
9321,4474227,43.94411087036133,16.533702850341797,10.967865943908691,0.7076111435890198,0.4214174151420593,-0.06762318313121796
9335,4474267,43.96868133544922,16.550748825073242,10.981472969055176,0.6992150545120239,0.4170279800891876,-0.0754246711730957
9348,4474307,43.99337387084961,16.567495346069336,10.992587089538574,0.6910979747772217,0.4101566672325134,-0.08680592477321625
9352,4474327,44.005767822265625,16.575725555419922,10.9972505569458,0.6894525289535522,0.40727531909942627,-0.09411408007144928
9366,4474367,44.029151916503906,16.593412399291992,11.006869316101074,0.6826874017715454,0.3981049656867981,-0.10960644483566284
9381,4474407,44.05352020263672,16.610828399658203,11.014017105102539,0.6785517334938049,0.38683491945266724,-0.12417040765285492
9395,4474427,44.065494537353516,16.619102478027344,11.016845703125,0.6758942008018494,0.3818363547325134,-0.13192899525165558
9400,4474467,44.08964157104492,16.635177612304688,11.020732879638672,0.6718603372573853,0.3707723319530487,-0.1436377465724945
9412,4474487,44.10179138183594,16.642990112304688,11.022050857543945,0.668555736541748,0.3655340373516083,-0.14983871579170227
9418,4474527,44.12617492675781,16.658174514770508,11.023602485656738,0.6619206666946411,0.3539799153804779,-0.15628919005393982
9432,4474567,44.14990997314453,16.67417335510254,11.024617195129395,0.6523656845092773,0.34480321407318115,-0.1587977111339569
9444,4474587,44.16177749633789,16.681909561157227,11.0247220993042,0.6487464308738708,0.3393876254558563,-0.16097228229045868
9449,4474627,44.18547439575195,16.696861267089844,11.024158477783203,0.6374186873435974,0.32859551906585693,-0.1654975563287735
9463,4474667,44.209678649902344,16.711530685424805,11.023181915283203,0.6263014674186707,0.3192683458328247,-0.16951148211956024
9475,4474687,44.22139358520508,16.718473434448242,11.022428512573242,0.6197866201400757,0.31421253085136414,-0.17067785561084747
9480,4474727,44.244625091552734,16.731924057006836,11.02036190032959,0.6071849465370178,0.30319735407829285,-0.17128227651119232
9495,4474767,44.266841888427734,16.744850158691406,11.019940376281738,0.5958648920059204,0.2898763120174408,-0.1711205393075943
9507,4474787,44.277896881103516,16.751047134399414,11.019433975219727,0.5892869830131531,0.28327369689941406,-0.16972580552101135
9512,4474827,44.299888610839844,16.762948989868164,11.017878532409668,0.5802667140960693,0.270694375038147,-0.17033877968788147
9526,4474867,44.32179641723633,16.774202346801758,11.015660285949707,0.5729978084564209,0.2578545808792114,-0.16945259273052216
9538,4474887,44.33275604248047,16.779579162597656,11.014333724975586,0.5713034272193909,0.2506096363067627,-0.17020589113235474
9543,4474927,44.354766845703125,16.789817810058594,11.011274337768555,0.5703997611999512,0.23680035769939423,-0.16889607906341553
9557,4474967,44.37678527832031,16.799537658691406,11.007790565490723,0.5712106227874756,0.22169934213161469,-0.16518184542655945
9569,4474987,44.38764953613281,16.80404281616211,11.006046295166016,0.5745236277580261,0.21522149443626404,-0.16177521646022797
9574,4475027,44.409664154052734,16.812585830688477,11.002488136291504,0.5799562931060791,0.20079876482486725,-0.15312431752681732
9588,4475067,44.432159423828125,16.82047462463379,10.99707317352295,0.5868116021156311,0.187058225274086,-0.14249570667743683
9601,4475087,44.4435920715332,16.824190139770508,10.99453067779541,0.5908932685852051,0.17912042140960693,-0.13412807881832123
9606,4475127,44.46688461303711,16.831180572509766,10.989924430847168,0.6020376086235046,0.16896741092205048,-0.11406789720058441
9618,4475147,44.47854232788086,16.833812713623047,10.987678527832031,0.6070561408996582,0.1635749191045761,-0.10171595960855484
9632,4475187,44.5023307800293,16.83890151977539,10.983954429626465,0.618364155292511,0.15544633567333221,-0.07397827506065369
9637,4475227,44.526756286621094,16.843873977661133,10.9814453125,0.6290265917778015,0.15251976251602173,-0.04399446025490761
9649,4475247,44.539817810058594,16.846508026123047,10.979480743408203,0.6363762021064758,0.15116310119628906,-0.024478958919644356
9663,4475287,44.56501770019531,16.851543426513672,10.976981163024902,0.6431133151054382,0.1534995287656784,0.012417362071573734
9668,4475327,44.590633392333984,16.856754302978516,10.976265907287598,0.647503137588501,0.15504230558872223,0.04949615150690079
9680,4475347,44.603729248046875,16.859399795532227,10.975090980529785,0.6508621573448181,0.15789060294628143,0.06740228831768036
9696,4475387,44.63002395629883,16.864892959594727,10.97421646118164,0.6534250378608704,0.16294550895690918,0.09910967200994492
9711,4475427,44.65643310546875,16.870664596557617,10.975044250488281,0.6535961031913757,0.16978321969509125,0.12496903538703918
9714,4475447,44.66965866088867,16.87368392944336,10.972834587097168,0.6517900228500366,0.17175383865833282,0.13393838703632355
9728,4475487,44.6961555480957,16.87994384765625,10.969743728637695,0.6531743407249451,0.178475022315979,0.14281387627124786
9734,4475527,44.723350524902344,16.886751174926758,10.968098640441895,0.6543415188789368,0.18715527653694153,0.14212666451931
9746,4475547,44.73709487915039,16.889862060546875,10.96347427368164,0.6530592441558838,0.18951354920864105,0.1381588578224182
9760,4475587,44.764530181884766,16.896408081054688,10.955428123474121,0.6525476574897766,0.19872801005840302,0.12692910432815552
9765,4475627,44.791954040527344,16.903371810913086,10.948522567749023,0.6543814539909363,0.20537254214286804,0.10952179878950119
9777,4475647,44.805667877197266,16.906997680664062,10.942867279052734,0.6591788530349731,0.20820599794387817,0.09829888492822647
9791,4475687,44.83316421508789,16.914491653442383,10.932377815246582,0.6627562642097473,0.21305367350578308,0.07360754162073135
9796,4475727,44.860748291015625,16.92233657836914,10.922699928283691,0.666272759437561,0.22070609033107758,0.04827873408794403
9808,4475747,44.875099182128906,16.925704956054688,10.918169975280762,0.6681233048439026,0.22180403769016266,0.03537265956401825
9823,4475787,44.90386962890625,16.932695388793945,10.909429550170898,0.674359142780304,0.22517259418964386,0.01303347572684288
9827,4475807,44.91830062866211,16.936336517333984,10.905220031738281,0.679347574710846,0.22821028530597687,0.0016349195502698421
9840,4475847,44.94794845581055,16.94402503967285,10.900676727294922,0.6861279606819153,0.22851352393627167,-0.012015183456242085
9854,4475887,44.97703552246094,16.951749801635742,10.899499893188477,0.6917939782142639,0.2300666719675064,-0.021698031574487686
9858,4475907,44.99161911010742,16.955686569213867,10.898805618286133,0.6923694610595703,0.23230358958244324,-0.02530527487397194
9871,4475947,45.02111053466797,16.963319778442383,10.901946067810059,0.6952036619186401,0.23475845158100128,-0.027066558599472046
9885,4475987,45.050907135009766,16.970813751220703,10.908851623535156,0.6996033787727356,0.23602138459682465,-0.023588722571730614
9889,4476007,45.065792083740234,16.974672317504883,10.911983489990234,0.6988450884819031,0.23773840069770813,-0.02037269063293934
9902,4476047,45.09546661376953,16.982654571533203,10.921248435974121,0.7005399465560913,0.24228523671627045,-0.009634873829782009
9916,4476087,45.12504577636719,16.991031646728516,10.932902336120605,0.7011843919754028,0.2494419366121292,0.003366810968145728
9921,4476107,45.140506744384766,16.995635986328125,10.938356399536133,0.7019113302230835,0.25305086374282837,0.01049972977489233
9934,4476147,45.169593811035156,17.00410270690918,10.94897174835205,0.7039887309074402,0.2603811025619507,0.023371512070298195
9948,4476187,45.198326110839844,17.012554168701172,10.959209442138672,0.7042157649993896,0.2718098759651184,0.03622567281126976
9952,4476207,45.21270751953125,17.017040252685547,10.964058876037598,0.7057428956031799,0.27686524391174316,0.04191920906305313
9965,4476247,45.24143981933594,17.026538848876953,10.970480918884277,0.7047138214111328,0.29088515043258667,0.051500361412763596
9979,4476287,45.270118713378906,17.036752700805664,10.974039077758789,0.7034814357757568,0.3027763068675995,0.05820469185709953
9983,4476307,45.2844352722168,17.04213523864746,10.975845336914062,0.7036851644515991,0.31167373061180115,0.06031198427081108
9996,4476347,45.312904357910156,17.05278968811035,10.974325180053711,0.7022712230682373,0.3241181969642639,0.05880025029182434
10012,4476387,45.341888427734375,17.063880920410156,10.968488693237305,0.6995149254798889,0.33791232109069824,0.05036592856049538
10016,4476407,45.35600280761719,17.06955337524414,10.965799331665039,0.6996940970420837,0.3428686261177063,0.04425143823027611
10030,4476447,45.38425064086914,17.08140754699707,10.95576286315918,0.7007302045822144,0.3542264401912689,0.029148660600185394
10035,4476467,45.39837646484375,17.08758544921875,10.948651313781738,0.70069420337677,0.35950520634651184,0.01900240033864975
10048,4476507,45.4266471862793,17.100345611572266,10.935320854187012,0.7020726799964905,0.36747926473617554,-0.002798510482534766
10062,4476547,45.45505142211914,17.112648010253906,10.919964790344238,0.7034487724304199,0.373008668422699,-0.02673950232565403
10067,4476567,45.46931076049805,17.11853790283203,10.911264419555664,0.7028318643569946,0.3751399517059326,-0.037908490747213364
10080,4476607,45.497894287109375,17.13066291809082,10.894859313964844,0.7060081958770752,0.3759271800518036,-0.05825270712375641
10093,4476647,45.52656936645508,17.14312744140625,10.880221366882324,0.7092521786689758,0.3769333064556122,-0.07409580796957016
10098,4476667,45.54094696044922,17.14947509765625,10.87358570098877,0.7109533548355103,0.3765830099582672,-0.0812859907746315
10111,4476707,45.57048797607422,17.162670135498047,10.860931396484375,0.7132037281990051,0.3737774193286896,-0.0888882726430893
10125,4476747,45.599464416503906,17.17460060119629,10.853528022766113,0.717524528503418,0.3676367402076721,-0.08986297249794006
10130,4476767,45.614013671875,17.18012809753418,10.852048873901367,0.7188602685928345,0.36520707607269287,-0.0888507142663002
10143,4476807,45.64319610595703,17.191356658935547,10.84913158416748,0.7231928110122681,0.36022600531578064,-0.08462265133857727
10156,4476847,45.67249298095703,17.20270347595215,10.852051734924316,0.7247823476791382,0.3535866439342499,-0.0765174999833107
10161,4476867,45.68716049194336,17.2083797454834,10.856071472167969,0.7249868512153625,0.3479112684726715,-0.07129271328449249
10174,4476907,45.71643829345703,17.219682693481445,10.863365173339844,0.7221471071243286,0.33947208523750305,-0.06097595766186714
10187,4476947,45.7451286315918,17.229963302612305,10.874760627746582,0.7203792929649353,0.33158397674560547,-0.05154437571763992
10192,4476967,45.75990676879883,17.2349910736084,10.882282257080078,0.716803789138794,0.3273438811302185,-0.04770703986287117
10205,4477007,45.787906646728516,17.244497299194336,10.8959321975708,0.7101512551307678,0.320257306098938,-0.042992305010557175
10218,4477047,45.815650939941406,17.25410270690918,10.909825325012207,0.7007487416267395,0.3137281835079193,-0.04288148880004883
10223,4477067,45.829402923583984,17.258960723876953,10.917024612426758,0.6956514120101929,0.31171053647994995,-0.04468477517366409
10237,4477107,45.85660934448242,17.26879119873047,10.9296875,0.6841709017753601,0.30854088068008423,-0.050771404057741165
10241,4477127,45.87006378173828,17.273771286010742,10.935186386108398,0.678167462348938,0.30632543563842773,-0.056289106607437134
10255,4477167,45.897151947021484,17.283384323120117,10.943571090698242,0.6666463613510132,0.30295446515083313,-0.06806481629610062
10268,4477207,45.92374801635742,17.29322052001953,10.950033187866211,0.6537185907363892,0.30213794112205505,-0.08331580460071564
10272,4477227,45.93684005737305,17.2982234954834,10.952574729919434,0.6463767290115356,0.3003341257572174,-0.08985457569360733
10286,4477267,45.963253021240234,17.30867576599121,10.953009605407715,0.632863461971283,0.2999500036239624,-0.1048612967133522
10299,4477307,45.988521575927734,17.319049835205078,10.952486038208008,0.6224228143692017,0.300966739654541,-0.11429670453071594
10303,4477327,46.00100326538086,17.3243350982666,10.951919555664062,0.6176580190658569,0.30141815543174744,-0.11595207452774048
10317,4477367,46.026832580566406,17.333358764648438,10.94896411895752,0.6138439178466797,0.30049386620521545,-0.11597011238336563
10332,4477407,46.05246353149414,17.342731475830078,10.946001052856445,0.6129911541938782,0.3011387884616852,-0.1059383898973465
10337,4477427,46.06522750854492,17.3475399017334,10.94461727142334,0.6137034296989441,0.3001801073551178,-0.09894762188196182
10351,4477467,46.0907096862793,17.357330322265625,10.942082405090332,0.6151238083839417,0.2984650135040283,-0.07781395316123962
10364,4477507,46.11625671386719,17.367345809936523,10.940433502197266,0.620573103427887,0.2966841161251068,-0.04856603592634201
10369,4477527,46.12910079956055,17.37238883972168,10.940001487731934,0.6247631907463074,0.29487618803977966,-0.03339862450957298
10383,4477567,46.15552520751953,17.380765914916992,10.940568923950195,0.6353905200958252,0.2858040928840637,0.00025514941080473363
10396,4477607,46.181663513183594,17.388896942138672,10.942259788513184,0.6451006531715393,0.2748551666736603,0.031350281089544296
10400,4477627,46.194862365722656,17.392955780029297,10.94350528717041,0.6474189758300781,0.270393431186676,0.04481136053800583
10414,4477667,46.22148513793945,17.401018142700195,10.944064140319824,0.6554345488548279,0.25931137800216675,0.0718887522816658
10427,4477707,46.24827194213867,17.409027099609375,10.945828437805176,0.6604936718940735,0.2510926127433777,0.09438132494688034
10431,4477727,46.26169967651367,17.413002014160156,10.947102546691895,0.6605453491210938,0.2470947802066803,0.10331567376852036
10446,4477767,46.2887077331543,17.4191951751709,10.942606925964355,0.6635468602180481,0.2402077615261078,0.11460062861442566
10458,4477787,46.30224609375,17.422340393066406,10.940932273864746,0.6671318411827087,0.2361297309398651,0.1181522011756897
10463,4477827,46.33003616333008,17.428922653198242,10.9385404586792,0.6693859100341797,0.2281031459569931,0.11730392277240753
10477,4477867,46.357200622558594,17.435325622558594,10.925972938537598,0.6704961657524109,0.22094345092773438,0.10720839351415634
10489,4477887,46.37081527709961,17.438560485839844,10.92037296295166,0.6734091639518738,0.21868209540843964,0.10045038908720016
10494,4477927,46.39812469482422,17.445056915283203,10.910270690917969,0.6768801808357239,0.21195851266384125,0.0853889212012291
10508,4477967,46.42686080932617,17.449918746948242,10.889979362487793,0.6801505088806152,0.208673894405365,0.06464172154664993
10520,4477987,46.44120407104492,17.452486038208008,10.880688667297363,0.6789495348930359,0.20741073787212372,0.05403657257556915
10525,4478027,46.46982192993164,17.4578800201416,10.863554954528809,0.6796330213546753,0.20657610893249512,0.03204074129462242
10539,4478067,46.498294830322266,17.4636287689209,10.842011451721191,0.6804853677749634,0.20725476741790771,0.011559370905160904
10552,4478087,46.512481689453125,17.46664810180664,10.832050323486328,0.6811147928237915,0.208199605345726,0.0016309842467308044
10557,4478127,46.54142379760742,17.473230361938477,10.813529014587402,0.6798890829086304,0.21226093173027039,-0.017763229086995125
10571,4478167,46.571250915527344,17.48003578186035,10.797097206115723,0.6798042058944702,0.21819981932640076,-0.03300255909562111
10583,4478187,46.5860481262207,17.48362922668457,10.78945255279541,0.6800188422203064,0.2223489135503769,-0.038277558982372284
10588,4478227,46.61541748046875,17.49122428894043,10.775190353393555,0.6783747673034668,0.2312995195388794,-0.05121405050158501
10602,4478267,46.64445495605469,17.499372482299805,10.767815589904785,0.6764043569564819,0.2387150228023529,-0.0617089606821537
10614,4478287,46.658878326416016,17.503644943237305,10.764225959777832,0.6750181913375854,0.24312542378902435,-0.06729056686162949
10619,4478327,46.687522888183594,17.512569427490234,10.757173538208008,0.6726118922233582,0.2497892528772354,-0.07918669283390045
10633,4478367,46.7164421081543,17.52045440673828,10.759540557861328,0.6698152422904968,0.2570185363292694,-0.08840706944465637
10647,4478387,46.731449127197266,17.52488136291504,10.760207176208496,0.6697100400924683,0.2601594030857086,-0.09445348381996155
10653,4478427,46.75992965698242,17.53359031677246,10.76097583770752,0.6671208143234253,0.26438701152801514,-0.10220681875944138
10665,4478447,46.77406692504883,17.538087844848633,10.765499114990234,0.6671026945114136,0.26535096764564514,-0.10650650411844254
10679,4478487,46.80213928222656,17.547330856323242,10.773070335388184,0.6660816073417664,0.2675052583217621,-0.11079725623130798
10685,4478527,46.829978942871094,17.556854248046875,10.778989791870117,0.6645914912223816,0.2697524130344391,-0.11313531547784805
10698,4478547,46.84394454956055,17.560997009277344,10.7854642868042,0.6608514785766602,0.26802685856819153,-0.11564697325229645
10711,4478587,46.87174987792969,17.569461822509766,10.796756744384766,0.6624082326889038,0.2649933397769928,-0.11210343986749649
10716,4478627,46.89943313598633,17.57807731628418,10.806109428405762,0.6636419296264648,0.26067978143692017,-0.10915158689022064
10728,4478647,46.91322708129883,17.582422256469727,10.812256813049316,0.6637107729911804,0.2597963213920593,-0.10794775933027267
10742,4478687,46.94144058227539,17.591506958007812,10.82298755645752,0.6663294434547424,0.2577691972255707,-0.10317292809486389
10747,4478727,46.9689826965332,17.60035514831543,10.832097053527832,0.6702011227607727,0.2523408830165863,-0.09549307078123093
10761,4478747,46.98291778564453,17.603979110717773,10.837167739868164,0.6711398363113403,0.251392662525177,-0.09332126379013062
10774,4478787,47.01079559326172,17.611356735229492,10.846138000488281,0.6756218075752258,0.2462865263223648,-0.08756822347640991
10779,4478827,47.03868865966797,17.618932723999023,10.85367488861084,0.6792948842048645,0.2429289072751999,-0.08337554335594177
10792,4478847,47.0526237487793,17.622777938842773,10.856500625610352,0.6771422028541565,0.240953728556633,-0.08257006108760834
10805,4478887,47.08047103881836,17.630592346191406,10.861428260803223,0.6785815358161926,0.23961979150772095,-0.07809790968894958
10810,4478927,47.10824203491211,17.63859748840332,10.865523338317871,0.6796656847000122,0.2385796159505844,-0.07175235450267792
10823,4478947,47.122222900390625,17.641462326049805,10.866049766540527,0.6796993613243103,0.23658575117588043,-0.06894408911466599
10836,4478987,47.15077209472656,17.64776611328125,10.866872787475586,0.6780123710632324,0.23672695457935333,-0.06194300577044487
10841,4479027,47.17849349975586,17.65427017211914,10.867630958557129,0.6767507791519165,0.23783281445503235,-0.054498277604579926
10853,4479047,47.19230270385742,17.657684326171875,10.866199493408203,0.6777998805046082,0.23868857324123383,-0.049842823296785355
10869,4479087,47.219871520996094,17.66482162475586,10.863587379455566,0.6786289811134338,0.2395821362733841,-0.045831721276044846
10872,4479107,47.2336540222168,17.668508529663086,10.862394332885742,0.6793766617774963,0.23949988186359406,-0.0424189530313015
10886,4479147,47.261512756347656,17.674726486206055,10.858970642089844,0.6819368004798889,0.23840120434761047,-0.03799936920404434
10899,4479187,47.2896614074707,17.680004119873047,10.854843139648438,0.684770941734314,0.2357955127954483,-0.03366921842098236
10903,4479207,47.303714752197266,17.68280029296875,10.852973937988281,0.6842330098152161,0.2323615700006485,-0.03114275448024273
10917,4479247,47.33243942260742,17.688817977905273,10.848858833312988,0.6841470003128052,0.2281166911125183,-0.031015122309327126
10930,4479287,47.36033630371094,17.69484519958496,10.844539642333984,0.6814407110214233,0.22184507548809052,-0.03250899165868759
10934,4479307,47.37421417236328,17.697908401489258,10.842490196228027,0.6815871000289917,0.2205597162246704,-0.033865246921777725
10948,4479347,47.40200424194336,17.703245162963867,10.838539123535156,0.6764687299728394,0.2162868082523346,-0.04088381305336952
10963,4479387,47.42966079711914,17.707977294921875,10.83468246459961,0.6681619882583618,0.2140227109193802,-0.04910429194569588
10967,4479407,47.44334030151367,17.710498809814453,10.83273696899414,0.6645585894584656,0.21188314259052277,-0.052293598651885986
10981,4479447,47.47039031982422,17.715871810913086,10.828814506530762,0.6567424535751343,0.2126707285642624,-0.05652490258216858
10995,4479487,47.49704360961914,17.721710205078125,10.824953079223633,0.6505958437919617,0.21473067998886108,-0.058081381022930145
10999,4479507,47.51025390625,17.72478485107422,10.823111534118652,0.6468096971511841,0.21701933443546295,-0.05590431019663811
11013,4479547,47.537471771240234,17.730300903320312,10.819786071777344,0.6451850533485413,0.2208685576915741,-0.051414478570222855
11027,4479587,47.56424331665039,17.734996795654297,10.817215919494629,0.6491159200668335,0.22437533736228943,-0.03657054156064987
11031,4479607,47.577674865722656,17.737611770629883,10.816205978393555,0.6579259037971497,0.22667981684207916,-0.02733662910759449
11045,4479647,47.604705810546875,17.74324607849121,10.814858436584473,0.6664767265319824,0.22899122536182404,-0.0012343593407422304
11058,4479687,47.632015228271484,17.749431610107422,10.81467056274414,0.6786485910415649,0.22958017885684967,0.03145477920770645
11062,4479707,47.645835876464844,17.752685546875,10.8151216506958,0.6792855858802795,0.23136967420578003,0.04807902127504349
11075,4479747,47.67371368408203,17.758270263671875,10.817357063293457,0.6930694580078125,0.23452694714069366,0.08647795766592026
11081,4479767,47.68775939941406,17.760622024536133,10.819120407104492,0.7007670998573303,0.23252400755882263,0.10295810550451279
11094,4479807,47.71613693237305,17.76575469970703,10.823691368103027,0.7075901627540588,0.23473921418190002,0.13575728237628937
11107,4479847,47.74546432495117,17.77170753479004,10.828218460083008,0.7132259011268616,0.23524342477321625,0.1601945161819458
11112,4479867,47.75981140136719,17.774763107299805,10.830158233642578,0.716362476348877,0.23627379536628723,0.1714990884065628
11125,4479907,47.7884407043457,17.78127098083496,10.834811210632324,0.7138664722442627,0.2396668791770935,0.18503743410110474
11138,4479947,47.81715774536133,17.787553787231445,10.835756301879883,0.7093743681907654,0.24562829732894897,0.18702146410942078
11143,4479967,47.831539154052734,17.790586471557617,10.834416389465332,0.7064858078956604,0.2483636438846588,0.18413656949996948
11156,4480007,47.8601188659668,17.7972354888916,10.832330703735352,0.7015288472175598,0.25702327489852905,0.16600409150123596
11169,4480047,47.88839340209961,17.804718017578125,10.825102806091309,0.6952405571937561,0.266606867313385,0.13718539476394653
11174,4480067,47.90243148803711,17.808765411376953,10.819085121154785,0.69521564245224,0.27304473519325256,0.11874265968799591
11188,4480107,47.93098068237305,17.817777633666992,10.807668685913086,0.6898583173751831,0.28481370210647583,0.0786014050245285
11201,4480147,47.959075927734375,17.826889038085938,10.7923583984375,0.6849098801612854,0.2974448800086975,0.03665078431367874
11206,4480167,47.9732551574707,17.831558227539062,10.782926559448242,0.6817929148674011,0.3028551936149597,0.013279602862894535
11219,4480207,48.00143051147461,17.84151268005371,10.76476001739502,0.6807730197906494,0.31458917260169983,-0.026043323799967766
11232,4480247,48.02945327758789,17.852258682250977,10.748000144958496,0.6812697052955627,0.3248489797115326,-0.06508467346429825
11237,4480267,48.0434455871582,17.85788917541504,10.740161895751953,0.6825485825538635,0.32992294430732727,-0.08192481100559235
11250,4480307,48.071380615234375,17.869626998901367,10.72485637664795,0.6846978664398193,0.3374554514884949,-0.10804634541273117
11263,4480347,48.09952926635742,17.88104248046875,10.71471118927002,0.6875929832458496,0.34211722016334534,-0.12376561760902405
