packet_index,time_boot_ms,roll_rad,pitch_rad,yaw_rad,roll_deg,pitch_deg,yaw_deg,rollspeed_radps,pitchspeed_radps,yawspeed_radps
13,4438647,-0.003293298650532961,0.021411960944533348,1.8576385974884033,-0.18869211335166808,1.2268149932207126,106.43485149668705,-0.03080729767680168,0.04016190767288208,-0.04334387555718422
37,4438747,-0.01488585490733385,0.03315494582056999,1.852810263633728,-0.8528966606343348,1.8996384655035685,106.158208344734,-0.11068040132522583,0.11352209746837616,-0.03966071084141731
63,4438847,-0.0314180925488472,0.04902302473783493,1.8484305143356323,-1.8001241034003637,2.8088124164433705,105.90726719462775,-0.16384761035442352,0.16059720516204834,-0.03253152593970299
87,4438947,-0.047280311584472656,0.06283067911863327,1.844178557395935,-2.7089623078537772,3.5999327374384373,105.66364800731174,-0.16031521558761597,0.1448224037885666,-0.02789919078350067
111,4439047,-0.05621355026960373,0.06763166934251785,1.839532494544983,-3.2207991818947845,3.8750092147505923,105.39744821459965,-0.0949554517865181,0.0603356808423996,-0.03353007882833481
137,4439147,-0.05529320612549782,0.06001574173569679,1.8340282440185547,-3.168067346737936,3.438648705802576,105.08207789005266,0.004764018580317497,-0.06434336304664612,-0.047822777181863785
161,4439247,-0.04571003094315529,0.041199710220098495,1.8273848295211792,-2.618991854455196,2.360569512773648,104.70143827779701,0.09471546113491058,-0.1797705739736557,-0.06382711231708527
185,4439347,-0.032480768859386444,0.018351733684539795,1.8200974464416504,-1.8610109709827962,1.051476886872198,104.28390198364497,0.13545162975788116,-0.2299475073814392,-0.07130062580108643
214,4439447,-0.02037597820162773,0.0003814046795014292,1.8130189180374146,-1.1674575544038341,0.021852878421971717,103.87833218091878,0.1238761693239212,-0.18650148808956146,-0.0656447783112526
238,4439547,-0.01261821761727333,-0.0051273019053041935,1.8076701164245605,-0.7229706144473838,-0.293772759463316,103.57186842304948,0.08119499683380127,-0.06627629697322845,-0.04650746285915375
262,4439647,-0.00943051278591156,0.0024734986945986748,1.8044359683990479,-0.5403285812768924,0.14172103583162263,103.38656539086703,0.03411116451025009,0.069449283182621,-0.023770980536937714
286,4439747,-0.009582499042153358,0.017646297812461853,1.802588701248169,-0.5490367523035414,1.0110583886850013,103.28072477948851,-0.0003826115280389786,0.15182073414325714,-0.00862032175064087
312,4439847,-0.01177611481398344,0.031916625797748566,1.8007214069366455,-0.6747216779027376,1.828687954509357,103.17373669632943,-0.021396435797214508,0.14966166019439697,-0.008329639211297035
336,4439947,-0.014305615797638893,0.03969801217317581,1.7979305982589722,-0.8196514085403853,2.2745285525819394,103.01383513767026,-0.025866275653243065,0.08549892902374268,-0.017704758793115616
360,4440047,-0.015401212498545647,0.039868440479040146,1.7944424152374268,-0.8824244755507991,2.2842933752175303,102.81397697236652,-0.012214753776788712,0.006328590214252472,-0.02580367773771286
386,4440147,-0.013958011753857136,0.034521427005529404,1.7912840843200684,-0.79973516389001,1.9779320701857785,102.6330179404962,0.012875359505414963,-0.0517110750079155,-0.02366548590362072
411,4440247,-0.010965286754071712,0.02626063860952854,1.7890217304229736,-0.628264652159015,1.504623759644284,102.5033946104277,0.030181821435689926,-0.08267571032047272,-0.01419785711914301
434,4440347,-0.008711720816791058,0.016736337915062904,1.7871664762496948,-0.49914483509838986,0.958921527037884,102.39709637637479,0.024092484265565872,-0.09506821632385254,-0.008662726730108261
463,4440447,-0.009124058298766613,0.007401765324175358,1.7845807075500488,-0.5227700325506408,0.4240899140215296,102.24894274308804,-0.0015658047050237656,-0.09454452991485596,-0.015290023759007454
489,4440567,-0.014198722317814827,-0.0018163154600188136,1.7796692848205566,-0.8135268632889995,-0.10406721012344064,101.96753894928352,-0.043576810508966446,-0.07668460160493851,-0.032951176166534424
502,4440607,-0.017220009118318558,-0.004215390421450138,1.7775311470031738,-0.9866338456564472,-0.24152408014896629,101.84503267633016,-0.059421926736831665,-0.06712676584720612,-0.03904862329363823
506,4440627,-0.018956327810883522,-0.005238767713308334,1.7764414548873901,-1.0861175786300927,-0.30015927982196877,101.78259791712708,-0.06756692379713058,-0.062214672565460205,-0.04162844642996788
521,4440667,-0.022930549457669258,-0.0069877952337265015,1.7741938829421997,-1.3138237058404472,-0.4003711749941612,101.65382153051566,-0.08436419069766998,-0.05203693360090256,-0.04608343541622162
534,4440707,-0.027636712417006493,-0.008353833109140396,1.7718154191970825,-1.5834669811112685,-0.4786393799103951,101.51754559619557,-0.10189102590084076,-0.04196116700768471,-0.04940558224916458
538,4440727,-0.030253533273935318,-0.008919491432607174,1.7706139087677002,-1.7333997719550975,-0.5110492144914874,101.44870411955101,-0.11082199960947037,-0.037043604999780655,-0.05057166516780853
552,4440767,-0.03595606982707977,-0.009751489385962486,1.7682301998138428,-2.0601310489693545,-0.5587191857822691,101.31212765690744,-0.1284085065126419,-0.027466071769595146,-0.05212438106536865
566,4440807,-0.042210545390844345,-0.010218598879873753,1.7657467126846313,-2.418486101840771,-0.5854825883538766,101.16983432592856,-0.1445438414812088,-0.018046289682388306,-0.05313105136156082
570,4440827,-0.04546790197491646,-0.010322852991521358,1.764509916305542,-2.605118886477254,-0.59145590894817,101.09897111328968,-0.15151645243167877,-0.013379229232668877,-0.05343453586101532
585,4440867,-0.05209764465689659,-0.010216725058853626,1.7621026039123535,-2.9849751614124584,-0.5853752263178604,100.96104227319044,-0.16194602847099304,-0.0038032010197639465,-0.05345732718706131
598,4440907,-0.058746837079524994,-0.009709136560559273,1.7595789432525635,-3.365945824399433,-0.5562925476362105,100.81644716846127,-0.166190966963768,0.006304904818534851,-0.05278044193983078
602,4440927,-0.06179874390363693,-0.009297304786741734,1.7583534717559814,-3.540807204888222,-0.5326963251270792,100.74623282379353,-0.16504085063934326,0.011465320363640785,-0.05245679244399071
617,4440967,-0.06725558638572693,-0.008192634209990501,1.7559534311294556,-3.8534612485796713,-0.46940336332695115,100.60872062523367,-0.15544280409812927,0.02179419994354248,-0.05170430988073349
630,4441007,-0.07151637226343155,-0.00670476583763957,1.7534818649291992,-4.09758629678109,-0.38415478512024354,100.4671103131718,-0.13520677387714386,0.03186490386724472,-0.050730571150779724
634,4441027,-0.07306303828954697,-0.005834049079567194,1.7522855997085571,-4.186203732393774,-0.33426638973138284,100.39856936485072,-0.12110026925802231,0.03662877157330513,-0.05012677609920502
649,4441067,-0.0747854933142662,-0.0038873343728482723,1.7499202489852905,-4.284893135711289,-0.22272785312034077,100.26304475133932,-0.0851045697927475,0.04544586315751076,-0.04881800711154938
662,4441107,-0.07443550229072571,-0.0017328085377812386,1.7475403547286987,-4.2648401271949545,-0.09928261591910043,100.1266868547492,-0.040070220828056335,0.05256778001785278,-0.04733126610517502
666,4441127,-0.07343386858701706,-0.00060405203839764,1.7463786602020264,-4.207450743354392,-0.03460963240645912,100.06012666128741,-0.014692725613713264,0.05540134012699127,-0.046598050743341446
681,4441167,-0.06969360262155533,0.0017306910594925284,1.7441046237945557,-3.99314928927701,0.09916129334994675,99.92983397268026,0.04057861864566803,0.05908797308802605,-0.04498199373483658
693,4441187,-0.06707358360290527,0.002870719414204359,1.7429993152618408,-3.8430332572643544,0.1644801066001778,99.8665044586959,0.06804315745830536,0.059976883232593536,-0.04406601935625076
698,4441227,-0.0604051910340786,0.005134777165949345,1.7408554553985596,-3.4609625069341847,0.29420106034904336,99.74367033666239,0.1216190904378891,0.06023912876844406,-0.04219888523221016
713,4441267,-0.052162133157253265,0.00732092559337616,1.7388317584991455,-2.988670080310024,0.41945813862976183,99.62772104531226,0.16977819800376892,0.05889078974723816,-0.040537141263484955
725,4441287,-0.047596726566553116,0.008366321213543415,1.7378168106079102,-2.727091550901695,0.47935489558680683,99.56956881471876,0.1906600445508957,0.057710789144039154,-0.03971889987587929
730,4441327,-0.03788086771965027,0.010405736975371838,1.7358522415161133,-2.1704138446293193,0.596204811412033,99.45700729719695,0.224191352725029,0.054832614958286285,-0.03824729472398758
745,4441367,-0.027897929772734642,0.012299825437366962,1.7339932918548584,-1.5984336331300588,0.7047280863087788,99.35049732727977,0.24469992518424988,0.05139041319489479,-0.037032343447208405
759,4441387,-0.022981472313404083,0.013214238919317722,1.7330217361450195,-1.3167413705548063,0.7571201195544195,99.29483128554416,0.24966996908187866,0.04967430233955383,-0.03663227707147598
764,4441427,-0.013666131533682346,0.014912853017449379,1.731076717376709,-0.7830116591506453,0.8544435383987841,99.18338991904623,0.2485557645559311,0.046033091843128204,-0.03661099076271057
779,4441467,-0.005230991635471582,0.016480615362524986,1.7291549444198608,-0.2997137433807577,0.944269704051149,99.07328043943646,0.2327970564365387,0.041914232075214386,-0.03705363720655441
791,4441487,-0.001643926603719592,0.017145995050668716,1.7281551361083984,-0.094190056222408,0.9823931519555156,99.01599564286757,0.22030633687973022,0.039588458836078644,-0.037387438118457794
797,4441527,0.004304339177906513,0.018284732475876808,1.726146936416626,0.2466204684868536,1.0476380003935335,98.90093427610954,0.18774911761283875,0.033991772681474686,-0.038357965648174286
812,4441567,0.008515107445418835,0.019181013107299805,1.7241101264953613,0.48787971872292324,1.0989910978333917,98.7842336639507,0.14790478348731995,0.02776077389717102,-0.03987909108400345
824,4441587,0.009943082928657532,0.0195285826921463,1.7230173349380493,0.5696966871606548,1.11890536813221,98.72162131982918,0.12618209421634674,0.024415679275989532,-0.04078264161944389
829,4441627,0.011473913677036762,0.020064203068614006,1.7208735942840576,0.657406828191638,1.149594155125018,98.59879402798485,0.08124108612537384,0.018020518124103546,-0.04230976104736328
844,4441667,0.011309999041259289,0.02041509561240673,1.7187663316726685,0.6480152113611647,1.1696988169469504,98.47805677402654,0.036311328411102295,0.012393590062856674,-0.043341584503650665
856,4441687,0.010631870478391647,0.020559320226311684,1.7176717519760132,0.6091613067415769,1.177962278625608,98.41534197706747,0.014598777517676353,0.010062463581562042,-0.043605364859104156
861,4441727,0.008149278350174427,0.020951837301254272,1.7155342102050781,0.46691925554232927,1.2004518504066386,98.29286985505998,-0.026686200872063637,0.007960772141814232,-0.04367893934249878
876,4441767,0.0043188040144741535,0.021532921120524406,1.7134885787963867,0.2474492425735259,1.23374550079416,98.17566380890256,-0.06466406583786011,0.009603390470147133,-0.042797308415174484
888,4441787,0.0021003871224820614,0.02195536158978939,1.7124850749969482,0.12034331746184962,1.2579495567785695,98.11816727646939,-0.08075442910194397,0.011835027486085892,-0.041936617344617844
893,4441827,-0.002715504029765725,0.023097291588783264,1.7105655670166016,-0.1555869201563435,1.3233773262202968,98.00818757045384,-0.10604511201381683,0.01917881704866886,-0.040000248700380325
906,4441847,-0.005210627801716328,0.023883404210209846,1.7096742391586304,-0.29854698165187554,1.3684182616500054,97.95711824602967,-0.11479650437831879,0.024227458983659744,-0.03871958702802658
920,4441887,-0.010093441233038902,0.025853682309389114,1.7079650163650513,-0.5783115834164507,1.4813068812000356,97.85918699371003,-0.12385722249746323,0.036601535975933075,-0.03572135418653488
925,4441927,-0.014541332609951496,0.02835260145366192,1.7063465118408203,-0.8331569870461748,1.6244844015113107,97.76645351534876,-0.12196735292673111,0.050375014543533325,-0.032647281885147095
937,4441947,-0.016512807458639145,0.0298092532902956,1.7056019306182861,-0.9461141752921697,1.7079444039704006,97.72379215379286,-0.11733763664960861,0.057423003017902374,-0.031060855835676193
952,4441987,-0.019826170057058334,0.03299475833773613,1.7041479349136353,-1.135955868178089,1.890460398806364,97.64048433648621,-0.10222361981868744,0.07060442864894867,-0.027981286868453026
957,4442027,-0.022219231352210045,0.03651580214500427,1.7027682065963745,-1.2730681805063928,2.092201348443503,97.56143172703248,-0.08066880702972412,0.08101128786802292,-0.024917056784033775
969,4442047,-0.022997017949819565,0.038255441933870316,1.7021480798721313,-1.3176320699112583,2.1918753662185573,97.52590108297008,-0.06866434216499329,0.08456643670797348,-0.023379242047667503
984,4442087,-0.02379646524786949,0.041673775762319565,1.7009239196777344,-1.3634370260326563,2.387731467555496,97.45576187038321,-0.04318201541900635,0.08799627423286438,-0.020716745406389236
989,4442127,-0.02366337552666664,0.04484643042087555,1.6997416019439697,-1.3558115467111602,2.569511189343273,97.38802005419502,-0.017739132046699524,0.0861300677061081,-0.018718626350164413
1002,4442147,-0.023270320147275925,0.04629923030734062,1.6991602182388306,-1.3332911323571588,2.652750491314807,97.35470922161288,-0.005525752902030945,0.08348890393972397,-0.018052170053124428
1017,4442187,-0.02195916883647442,0.04885141924023628,1.698012113571167,-1.2581676959451868,2.7989801456897254,97.28892766971649,0.016767917200922966,0.07528100907802582,-0.017403120175004005
1021,4442227,-0.020135387778282166,0.050890129059553146,1.6967700719833374,-1.1536727385548675,2.9157896139884607,97.21776392875412,0.034850846976041794,0.06402191519737244,-0.017642337828874588
1033,4442247,-0.01907515898346901,0.051704492419958115,1.6961297988891602,-1.092926103293832,2.9624491975297564,97.18107898272198,0.04215915873646736,0.05765446275472641,-0.018369445577263832
1048,4442287,-0.016817746683955193,0.05292404815554619,1.694743275642395,-0.9635859059107681,3.0323245940599257,97.10163705248557,0.05294159799814224,0.044013313949108124,-0.02067701891064644
1053,4442327,-0.014501978643238544,0.05364512652158737,1.6932181119918823,-0.8309021708464244,3.073639341132275,97.01425161224442,0.05840666592121124,0.029938554391264915,-0.02356136217713356
1065,4442347,-0.013443599455058575,0.05380233749747276,1.6924552917480469,-0.7702615102392297,3.082646866543641,96.9705452317455,0.05891280621290207,0.02319084107875824,-0.024951312690973282
1082,4442387,-0.011620240285992622,0.05374261736869812,1.6908578872680664,-0.66579072531527,3.079225155212876,96.87902069686734,0.05549164116382599,0.010064629837870598,-0.02743115834891796
1087,4442427,-0.010339351370930672,0.053244028240442276,1.6891893148422241,-0.5924011964571292,3.0506581024527093,96.78341853905467,0.04642131179571152,-0.0020447149872779846,-0.02938637137413025
1100,4442447,-0.009941047988831997,0.05284479632973671,1.6883647441864014,-0.5695800936970885,3.0277837989223366,96.73617412056569,0.04003400728106499,-0.007691346108913422,-0.030135370790958405
1114,4442487,-0.00966063141822815,0.05179170146584511,1.686723232269287,-0.5535134076959558,2.9674459077944437,96.64212241569462,0.024674152955412865,-0.017885878682136536,-0.03079177811741829
1118,4442507,-0.009794898331165314,0.0511537566781044,1.6858941316604614,-0.5612063351355058,2.930894363894532,96.59461845001718,0.016142673790454865,-0.022505400702357292,-0.030781850218772888
1132,4442547,-0.010620820336043835,0.04968351870775223,1.6843827962875366,-0.6085281802220285,2.8466559333134724,96.50802531171976,-0.0019923150539398193,-0.03054501675069332,-0.029631007462739944
1147,4442587,-0.012181882746517658,0.047957852482795715,1.682963490486145,-0.6979704678986974,2.747782541775191,96.42670507946158,-0.02112857811152935,-0.0374598354101181,-0.027485238388180733
1151,4442607,-0.013300311751663685,0.04699801281094551,1.6822749376296997,-0.7620517295785803,2.6927877795689525,96.38725390681559,-0.031196830794215202,-0.040431901812553406,-0.02600548416376114
1164,4442647,-0.015920832753181458,0.04511014372110367,1.681042194366455,-0.9121965230909442,2.584620848447811,96.3166229206085,-0.04980085790157318,-0.04466400668025017,-0.02300686202943325
1179,4442687,-0.019048184156417847,0.043205298483371735,1.679887056350708,-1.091380559550705,2.475481255700177,96.25043838755107,-0.06616266071796417,-0.046905532479286194,-0.02038269303739071
1183,4442707,-0.020735470578074455,0.042287442833185196,1.679316759109497,-1.1880549503413596,2.422892000742252,96.21776276256172,-0.07296089828014374,-0.04711507260799408,-0.019251571968197823
1197,4442747,-0.024266453459858894,0.04056241735816002,1.6782255172729492,-1.390365367000549,2.3240553214707598,96.15523921089942,-0.08314787596464157,-0.04583503305912018,-0.017676379531621933
1211,4442787,-0.02780105359852314,0.03905458748340607,1.6771079301834106,-1.5928830372123657,2.2376630334236185,96.09120618743056,-0.08854943513870239,-0.04214414209127426,-0.017195099964737892
1215,4442807,-0.02949635311961174,0.038394637405872345,1.6765094995498657,-1.6900165447812923,2.199850679291605,96.0569186377971,-0.08919385075569153,-0.039598025381565094,-0.01734863594174385
1228,4442847,-0.03265708312392235,0.03728595748543739,1.675291895866394,-1.8711130342086566,2.136327999019782,95.98715508561459,-0.08643795549869537,-0.03337825462222099,-0.018451066687703133
1243,4442887,-0.035354893654584885,0.03640608489513397,1.6739022731781006,-2.0256861915415687,2.085915013086153,95.90753557045974,-0.0780058279633522,-0.02635706216096878,-0.02065131813287735
1247,4442907,-0.03641008585691452,0.03605082631111145,1.673173427581787,-2.0861442513101713,2.0655601955858685,95.86577579387429,-0.07182611525058746,-0.023099353536963463,-0.022056806832551956
1261,4442947,-0.03792177513241768,0.035450369119644165,1.6716567277908325,-2.1727576667316915,2.031156532736514,95.77887529706422,-0.05588792264461517,-0.017496291548013687,-0.024892345070838928
1275,4442987,-0.03859936445951462,0.03491542488336563,1.6699683666229248,-2.2115806754174554,2.000506485722905,95.68213932784933,-0.03636381775140762,-0.013546304777264595,-0.02834784984588623
1279,4443007,-0.03865780681371689,0.03464102745056152,1.669075608253479,-2.2149291756580545,1.9847846709140053,95.63098804115509,-0.026060838252305984,-0.012363655492663383,-0.030048387125134468
1292,4443047,-0.03827805444598198,0.03395490348339081,1.6672656536102295,-2.193170967726744,1.9454726633723507,95.5272852789868,-0.0061762575060129166,-0.012354815378785133,-0.03318154066801071
1305,4443087,-0.03736818581819534,0.03303525224328041,1.6654006242752075,-2.1410393354432102,1.8927805286900525,95.42042696942194,0.011065604165196419,-0.015606718137860298,-0.03549616411328316
1307,4443107,-0.03675874322652817,0.03244251012802124,1.6644244194030762,-2.1061208470851662,1.8588189071460453,95.3644945503087,0.01835552603006363,-0.018443353474140167,-0.0364595390856266
1320,4443147,-0.03536828234791756,0.03094724379479885,1.6625196933746338,-2.026453307162726,1.7731464570044,95.25536178775025,0.029645519331097603,-0.026238394901156425,-0.037963129580020905
1324,4443167,-0.034574054181575775,0.029939353466033936,1.6615585088729858,-1.9809473852609276,1.7153985949541175,95.20028997247243,0.033851977437734604,-0.031586192548274994,-0.03846731409430504
1335,4443207,-0.03305235877633095,0.02762695774435997,1.659684419631958,-1.8937606608359494,1.582908079538091,95.09291256853066,0.03843618556857109,-0.04372677952051163,-0.03841362148523331
1346,4443247,-0.03169878572225571,0.02474336326122284,1.6578419208526611,-1.816206637574805,1.4176902858271254,94.98734516471895,0.03863106295466423,-0.057366348803043365,-0.038074810057878494
1350,4443267,-0.03111264482140541,0.02309306524693966,1.6569604873657227,-1.7826232377560869,1.3231351746698787,94.93684274599588,0.037119247019290924,-0.06451864540576935,-0.03798086568713188
1361,4443307,-0.030093971639871597,0.01930122636258602,1.6551355123519897,-1.7242575637510356,1.1058788100028205,94.83227937999214,0.03216485679149628,-0.07948613166809082,-0.03753314167261124
1372,4443347,-0.029279500246047974,0.014933619648218155,1.6533757448196411,-1.6775917903508044,0.8556333786965414,94.73145212746442,0.026172444224357605,-0.09472233057022095,-0.0372103676199913
1376,4443367,-0.02892874926328659,0.012539849616587162,1.6525201797485352,-1.6574952393785112,0.718480458759188,94.68243185979124,0.02333863079547882,-0.10223695635795593,-0.037081941962242126
1389,4443407,-0.02827484905719757,0.007424351293593645,1.6506474018096924,-1.6200295173468755,0.425383994745409,94.57512958793033,0.018928442150354385,-0.11635906994342804,-0.037585511803627014
1400,4443447,-0.027667906135320663,0.0019771221559494734,1.6487737894058228,-1.5852542495179904,0.11328075511771099,94.46777950474525,0.01608888804912567,-0.1278136968612671,-0.03888688236474991
1406,4443467,-0.027361998334527016,-0.0009366032318212092,1.6477771997451782,-1.5677270236123857,-0.05366341226166833,94.41067912328394,0.015154504217207432,-0.1323990374803543,-0.03983902931213379
1417,4443507,-0.02675882913172245,-0.0064413584768772125,1.6456884145736694,-1.5331679739594135,-0.36906265505588054,94.29100054864698,0.014293084852397442,-0.13736513257026672,-0.04217004403471947
1429,4443547,-0.02609282359480858,-0.0116571681573987,1.6435446739196777,-1.4950086675619043,-0.66790653649324,94.16817325680263,0.014595630578696728,-0.1364750862121582,-0.04480086266994476
1433,4443567,-0.025673095136880875,-0.014011960476636887,1.6424368619918823,-1.4709599983811126,-0.802826198015411,94.10470030884571,0.015441492199897766,-0.1332215517759323,-0.04618120193481445
1444,4443607,-0.024733636528253555,-0.018101586028933525,1.6400703191757202,-1.4171329850795347,-1.0371444819508666,93.96910739344261,0.018517591059207916,-0.12040203809738159,-0.048854514956474304
1478,4443747,-0.021481888368725777,-0.022176852449774742,1.6318289041519165,-1.2308215394991597,-1.2706400482564533,93.49690909536295,0.0218584556132555,-0.01723480224609375,-0.04973773658275604
1504,4443847,-0.021339382976293564,-0.014353146776556969,1.6269426345825195,-1.2226565819549384,-0.8223747330285164,93.2169464714733,0.0031115692108869553,0.07444555312395096,-0.039439693093299866
1528,4443947,-0.02415715716779232,-0.001845544553361833,1.6232385635375977,-1.384103150748705,-0.10574191381098959,93.00471883358267,-0.02597864158451557,0.12719754874706268,-0.026092195883393288
1552,4444047,-0.028976231813430786,0.008615498431026936,1.6201550960540771,-1.660215789102292,0.493631698499426,92.82804916051111,-0.04746953397989273,0.11063304543495178,-0.018733913078904152
1578,4444147,-0.03334495425224304,0.011450592428445816,1.6169267892837524,-1.9105251467103341,0.6560706190744013,92.643080807598,-0.04493686556816101,0.03665152192115784,-0.021270208060741425
1602,4444247,-0.03562641516327858,0.00647720554843545,1.613155722618103,-2.041243228036742,0.371116540964071,92.42701460339381,-0.024682996794581413,-0.04546557739377022,-0.028963621705770493
1626,4444347,-0.03426379710435867,-0.0009906888008117676,1.608852505683899,-1.9631709641723232,-0.056762287097390965,92.1804584347347,0.011285176500678062,-0.07655489444732666,-0.034910619258880615
1655,4444447,-0.029993969947099686,-0.0031925702933222055,1.60443115234375,-1.7185278888110411,-0.18292080360620563,91.9271335486081,0.04181922227144241,-0.029698824509978294,-0.03497721254825592
1679,4444547,-0.024013062939047813,0.0045925467275083065,1.6000415086746216,-1.3758471595894521,0.26313354470284367,91.67562549280072,0.060062043368816376,0.07025350630283356,-0.031816091388463974
1703,4444647,-0.018682455644011497,0.021663788706064224,1.595530390739441,-1.0704258593422231,1.2412436611206588,91.41715747422909,0.055823300033807755,0.16681960225105286,-0.030875321477651596
1727,4444747,-0.015410145744681358,0.04130331054329872,1.5904988050460815,-0.8829363128517269,2.366505374049212,91.1288688497412,0.036229729652404785,0.20114222168922424,-0.03627245873212814
1753,4444847,-0.013741209171712399,0.055902913212776184,1.5848803520202637,-0.7873132909455781,3.203000989578201,90.80695520396932,0.01992666721343994,0.15544481575489044,-0.04356367141008377
1777,4444947,-0.012193848378956318,0.060282785445451736,1.5790972709655762,-0.6986560481366375,3.453949183317051,90.47560906695367,0.017527565360069275,0.052608758211135864,-0.046415023505687714
1801,4445047,-0.010206743143498898,0.053959283977746964,1.5738897323608398,-0.5848033046965776,3.0916392374727857,90.17723908325083,0.022240664809942245,-0.05712726712226868,-0.042164240032434464
1828,4445147,-0.009218861348927021,0.04114910960197449,1.5693142414093018,-0.5282018472097992,2.357670310914389,89.9150827625274,0.013455992564558983,-0.12747566401958466,-0.035693757236003876
1851,4445247,-0.011934052221477032,0.027424536645412445,1.565018653869629,-0.6837708247793582,1.5713102048839978,89.66896372597516,-0.022059164941310883,-0.13901175558567047,-0.032178401947021484
1875,4445347,-0.01987648755311966,0.017769580706954002,1.5606282949447632,-1.1388388483380691,1.018121978225558,89.41741468903275,-0.07551328837871552,-0.10093428939580917,-0.033638715744018555
1904,4445447,-0.03076634369790554,0.013818369247019291,1.5558804273605347,-1.7627816449389058,0.7917342376075747,89.14538191476949,-0.10942200571298599,-0.04232194274663925,-0.037224024534225464
1928,4445547,-0.03979464992880821,0.01538127288222313,1.5508311986923218,-2.2800654881212923,0.8812820196904086,88.85608242228443,-0.09416593611240387,0.014864150434732437,-0.039168521761894226
1952,4445647,-0.0416262149810791,0.02132049761712551,1.5457379817962646,-2.3850064355200726,1.2215745305800203,88.56426258999564,-0.025048522278666496,0.059642694890499115,-0.03823237866163254
1976,4445747,-0.03545287624001503,0.03015962429344654,1.5404422283172607,-2.0313001801524964,1.7280191837147143,88.26083826630699,0.058628007769584656,0.08894123882055283,-0.03840506076812744
2002,4445847,-0.024685582146048546,0.03952208533883095,1.5350029468536377,-1.4143796717920791,2.2644486874708813,87.94919039485765,0.10964133590459824,0.09633650630712509,-0.04074310511350632
2026,4445947,-0.014116073958575726,0.04636285826563835,1.5296590328216553,-0.8087914611209179,2.656396104784301,87.64300667474431,0.1114816665649414,0.07312797009944916,-0.04123225063085556
2050,4446047,-0.00735361548140645,0.04753391817212105,1.524792194366455,-0.4213311312466527,2.7234928949827446,87.36415737168937,0.07297766208648682,0.017237739637494087,-0.0374089814722538
2076,4446147,-0.005290300585329533,0.04107286036014557,1.5208196640014648,-0.3031118958949713,2.3533015511665196,87.13654814778788,0.024755315855145454,-0.05889569967985153,-0.028964605182409286
2100,4446247,-0.0074301548302173615,0.027344917878508568,1.5176352262496948,-0.4257165129001976,1.5667483855703697,86.95409330448932,-0.01838906854391098,-0.13365963101387024,-0.021115092560648918
2124,4446347,-0.013693246059119701,0.009230454452335835,1.5144895315170288,-0.7845652070217058,0.528866083106583,86.77385827267102,-0.05953659862279892,-0.1796686202287674,-0.020952438935637474
2153,4446447,-0.024336153641343117,-0.008349694311618805,1.511038899421692,-1.3943588932308908,-0.4784022442801487,86.57615161695584,-0.10384023934602737,-0.1787421852350235,-0.02634255774319172
2177,4446547,-0.03813205659389496,-0.021171702072024345,1.5076874494552612,-2.1848059069841823,-1.213049173835375,86.3841276786301,-0.1383650004863739,-0.13317321240901947,-0.027570370584726334
2201,4446647,-0.0510421060025692,-0.026043137535452843,1.504730463027954,-2.9244972514065806,-1.4921618660601843,86.21470483626793,-0.13253989815711975,-0.053338900208473206,-0.02222714014351368
2225,4446747,-0.05697915330529213,-0.021780120208859444,1.5018404722213745,-3.2646650046221337,-1.247908965255239,86.04912056021931,-0.06789343804121017,0.0382162481546402,-0.01709590293467045
2251,4446847,-0.052460286766290665,-0.010155661031603813,1.4982202053070068,-3.0057530237544605,-0.5818765152763743,85.84169454531519,0.03754528611898422,0.11526261270046234,-0.01938735321164131
2276,4446947,-0.0391906201839447,0.004965946078300476,1.4934531450271606,-2.2454571330402495,0.28452775157615995,85.56856211059555,0.13002127408981323,0.15271508693695068,-0.02948705293238163
2300,4447047,-0.02404875122010708,0.01903662271797657,1.4877060651779175,-1.3778919474722247,1.0907181379229194,85.23927869070924,0.1573389619588852,0.14535197615623474,-0.04197470098733902
2325,4447147,-0.014518043026328087,0.029738612473011017,1.4814103841781616,-0.8318225921979365,1.703896983278639,84.87856274026252,0.10573741793632507,0.11110182851552963,-0.0503506138920784
2349,4447247,-0.013722305186092854,0.03706847131252289,1.4754210710525513,-0.7862301723536023,2.123866959209329,84.53540037598275,0.015178187750279903,0.07451297342777252,-0.048450767993927
2373,4447347,-0.01825757883489132,0.04200947657227516,1.470766305923462,-1.0460822113666515,2.406965707145075,84.26870197946126,-0.04472111165523529,0.05044001340866089,-0.03628571331501007
2402,4447447,-0.021642271429300308,0.045599620789289474,1.467545747756958,-1.2400108119754716,2.6126658186232947,84.0841775888442,-0.03861338645219803,0.03680301457643509,-0.021295536309480667
2426,4447547,-0.02003367431461811,0.04785258695483208,1.4649865627288818,-1.14784498636726,2.741751271294658,83.93754708774236,0.012042857706546783,0.023859508335590363,-0.013507493771612644
2450,4447647,-0.014764279127120972,0.047863636165857315,1.462152123451233,-0.8459308815371267,2.7423843444533538,83.77514567984697,0.05303950980305672,0.0025757160037755966,-0.016295984387397766
2474,4447747,-0.010111892595887184,0.044781461358070374,1.4584156274795532,-0.5793687686339217,2.565788736245616,83.5610602305021,0.0507417768239975,-0.0281518641859293,-0.025167346000671387
2500,4447847,-0.00966630782932043,0.03885733708739281,1.4539345502853394,-0.5538386420943248,2.2263614182247746,83.3043134196013,0.009926892817020416,-0.05763816833496094,-0.03366977721452713
2524,4447947,-0.013392825610935688,0.03154951333999634,1.449416995048523,-0.7673523832613333,1.8076539600734796,83.0454765708145,-0.03428024798631668,-0.0729704424738884,-0.03513335436582565
2548,4448047,-0.01973346807062626,0.024424975737929344,1.4455945491790771,-1.130644435603052,1.399448024492785,82.82646655507804,-0.061934009194374084,-0.07103528827428818,-0.028520209714770317
2575,4448147,-0.02727249637246132,0.018661459907889366,1.4424700736999512,-1.5625989389278812,1.0692228922746547,82.64744729693201,-0.0751757025718689,-0.058154623955488205,-0.021509790793061256
2600,4448247,-0.035285383462905884,0.014476197771728039,1.4389945268630981,-2.0217035509252166,0.8294250357167033,82.4483131316803,-0.08025781810283661,-0.04180162400007248,-0.02374029904603958
2624,4448347,-0.04193186014890671,0.010974816046655178,1.4325991868972778,-2.402518613665162,0.6288106404057929,82.08188714308744,-0.06800365447998047,-0.03181122988462448,-0.05071471631526947
2653,4448447,-0.04427840933203697,0.008465961553156376,1.4225095510482788,-2.536965978278397,0.4850638665158797,81.50379359211591,-0.02701999433338642,-0.02243233285844326,-0.08936847001314163
2677,4448547,-0.040192123502492905,0.006491747684776783,1.4081997871398926,-2.3028390463614077,0.3719497440015332,80.68390451433675,0.03707104176282883,-0.012975001707673073,-0.13055536150932312
2701,4448647,-0.030319087207317352,0.005092793609946966,1.3875230550765991,-1.7371557356683698,0.29179557978115594,79.49921503298721,0.0977475717663765,-0.00910973735153675,-0.19140174984931946
2725,4448747,-0.018909454345703125,0.0074081625789403915,1.36225163936615,-1.0834319269041026,0.424456449720036,78.05126957045786,0.11790940165519714,0.02603330835700035,-0.24314962327480316
2751,4448847,-0.009831354022026062,0.013742473907768726,1.3351153135299683,-0.5632950923610603,0.7873857549838038,76.49647262855284,0.09799528121948242,0.06441565603017807,-0.2647957503795624
2775,4448947,-0.007538277190178633,0.023051533848047256,1.3053566217422485,-0.4319114677969727,1.3207556007960697,74.79142518528587,0.03485095873475075,0.09377002716064453,-0.2878228724002838
2799,4449047,-0.012676707468926907,0.032189980149269104,1.272558331489563,-0.7263218360914799,1.8443500051630193,72.91222157856193,-0.03904883190989494,0.09708899259567261,-0.3209516108036041
2825,4449147,-0.023631907999515533,0.03871205449104309,1.2376848459243774,-1.3540085902136885,2.218037338617233,70.91411803876639,-0.09621704369783401,0.07449428737163544,-0.3428361415863037
2849,4449247,-0.03573941811919212,0.04120838642120361,1.202873706817627,-2.0477178204830913,2.3610666224791776,68.91958668790679,-0.11012694239616394,0.03788957744836807,-0.33909133076667786
2873,4449347,-0.043054841458797455,0.03925928846001625,1.169707179069519,-2.4668607031939747,2.2493915354455885,67.01928462683667,-0.06721284240484238,-0.0038657132536172867,-0.3243970274925232
2902,4449447,-0.04188772663474083,0.034081414341926575,1.1369986534118652,-2.3999899495683765,1.9527212016290267,65.14522415255773,0.01544344611465931,-0.03739412501454353,-0.31789055466651917
2926,4449547,-0.03184065222740173,0.02642238512635231,1.1033971309661865,-1.8243349895739434,1.5138911524092278,63.21999873120624,0.10561566054821014,-0.06290343403816223,-0.3224639594554901
2950,4449647,-0.01808932237327099,0.0181080661714077,1.069435954093933,-1.0364418262400017,1.0375157667652803,61.27416662912882,0.14647820591926575,-0.07553046941757202,-0.32878586649894714
2974,4449747,-0.005067411810159683,0.010705679655075073,1.0348533391952515,-0.2903413097768986,0.6133902610548726,59.29272875090812,0.1379585713148117,-0.07179111242294312,-0.33036983013153076
3000,4449847,0.0016346052289009094,0.00534856365993619,1.0006639957427979,0.09365598078603797,0.30645012417138856,57.333823666759294,0.07699888199567795,-0.055340223014354706,-0.32900992035865784
3024,4449947,0.0016962602967396379,0.0034587006084620953,0.9661366939544678,0.09718855595878989,0.19816894746420788,55.35555499631348,0.00575491227209568,-0.022495100274682045,-0.3317371904850006
3048,4450047,-0.0037935376167297363,0.005072565283626318,0.9311506152153015,-0.21735369486273076,0.2906365820563694,53.35100034284687,-0.051038242876529694,0.015773963183164597,-0.3340737223625183
3074,4450147,-0.010842952877283096,0.009546427056193352,0.8965993523597717,-0.6212554373275538,0.5469699797493778,51.37135880437789,-0.07067087292671204,0.046447478234767914,-0.33258554339408875
3098,4450247,-0.015762949362397194,0.016725704073905945,0.8616945743560791,-0.9031504711437912,0.9583122528195778,49.37146233992523,-0.04822633042931557,0.07554271817207336,-0.33472809195518494
3122,4450347,-0.016993412747979164,0.02551838383078575,0.8264098763465881,-0.9736508299830166,1.4620956934989056,47.34979806258774,-0.00870361365377903,0.09374476224184036,-0.33472970128059387
3151,4450447,-0.014999604783952236,0.0335223414003849,0.7921364307403564,-0.8594140484847022,1.9206886816387247,45.38607427997947,0.02942666783928871,0.08807786554098129,-0.32790887355804443
3175,4450547,-0.01429466437548399,0.03782049939036369,0.7585572004318237,-0.8190239382712433,2.1669549941449424,43.46212610400277,0.02180507965385914,0.05205792933702469,-0.3206327259540558
3199,4450647,-0.01599733531475067,0.03606921061873436,0.725003182888031,-0.9165797969907998,2.0666135388219313,41.539622513035525,-0.0036681685596704483,-0.00845236238092184,-0.31684109568595886
3223,4450747,-0.02106143720448017,0.028743838891386986,0.6907431483268738,-1.2067314622965248,1.6469006554804693,39.57666712670888,-0.03767509013414383,-0.06565435230731964,-0.32662180066108704
3249,4450847,-0.028407013043761253,0.018974896520376205,0.6549386382102966,-1.6276019559805983,1.087181487315028,37.525219809495546,-0.0664711743593216,-0.09017352014780045,-0.34390988945961
3273,4450947,-0.03661561384797096,0.009944573976099491,0.618077278137207,-2.097920137769508,0.5697821178861329,35.41321945019547,-0.07686483860015869,-0.0805143266916275,-0.3528737723827362
3297,4451047,-0.04541352018713951,0.00428840983659029,0.5815780162811279,-2.6020030395552585,0.24570778445901065,33.321965790499306,-0.08619067072868347,-0.045909151434898376,-0.3524249494075775
3323,4451147,-0.05261969566345215,0.002547547919675708,0.5452982783317566,-3.014886480778648,0.14596374390475092,31.243289924159722,-0.07437645643949509,-0.0026673786342144012,-0.3480238616466522
3347,4451247,-0.056622982025146484,0.004851820413023233,0.5091270804405212,-3.2442578934860165,0.2779888326216512,29.170832945059434,-0.042404480278491974,0.039896171540021896,-0.34111225605010986
3371,4451347,-0.05520471930503845,0.010718738660216331,0.47393640875816345,-3.1629974253830824,0.6141384869341063,27.15455597942979,0.012278122827410698,0.0756802037358284,-0.3326275646686554
3400,4451447,-0.049178387969732285,0.01852986589074135,0.43925631046295166,-2.817714073922601,1.061683110482901,25.167532714015316,0.06304733455181122,0.09624482691287994,-0.3259314298629761
3424,4451547,-0.041043784469366074,0.026014195755124092,0.4044771194458008,-2.351635625339271,1.490503624195752,23.174831853853263,0.08825822174549103,0.0913131982088089,-0.3241308033466339
3448,4451647,-0.03328317776322365,0.030742431059479713,0.36936327815055847,-1.9069856146163866,1.7614115516800835,21.162956945143694,0.08873820304870605,0.06230045109987259,-0.3313830494880676
3478,4451747,-0.027196083217859268,0.03182980418205261,0.332562655210495,-1.558220787669903,1.823713442359472,19.05443656722574,0.07246482372283936,0.0235790703445673,-0.3468615710735321
3499,4451847,-0.022797716781497,0.029844678938388824,0.2954396903514862,-1.306212954114349,1.709974144092658,16.92744735779207,0.05503784120082855,-0.009550944902002811,-0.35627269744873047
3523,4451947,-0.020425764843821526,0.027217509225010872,0.25958412885665894,-1.1703101188776666,1.5594484074515071,14.87307501206668,0.03447377309203148,-0.020463943481445312,-0.3459290564060211
3547,4452047,-0.020380694419145584,0.02639278955757618,0.22584891319274902,-1.1677277737628728,1.5121954512260662,12.940189533561018,0.009626422077417374,-0.004607938230037689,-0.3210737109184265
3573,4452147,-0.022658050060272217,0.028849469497799873,0.19434580206871033,-1.2982106404497387,1.6529528434153353,11.135194224621966,-0.014719454571604729,0.02886009030044079,-0.29969292879104614
3597,4452247,-0.025863222777843475,0.034590285271406174,0.16275542974472046,-1.4818535097770482,1.981877358205107,9.325199217210464,-0.024376830086112022,0.0637371689081192,-0.29789966344833374
3621,4452347,-0.02860097587108612,0.04120663180947304,0.12836477160453796,-1.638715207368738,2.3609660906323318,7.354759651100777,-0.016490338370203972,0.07688041031360626,-0.32104524970054626
3650,4452447,-0.029804417863488197,0.04439049959182739,0.0912407860159874,-1.7076673544221919,2.5433882770889134,5.227711958172339,0.001157071441411972,0.04791847616434097,-0.35342884063720703
3674,4452547,-0.02884567715227604,0.04172004386782646,0.05275246500968933,-1.6527355580223644,2.390382434727107,3.0224936039667503,0.02376542240381241,-0.010439252480864525,-0.37128642201423645
3698,4452647,-0.026082126423716545,0.034540221095085144,0.014814002439379692,-1.4943957648056014,1.9790088921971132,0.8487798174729625,0.04030445218086243,-0.060181908309459686,-0.3653218150138855
3722,4452747,-0.022006426006555557,0.026409653946757317,-0.020153656601905823,-1.2608753323425679,1.5131617095502117,-1.154719465045172,0.05032980442047119,-0.07521659135818481,-0.3400316834449768
3748,4452847,-0.01809626631438732,0.020760057494044304,-0.05275791138410568,-1.0368396847591548,1.1894636768576747,-3.022805658234455,0.047027233988046646,-0.05369647592306137,-0.31448978185653687
3772,4452947,-0.01518179476261139,0.018760066479444504,-0.08542846143245697,-0.8698527653314502,1.0748726326570188,-4.8946902903759115,0.0344407893717289,-0.016468649730086327,-0.30902615189552307
3796,4453047,-0.012606270611286163,0.0195029117166996,-0.11910885572433472,-0.7222861014265015,1.11743452958313,-6.824434735637015,0.03076837584376335,0.011896159499883652,-0.32207170128822327
3822,4453147,-0.01018814742565155,0.021784303709864616,-0.15411563217639923,-0.5837378485469085,1.2481486622064244,-8.830175280698265,0.030564645305275917,0.0266796313226223,-0.33677053451538086
3846,4453247,-0.007358040194958448,0.02400370128452778,-0.18902020156383514,-0.4215846486587365,1.3753107762961945,-10.830059792319878,0.0347556434571743,0.02667338214814663,-0.33446088433265686
3870,4453347,-0.00513962097465992,0.025112798437476158,-0.22137898206710815,-0.29447859014492805,1.4388573622301122,-12.684081345347634,0.030810236930847168,0.014815475791692734,-0.313206285238266
3899,4453447,-0.004155470058321953,0.024417167529463768,-0.2512257695198059,-0.23809089623482996,1.399000647102149,-14.394176298411237,0.017688559368252754,-0.004011603072285652,-0.28721627593040466
3923,4453547,-0.004590506199747324,0.022160453721880913,-0.2804505228996277,-0.2630166310741601,1.2697004703587533,-16.068631324385713,0.002740880474448204,-0.02086893655359745,-0.2762230336666107
3947,4453647,-0.006096865516155958,0.019159814342856407,-0.3112984597682953,-0.34932466233458664,1.097776498099893,-17.836087913646374,-0.009166575968265533,-0.028108302503824234,-0.29345500469207764
3971,4453747,-0.008837701752781868,0.016894932836294174,-0.346034437417984,-0.5063630110297711,0.9680083466766456,-19.826312830234297,-0.020474838092923164,-0.02101287990808487,-0.33002349734306335
3997,4453847,-0.013797273859381676,0.015254683792591095,-0.3828602433204651,-0.7905255609287469,0.8740289991220898,-21.936276085614416,-0.042226195335388184,-0.012698046863079071,-0.35700783133506775
4021,4453947,-0.018878431990742683,0.012398982420563698,-0.4192078113555908,-1.0816544768943126,0.7104093629552014,-24.01883832959174,-0.048022203147411346,-0.019993474707007408,-0.3547433614730835
4045,4454047,-0.021683791652321815,0.007402301300317049,-0.4531942307949066,-1.2423897455190458,0.4241206231923682,-25.966116724225913,-0.02879156544804573,-0.040689460933208466,-0.32871389389038086
4071,4454147,-0.018579481169581413,0.0006888197385706007,-0.4840216338634491,-1.0645258565598015,0.03946646386540015,-27.73239681340204,0.026614313945174217,-0.060779672116041183,-0.3002049922943115
4095,4454247,-0.009098013862967491,-0.005981138441711664,-0.5131209492683411,-0.5212777962995517,-0.3426939893935323,-29.39966477282237,0.09021308273077011,-0.06441205739974976,-0.28147169947624207
4119,4454347,0.00317624700255692,-0.009185811504721642,-0.5423192977905273,0.18198554793758992,-0.5263082306232661,-31.072606911895686,0.12095054239034653,-0.03490949422121048,-0.2777261435985565
4148,4454447,0.011676368303596973,-0.006524329073727131,-0.5726988911628723,0.6690066238364353,-0.3738165200790623,-32.81322939545466,0.08951592445373535,0.018662650138139725,-0.29177576303482056
4172,4454547,0.009313161484897137,0.002817972097545862,-0.6047180891036987,0.5336048470083967,0.16145790797500584,-34.647794300857996,-0.014506470412015915,0.0858241468667984,-0.3099888563156128
4196,4454647,-0.006537472363561392,0.01618098095059395,-0.6380012035369873,-0.37456957511548267,0.927101916850616,-36.55477628693638,-0.14684025943279266,0.13205267488956451,-0.31985580921173096
4220,4454747,-0.03421037644147873,0.028202470391988754,-0.6713382005691528,-1.9601101856505112,1.61588252530362,-38.46484551851962,-0.26604464650154114,0.13181059062480927,-0.3215637505054474
4246,4454847,-0.06647473573684692,0.03280092775821686,-0.7042565941810608,-3.808721801968795,1.8793547246593347,-40.35093054083235,-0.3177442252635956,0.0702083557844162,-0.31811657547950745
4272,4454947,-0.09464389830827713,0.02708401344716549,-0.7359557151794434,-5.422695929729631,1.5517996627981505,-42.1671563883142,-0.2799644470214844,-0.02502143569290638,-0.30964067578315735
4296,4455047,-0.11059998720884323,0.013432436622679234,-0.7656451463699341,-6.336912481267607,0.7696219270564816,-43.86823549167339,-0.16627030074596405,-0.1050303652882576,-0.30175912380218506
4322,4455147,-0.11168405413627625,-0.002104220911860466,-0.7947112321853638,-6.399024940919234,-0.12056297741277429,-45.53359953586258,-0.020511649549007416,-0.12746907770633698,-0.2977180480957031
4346,4455247,-0.09920435398817062,-0.013882164843380451,-0.8250435590744019,-5.683990792843993,-0.7953894560305893,-47.27151384941564,0.1148592010140419,-0.09177608788013458,-0.30222105979919434
4370,4455347,-0.0777960941195488,-0.01754060760140419,-0.8575029969215393,-4.4573878556526685,-1.0050027856555503,-49.13130264342382,0.2063281089067459,-0.016758549958467484,-0.31717655062675476
4399,4455447,-0.051906295120716095,-0.012057004496455193,-0.8917871117591858,-2.97401164057753,-0.6908154712171388,-51.09563772796281,0.2553935647010803,0.0698939710855484,-0.33030202984809875
4423,4455547,-0.02859063632786274,0.0020694683771580458,-0.9268526434898376,-1.638122795179945,0.11857180384694369,-53.10474470251123,0.23542696237564087,0.14989621937274933,-0.33441945910453796
4447,4455647,-0.01300398726016283,0.021125881001353264,-0.9605860114097595,-0.745073586849221,1.2104238198731514,-55.03752431308476,0.16622450947761536,0.19708967208862305,-0.3272533714771271
4471,4455747,-0.007365047000348568,0.039759378880262375,-0.9930276274681091,-0.4219861090354599,2.278044605900615,-56.896291993812035,0.07259012758731842,0.19448569416999817,-0.31672435998916626
4497,4455847,-0.010669121518731117,0.052683472633361816,-1.023568868637085,-0.6112956341355001,3.0185406319846053,-58.646176213885546,-0.016869159415364265,0.13777302205562592,-0.2980487644672394
4521,4455947,-0.017792407423257828,0.05653316155076027,-1.0498241186141968,-1.0194298527299097,3.2391115593898236,-60.150491227635,-0.06043078005313873,0.04948940873146057,-0.25997719168663025
4545,4456047,-0.02157861925661564,0.051827698945999146,-1.073401689529419,-1.236363811123802,2.9695084114803763,-61.501386532247636,-0.03316718339920044,-0.03870539739727974,-0.23023882508277893
4571,4456147,-0.016586313024163246,0.04367322102189064,-1.0962454080581665,-0.950325733967423,2.502291242296358,-62.81023519232967,0.05111425369977951,-0.07873491942882538,-0.2250712662935257
4595,4456247,-0.002625188324600458,0.037555184215307236,-1.119234561920166,-0.15041221142662584,2.1517535543734327,-64.12741668319912,0.14430058002471924,-0.06445436924695969,-0.22818952798843384
4619,4456347,0.014183801598846912,0.03815781697630882,-1.1409194469451904,0.8126719690648372,2.18628186817514,-65.36986907435946,0.1775611788034439,-0.000734332948923111,-0.2133476734161377
4648,4456447,0.026950133964419365,0.04131167382001877,-1.1602624654769897,1.5441289334734032,2.3669845545081705,-66.4781423992749,0.14146384596824646,0.03125371038913727,-0.1942266821861267
4674,4456547,0.03104434162378311,0.04149181768298149,-1.1738470792770386,1.7787097528050813,2.3773060375611177,-67.25648343633287,0.05374225229024887,0.002066526561975479,-0.13767267763614655
4696,4456647,0.02848634496331215,0.03882770240306854,-1.1842197179794312,1.632147340151536,2.2246634758857917,-67.85079185639401,-0.02065204828977585,-0.02961079403758049,-0.09861341118812561
4720,4456747,0.02121369168162346,0.03479459509253502,-1.1925009489059448,1.2154550012488063,1.9935834486688626,-68.32527143765647,-0.06826555728912354,-0.04261215031147003,-0.07879739999771118
4746,4456847,0.010782412253320217,0.03057931177318096,-1.200757622718811,0.6177867150853923,1.7520655050179788,-68.79834399994989,-0.1022372618317604,-0.04453238099813461,-0.07715114951133728
4770,4456947,-0.0007855351432226598,0.024779953062534332,-1.2088598012924194,-0.04500784836586306,1.4197867270154962,-69.26256463707897,-0.11278435587882996,-0.055587902665138245,-0.07762785255908966
4794,4457047,-0.014443588443100452,0.02052484266459942,-1.2167714834213257,-0.8275566588135875,1.1759868598515935,-69.71587063191438,-0.13364502787590027,-0.04749646782875061,-0.07581225782632828
4820,4457147,-0.028248585760593414,0.02159230411052704,-1.2260022163391113,-1.6185247412953572,1.2371478954961783,-70.24475266991598,-0.13691970705986023,0.007197123020887375,-0.08878902345895767
4844,4457247,-0.04337981715798378,0.02665187604725361,-1.2347480058670044,-2.4854804392016643,1.5270400136134428,-70.74584949837396,-0.14648351073265076,0.05157032236456871,-0.08450008928775787
4868,4457347,-0.05639185383915901,0.030772937461733818,-1.2406566143035889,-3.2310152239024195,1.763159439777372,-71.08438782458565,-0.13210870325565338,0.04802742227911949,-0.05743580311536789
4896,4457447,-0.06576221436262131,0.032185181975364685,-1.2436347007751465,-3.767897334412806,1.8440750900489264,-71.2550196104309,-0.09598420560359955,0.01743081957101822,-0.027414457872509956
4921,4457547,-0.06945811212062836,0.031306132674217224,-1.2443723678588867,-3.979656677458473,1.7937092751092523,-71.29728482101494,-0.04159301146864891,-0.009372979402542114,-0.0059283580631017685
4945,4457647,-0.06791520118713379,0.029187778010964394,-1.2433514595031738,-3.8912543928046444,1.6723364933930085,-71.23879108096295,0.013410644605755806,-0.02208576910197735,0.010830007493495941
4969,4457747,-0.06547845155000687,0.024728478863835335,-1.2399001121520996,-3.751638922867237,1.4168374726762258,-71.04104344411274,0.02534572407603264,-0.04571303725242615,0.03252191096544266
4995,4457847,-0.06351236999034882,0.01788332127034664,-1.2330328226089478,-3.638990747320332,1.0246388324673965,-70.64757673659582,0.018686886876821518,-0.07286808639764786,0.06488289684057236
5019,4457947,-0.06241881102323532,0.010083992965519428,-1.2234441041946411,-3.576334433856043,0.5777702375638744,-70.09818364051667,0.008618688210844994,-0.08527854830026627,0.09401509910821915
5043,4458047,-0.05889097973704338,0.0028460463508963585,-1.212155818939209,-3.3742045903230364,0.16306644420497027,-69.45141253744066,0.029691869392991066,-0.08085399121046066,0.1113748848438263
5069,4458147,-0.051425233483314514,-0.0021259719505906105,-1.200404405593872,-2.9464488390687666,-0.12180922013203717,-68.77810614943914,0.07104972004890442,-0.0601385273039341,0.11951274424791336
5093,4458247,-0.03920372948050499,-0.005111255683004856,-1.1885751485824585,-2.2462082404055392,-0.29285337864843525,-68.1003396479096,0.11856219172477722,-0.03709947317838669,0.12174694240093231
5117,4458347,-0.023605136200785637,-0.005478369537740946,-1.177001714706421,-1.3524746791364917,-0.31388745312559196,-67.43723073233892,0.15515510737895966,-0.010611644014716148,0.1202118769288063
5145,4458447,-0.01046396791934967,-0.0018201633356511593,-1.1668716669082642,-0.5995411987390256,-0.10428767715726528,-66.85682174723874,0.1365092396736145,0.031145501881837845,0.1079944595694542
5172,4458547,-0.004219884518533945,0.0037717942614108324,-1.157999873161316,-0.24178157294459046,0.21610789237050423,-66.34850540882805,0.0692288875579834,0.05571187287569046,0.09470967948436737
5194,4458647,-0.007252165582031012,0.009686608798801899,-1.1504720449447632,-0.41551848018041315,0.5550018019656369,-65.91719262312009,-0.02583855390548706,0.05814354866743088,0.07954208552837372
5218,4458747,-0.016245940700173378,0.01678924262523651,-1.1447809934616089,-0.9308238363397441,0.9619527436471946,-65.59111939214368,-0.09294405579566956,0.06799846887588501,0.06214992702007294
5244,4458847,-0.023327646777033806,0.02637275867164135,-1.1404025554656982,-1.3365757062959944,1.5110477660020927,-65.34025337411828,-0.08025877922773361,0.09329178929328918,0.04912634938955307
5268,4458947,-0.02293204888701439,0.035608261823654175,-1.1372352838516235,-1.3139096168136013,2.0402031182921965,-65.15878207806021,-0.005873877555131912,0.09311113506555557,0.03743481636047363
5292,4459047,-0.01371105294674635,0.041626881808042526,-1.135947823524475,-0.7855854665289765,2.385044641890742,-65.08501603502407,0.08646845817565918,0.06296417117118835,0.018554722890257835
5318,4459147,-0.0019223570125177503,0.04447299242019653,-1.1365729570388794,-0.11014294353464466,2.548114767994562,-65.12083354703162,0.12107916921377182,0.029454709962010384,-0.001985996961593628
5342,4459247,0.006651417817920446,0.04538656026124954,-1.1387407779693604,0.38109816874495706,2.600458349585778,-65.2450405370883,0.09052789211273193,0.00928657315671444,-0.018342258408665657
5366,4459347,0.008879832923412323,0.044804856181144714,-1.1420249938964844,0.5087769492928417,2.5671291608702314,-65.43321224872216,0.028233615681529045,-0.005147088319063187,-0.02971048653125763
5394,4459447,0.005123624578118324,0.042459189891815186,-1.146100640296936,0.2935620641356769,2.4327323823455367,-65.66672958625573,-0.0337914302945137,-0.023057302460074425,-0.03817044571042061
5419,4459547,-0.0005123286973685026,0.0379936583340168,-1.150087833404541,-0.029354272082650405,2.176876270801209,-65.89517892342514,-0.0571432001888752,-0.042976003140211105,-0.03746170178055763
5443,4459647,-0.004067678470164537,0.03248335421085358,-1.1539599895477295,-0.23306080875665935,1.8611591007104207,-66.1170371280455,-0.03883957490324974,-0.05542115122079849,-0.036090463399887085
5467,4459747,-0.003909239079803228,0.028229273855686188,-1.159688949584961,-0.2239829003803306,1.6174182506498151,-66.44528235917797,6.227381527423859e-05,-0.04509691894054413,-0.052796896547079086
5493,4459847,-0.0034583357628434896,0.02561694011092186,-1.168080449104309,-0.19814804335008795,1.4677425523952135,-66.92607986542266,0.009867418557405472,-0.026930443942546844,-0.0793706625699997
5517,4459947,-0.008730615489184856,0.025132909417152405,-1.1777124404907227,-0.5002274200818368,1.4400096364874346,-67.47795232017053,-0.04400716722011566,-0.005785508081316948,-0.09422220289707184
5541,4460047,-0.021136131137609482,0.026547560468316078,-1.1879884004592896,-1.2110111094200666,1.5210631712028586,-68.0667214568148,-0.11676079034805298,0.014400087296962738,-0.100159652531147
5567,4460147,-0.03733373060822487,0.027013026177883148,-1.197358250617981,-2.139065197329665,1.5477323918691137,-68.6035743255778,-0.16146351397037506,0.010081455111503601,-0.09349600970745087
5591,4460247,-0.05026847869157791,0.023467278108000755,-1.204837679862976,-2.880171671570725,1.344575992248195,-69.03211405448275,-0.1361435353755951,-0.0284104086458683,-0.0760616883635521
5615,4460347,-0.055094871670007706,0.016516903415322304,-1.2110018730163574,-3.1567036195063274,0.9463488563231831,-69.38529630627494,-0.054067935794591904,-0.06566654145717621,-0.06299414485692978
5643,4460447,-0.051673803478479385,0.00912856962531805,-1.217190146446228,-2.9606908507053014,0.5230285125220435,-69.73985825627946,0.03123496100306511,-0.07277638465166092,-0.063202865421772
5668,4460547,-0.045051995664834976,0.004316443111747503,-1.2235199213027954,-2.5812892102367253,0.2473139728114479,-70.1025276408288,0.0689680352807045,-0.04853420332074165,-0.06409528851509094
5692,4460647,-0.040632814168930054,0.004788436461240053,-1.2285836935043335,-2.3280887616190635,0.27435719969561423,-70.3926604163926,0.04837337136268616,0.0017265863716602325,-0.049842167645692825
5716,4460747,-0.04075055941939354,0.011267494410276413,-1.2317020893096924,-2.3348350675283323,0.6455798753960849,-70.57133133489097,0.002123067155480385,0.06286891549825668,-0.02756803296506405
5742,4460847,-0.04335283488035202,0.01872188411653042,-1.2341492176055908,-2.483934468571714,1.072684944410205,-70.71154145817299,-0.02680390514433384,0.0793227106332779,-0.018427826464176178
5766,4460947,-0.04508261755108833,0.02102130837738514,-1.2365424633026123,-2.5830437150797723,1.2044322498671693,-70.84866433595016,-0.020381879061460495,0.030930299311876297,-0.02030469849705696
5790,4461047,-0.043150778859853745,0.0164435263723135,-1.2380192279815674,-2.472357511371954,0.9421446614456287,-70.93327671938829,0.014801066368818283,-0.04148450493812561,-0.015507484786212444
5816,4461147,-0.03549790382385254,0.007232273928821087,-1.2393854856491089,-2.033880070668057,0.4143787724039466,-71.0115575174658,0.07201537489891052,-0.0916927307844162,-0.014310155995190144
5840,4461247,-0.024034004658460617,-0.0010062656365334988,-1.2424485683441162,-1.377047031727553,-0.05765477404241478,-71.18705922818927,0.11364664882421494,-0.0853753462433815,-0.02904154732823372
5864,4461347,-0.013075055554509163,-0.0018703051609918475,-1.247257947921753,-0.7491455001724593,-0.10716059212636883,-71.46261638006428,0.11278974264860153,-0.01625535637140274,-0.04612410068511963
5892,4461447,-0.0059575410559773445,0.006252150982618332,-1.2525653839111328,-0.34134195878341356,0.35822186418260094,-71.76671006229158,0.0760309100151062,0.07669508457183838,-0.05135273188352585
5917,4461547,-0.005713488440960646,0.019330626353621483,-1.2573022842407227,-0.3273587739638256,1.107563305406875,-72.0381144591512,0.008185120299458504,0.13100431859493256,-0.045439574867486954
5941,4461647,-0.011551984585821629,0.02910953387618065,-1.262727975845337,-0.6618799617677616,1.667853434698247,-72.34898368903517,-0.054870955646038055,0.10653747618198395,-0.05080558359622955
5965,4461747,-0.020631833001971245,0.031165344640612602,-1.2683292627334595,-1.1821169546316799,1.7856427149777616,-72.66991378756656,-0.08997920900583267,0.02860630676150322,-0.055232226848602295
5991,4461847,-0.028416091576218605,0.022911522537469864,-1.2745654582977295,-1.628122117574577,1.3127335436158898,-73.02722147361743,-0.07919676601886749,-0.07316204160451889,-0.061081934720277786
6015,4461947,-0.03007478080689907,0.004509767051786184,-1.284618616104126,-1.7231580100163693,0.2583906186545045,-73.60322498670294,-0.021599633619189262,-0.17775550484657288,-0.10084834694862366
6039,4462047,-0.024290522560477257,-0.014567085541784763,-1.2988440990447998,-1.3917444248826567,-0.8346325213503092,-74.41828512073891,0.05309617519378662,-0.1924658715724945,-0.14373601973056793
6065,4462147,-0.012285291217267513,-0.026561355218291283,-1.3163886070251465,-0.7038953368385662,-1.521853552155876,-75.42351138164636,0.11476121842861176,-0.12425345182418823,-0.17453525960445404
6089,4462247,0.0014004299882799387,-0.02867003343999386,-1.3366150856018066,0.08023872783199583,-1.6426719146105853,-76.58240323850077,0.1347433477640152,-0.026728060096502304,-0.1980615258216858
6113,4462347,0.012004651129245758,-0.02116537280380726,-1.3593878746032715,0.6878158442327397,-1.2126865334791297,-77.88718793602665,0.10555773973464966,0.06905202567577362,-0.22063478827476501
6141,4462447,0.014151246286928654,-0.008519749157130718,-1.3834547996520996,0.8108066870911891,-0.4881456692137306,-79.26612116718218,0.02657891809940338,0.12400070577859879,-0.23787902295589447
6166,4462547,0.007928081788122654,0.0048691933043301105,-1.4079777002334595,0.454245626093959,0.27898422597147476,-80.67117987191301,-0.058078136295080185,0.13529901206493378,-0.24296899139881134
6190,4462647,-0.0038126155268400908,0.016319388523697853,-1.4320224523544312,-0.21844677859398404,0.9350320866421182,-82.04884268788292,-0.11177870631217957,0.11535310000181198,-0.23653948307037354
6218,4462747,-0.017889121547341347,0.025760209187865257,-1.4549657106399536,-1.0249711638591998,1.4759512658388052,-83.36339455592191,-0.13641862571239471,0.09757991135120392,-0.22666823863983154
6242,4462847,-0.030528156086802483,0.03565673157572746,-1.4764249324798584,-1.749134500090397,2.0429802305200413,-84.59291739898342,-0.12295868247747421,0.10319221019744873,-0.21260446310043335
6266,4462947,-0.04049130901694298,0.045319292694330215,-1.495892882347107,-2.319981113630847,2.5966042019031867,-85.70834876214903,-0.09231383353471756,0.10534605383872986,-0.19181911647319794
6290,4463047,-0.04754837229847908,0.05122895911335945,-1.5104912519454956,-2.7243210554196087,2.935203146043752,-86.54477372790879,-0.06434385478496552,0.07065741717815399,-0.14974886178970337
