packet_index,time_boot_ms,lat_deg,lon_deg,alt_m,relative_alt_m,heading_deg,vx_mps,vy_mps,vz_mps
50,4438787,63.4409281,10.3488364,21.71,14.851,106.05,0.01,0.1,-0.14
126,4439127,63.4409283,10.348837,21.7,14.843,105.14,0.03,0.05,0.0
212,4439447,63.4409284,10.3488375,21.68,14.82,103.87,0.05,0.03,0.0
299,4439787,63.4409286,10.3488378,21.63,14.775,103.24,0.06,0.0,-0.03
375,4440127,63.4409286,10.3488379,21.67,14.81,102.66,0.0,-0.01,-0.01
460,4440447,63.4409285,10.3488378,21.71,14.852,102.24,-0.02,-0.01,0.04
490,4440567,63.4409285,10.3488378,21.69,14.838,101.96,-0.02,0.0,0.08
503,4440607,63.4409285,10.3488378,21.69,14.832,101.84,-0.02,0.0,0.1
507,4440627,63.4409285,10.3488378,21.68,14.829,101.78,-0.01,0.01,0.1
522,4440667,63.4409285,10.3488379,21.68,14.826,101.65,-0.01,0.02,0.11
535,4440707,63.4409285,10.3488379,21.68,14.822,101.51,-0.01,0.03,0.12
539,4440727,63.4409285,10.3488379,21.68,14.82,101.44,0.0,0.03,0.13
554,4440767,63.4409285,10.3488379,21.68,14.823,101.31,0.0,0.04,0.13
567,4440807,63.4409285,10.348838,21.68,14.824,101.16,0.0,0.05,0.13
571,4440827,63.4409285,10.348838,21.68,14.825,101.09,0.0,0.06,0.13
586,4440867,63.4409285,10.3488381,21.69,14.832,100.96,0.01,0.07,0.13
599,4440907,63.4409285,10.3488382,21.69,14.838,100.81,0.02,0.08,0.12
603,4440927,63.4409285,10.3488382,21.7,14.84,100.74,0.02,0.09,0.12
618,4440967,63.4409285,10.3488383,21.71,14.85,100.6,0.03,0.1,0.11
631,4441007,63.4409285,10.3488384,21.71,14.858,100.46,0.03,0.11,0.11
635,4441027,63.4409285,10.3488384,21.72,14.862,100.39,0.04,0.11,0.1
650,4441067,63.4409285,10.3488385,21.72,14.868,100.26,0.04,0.12,0.09
663,4441107,63.4409285,10.3488386,21.73,14.874,100.12,0.04,0.13,0.09
676,4441127,63.4409285,10.3488387,21.73,14.876,100.06,0.04,0.13,0.08
682,4441167,63.4409285,10.3488388,21.73,14.877,99.92,0.04,0.14,0.08
694,4441187,63.4409285,10.3488389,21.73,14.877,99.86,0.04,0.15,0.08
699,4441227,63.4409285,10.348839,21.73,14.877,99.74,0.04,0.15,0.07
714,4441267,63.4409285,10.3488391,21.72,14.868,99.62,0.04,0.16,0.07
726,4441287,63.4409286,10.3488392,21.72,14.864,99.56,0.04,0.16,0.06
731,4441327,63.4409286,10.3488393,21.71,14.856,99.45,0.04,0.17,0.06
746,4441367,63.4409286,10.3488394,21.69,14.839,99.35,0.04,0.17,0.06
760,4441387,63.4409286,10.3488395,21.69,14.831,99.29,0.04,0.17,0.06
765,4441427,63.4409286,10.3488396,21.67,14.817,99.18,0.04,0.17,0.06
780,4441467,63.4409286,10.3488398,21.65,14.796,99.07,0.04,0.18,0.07
792,4441487,63.4409286,10.3488399,21.64,14.787,99.01,0.04,0.18,0.07
798,4441527,63.4409286,10.34884,21.62,14.769,98.9,0.05,0.18,0.07
813,4441567,63.4409286,10.3488402,21.61,14.753,98.78,0.05,0.18,0.08
825,4441587,63.4409287,10.3488402,21.6,14.745,98.72,0.05,0.18,0.08
830,4441627,63.4409287,10.3488404,21.59,14.731,98.59,0.06,0.18,0.08
845,4441667,63.4409287,10.3488405,21.58,14.725,98.47,0.06,0.18,0.08
857,4441687,63.4409287,10.3488406,21.58,14.723,98.41,0.06,0.18,0.07
862,4441727,63.4409287,10.3488408,21.57,14.718,98.29,0.06,0.17,0.06
877,4441767,63.4409287,10.3488409,21.58,14.726,98.17,0.05,0.17,0.04
890,4441787,63.4409287,10.348841,21.58,14.729,98.11,0.05,0.16,0.03
894,4441827,63.4409288,10.3488411,21.59,14.737,98.0,0.04,0.16,0.01
907,4441847,63.4409288,10.3488412,21.6,14.746,97.95,0.04,0.15,0.0
921,4441887,63.4409288,10.3488413,21.62,14.762,97.85,0.03,0.15,-0.02
926,4441927,63.4409288,10.3488415,21.63,14.778,97.76,0.03,0.14,-0.05
938,4441947,63.4409288,10.3488415,21.64,14.787,97.72,0.02,0.13,-0.06
953,4441987,63.4409288,10.3488417,21.66,14.804,97.64,0.01,0.13,-0.08
958,4442027,63.4409288,10.3488418,21.68,14.821,97.56,0.01,0.12,-0.1
970,4442047,63.4409288,10.3488418,21.68,14.825,97.52,0.0,0.11,-0.11
985,4442087,63.4409288,10.3488419,21.69,14.833,97.45,0.0,0.11,-0.12
999,4442127,63.4409288,10.348842,21.7,14.842,97.38,0.0,0.1,-0.13
1003,4442147,63.4409288,10.3488421,21.69,14.837,97.35,-0.01,0.09,-0.14
1018,4442187,63.4409288,10.3488422,21.68,14.829,97.28,-0.01,0.09,-0.14
1022,4442227,63.4409288,10.3488423,21.68,14.823,97.21,-0.02,0.08,-0.14
1034,4442247,63.4409288,10.3488423,21.67,14.811,97.18,-0.02,0.07,-0.14
1049,4442287,63.4409288,10.3488424,21.65,14.79,97.1,-0.02,0.07,-0.13
1054,4442327,63.4409288,10.3488425,21.63,14.772,97.01,-0.02,0.06,-0.13
1066,4442347,63.4409287,10.3488425,21.61,14.756,96.97,-0.03,0.05,-0.12
1083,4442387,63.4409287,10.3488426,21.58,14.727,96.87,-0.03,0.04,-0.12
1088,4442427,63.4409287,10.3488426,21.56,14.702,96.78,-0.03,0.03,-0.11
1101,4442447,63.4409287,10.3488427,21.54,14.688,96.73,-0.03,0.03,-0.1
1115,4442487,63.4409287,10.3488427,21.52,14.662,96.64,-0.02,0.02,-0.1
1119,4442507,63.4409287,10.3488427,21.51,14.65,96.59,-0.02,0.01,-0.09
1133,4442547,63.4409287,10.3488427,21.49,14.63,96.5,-0.02,0.0,-0.08
1148,4442587,63.4409287,10.3488428,21.47,14.614,96.42,-0.02,-0.01,-0.07
1152,4442607,63.4409287,10.3488428,21.46,14.607,96.38,-0.02,-0.01,-0.07
1165,4442647,63.4409287,10.3488428,21.45,14.598,96.31,-0.01,-0.02,-0.06
1180,4442687,63.4409287,10.3488428,21.45,14.595,96.25,-0.01,-0.03,-0.06
1184,4442707,63.4409286,10.3488428,21.45,14.594,96.21,-0.01,-0.04,-0.06
1198,4442747,63.4409286,10.3488427,21.45,14.598,96.15,-0.01,-0.05,-0.05
1212,4442787,63.4409286,10.3488427,21.46,14.608,96.09,-0.01,-0.06,-0.05
1216,4442807,63.4409286,10.3488427,21.47,14.612,96.05,-0.01,-0.06,-0.05
1229,4442847,63.4409286,10.3488427,21.48,14.626,95.98,-0.01,-0.07,-0.05
1244,4442887,63.4409285,10.3488426,21.5,14.644,95.9,-0.01,-0.07,-0.04
1248,4442907,63.4409285,10.3488426,21.51,14.652,95.86,-0.01,-0.08,-0.04
1262,4442947,63.4409285,10.3488426,21.53,14.67,95.77,-0.02,-0.08,-0.03
1276,4442987,63.4409285,10.3488426,21.54,14.688,95.68,-0.02,-0.08,-0.02
1280,4443007,63.4409285,10.3488426,21.55,14.696,95.63,-0.02,-0.09,-0.02
1309,4443127,63.4409284,10.3488425,21.59,14.737,95.3,-0.01,-0.09,0.0
1401,4443447,63.4409282,10.3488421,21.57,14.715,94.46,0.0,-0.05,0.09
1491,4443787,63.4409281,10.3488419,21.5,14.647,93.37,-0.01,0.0,0.16
1566,4444107,63.440928,10.3488421,21.62,14.766,92.71,0.01,0.06,0.1
1653,4444447,63.4409281,10.3488428,21.67,14.814,91.92,0.0,0.14,0.0
1740,4444787,63.4409281,10.3488437,21.51,14.654,91.0,0.0,0.09,0.01
1815,4445107,63.4409281,10.3488442,21.5,14.646,90.01,-0.02,0.04,0.0
1902,4445447,63.440928,10.3488447,21.6,14.74,89.14,0.0,0.01,-0.13
1989,4445787,63.4409279,10.3488449,21.51,14.651,88.13,-0.04,-0.01,0.04
2064,4446107,63.4409277,10.3488448,21.51,14.656,87.22,-0.04,-0.05,0.05
2150,4446447,63.4409275,10.3488447,21.6,14.741,86.57,-0.03,-0.03,0.05
2238,4446787,63.4409274,10.3488449,21.66,14.803,85.97,-0.01,0.04,0.03
2313,4447107,63.4409274,10.3488455,21.65,14.793,85.02,0.02,0.1,0.0
2399,4447447,63.4409274,10.348846,21.65,14.792,84.08,0.0,0.04,-0.09
2487,4447787,63.4409273,10.3488462,21.63,14.772,83.46,-0.02,-0.01,-0.05
2562,4448107,63.4409271,10.3488461,21.63,14.772,82.71,-0.04,-0.05,0.01
2650,4448447,63.440927,10.348846,21.65,14.795,81.5,0.0,0.0,0.05
2738,4448787,63.440927,10.3488464,21.61,14.759,77.44,0.04,0.05,0.05
2813,4449107,63.4409271,10.3488468,21.62,14.766,71.71,0.1,0.03,-0.02
2899,4449447,63.4409273,10.348847,21.67,14.813,65.14,0.08,0.0,0.0
2987,4449787,63.4409275,10.3488472,21.6,14.745,58.5,0.08,0.02,0.06
3062,4450107,63.4409277,10.3488476,21.54,14.688,52.16,0.08,0.03,0.04
3148,4450447,63.4409278,10.348848,21.55,14.691,45.38,0.04,0.05,0.01
3227,4450767,63.4409278,10.3488485,21.61,14.75,39.17,0.05,0.04,-0.04
3311,4451107,63.4409279,10.3488489,21.61,14.759,32.07,0.11,0.0,-0.05
3397,4451447,63.4409282,10.348849,21.57,14.718,25.16,0.12,-0.04,0.0
3480,4451767,63.4409284,10.3488489,21.63,14.77,18.63,0.15,-0.08,0.0
3561,4452107,63.4409287,10.3488486,21.68,14.826,11.85,0.11,-0.11,-0.04
3647,4452447,63.4409289,10.3488481,21.62,14.763,5.22,0.08,-0.14,0.02
3726,4452767,63.440929,10.3488475,21.61,14.75,358.47,0.03,-0.13,0.05
3810,4453107,63.4409291,10.3488469,21.66,14.808,351.98,0.01,-0.13,0.04
3896,4453447,63.4409291,10.3488465,21.66,14.805,345.61,0.0,-0.07,0.03
3975,4453767,63.4409291,10.3488462,21.58,14.725,339.76,0.01,-0.07,0.05
4059,4454107,63.4409292,10.348846,21.56,14.702,332.96,0.04,-0.02,0.1
4145,4454447,63.4409295,10.3488462,21.61,14.758,327.19,0.11,0.0,0.0
4224,4454767,63.4409298,10.3488464,21.58,14.724,321.16,0.06,-0.08,-0.22
4310,4455107,63.4409299,10.348846,21.49,14.634,315.14,0.0,-0.17,-0.14
4396,4455447,63.4409299,10.3488449,21.52,14.669,308.91,-0.06,-0.29,-0.01
4475,4455767,63.4409298,10.3488433,21.61,14.753,302.73,-0.11,-0.3,-0.02
4559,4456107,63.4409296,10.348842,21.52,14.663,297.72,-0.08,-0.19,0.24
4645,4456447,63.4409296,10.3488416,21.54,14.68,293.53,-0.01,-0.01,0.26
4733,4456767,63.4409297,10.3488421,21.69,14.832,291.59,0.08,0.08,-0.03
4808,4457107,63.44093,10.3488428,21.55,14.698,289.98,0.15,-0.01,-0.03
4887,4457427,63.4409303,10.3488425,21.52,14.66,288.77,0.15,-0.18,-0.08
4973,4457767,63.4409305,10.3488411,21.59,14.732,289.03,0.12,-0.39,-0.13
5057,4458107,63.4409308,10.3488382,21.58,14.721,290.96,0.14,-0.55,0.0
5134,4458427,63.4409314,10.3488348,21.59,14.732,293.04,0.2,-0.64,0.06
5222,4458767,63.4409321,10.3488307,21.66,14.803,294.47,0.23,-0.67,-0.04
5306,4459107,63.440933,10.3488267,21.62,14.764,294.91,0.3,-0.61,0.08
5383,4459427,63.440934,10.3488231,21.61,14.754,294.39,0.32,-0.58,0.05
5471,4459767,63.4409351,10.3488193,21.61,14.759,293.47,0.39,-0.58,0.06
5555,4460107,63.4409363,10.3488153,21.63,14.779,291.6,0.35,-0.6,-0.11
5632,4460427,63.4409372,10.3488115,21.6,14.747,290.34,0.34,-0.62,0.0
5720,4460767,63.4409381,10.3488072,21.61,14.754,289.4,0.27,-0.63,-0.06
5804,4461107,63.4409389,10.3488028,21.61,14.753,289.03,0.26,-0.63,0.11
5881,4461427,63.4409396,10.3487989,21.62,14.765,288.3,0.22,-0.56,0.03
5969,4461767,63.4409401,10.3487955,21.6,14.747,287.27,0.18,-0.45,-0.04
6053,4462107,63.4409404,10.3487926,21.5,14.644,285.0,0.15,-0.3,0.04
6130,4462427,63.4409406,10.3487909,21.51,14.657,281.02,0.12,-0.17,-0.05
6220,4462767,63.4409406,10.3487899,21.47,14.616,276.39,0.12,-0.07,-0.01
6304,4463107,63.4409407,10.3487896,21.42,14.562,273.11,0.12,0.02,0.07
6381,4463427,63.4409406,10.3487902,21.4,14.548,273.13,0.09,0.12,0.06
6469,4463767,63.4409405,10.3487911,21.36,14.507,276.9,0.09,0.12,0.05
6552,4464087,63.4409404,10.348792,21.35,14.491,281.91,0.05,0.09,0.02
6630,4464427,63.4409401,10.3487931,21.33,14.473,287.34,0.02,0.14,0.14
6718,4464767,63.4409399,10.3487948,21.36,14.505,293.19,0.05,0.21,0.09
6801,4465087,63.4409397,10.3487965,21.39,14.539,298.89,0.02,0.22,-0.15
6879,4465427,63.4409393,10.3487982,21.42,14.564,306.01,-0.03,0.13,-0.13
6967,4465767,63.4409387,10.3487987,21.5,14.641,312.6,-0.11,-0.01,-0.07
7050,4466087,63.440938,10.3487986,21.49,14.632,318.19,-0.16,-0.05,0.11
7128,4466427,63.4409374,10.3487983,21.51,14.659,323.98,-0.16,-0.04,0.11
7216,4466767,63.4409369,10.3487984,21.61,14.757,329.96,-0.13,0.05,0.13
7299,4467087,63.4409365,10.348799,21.66,14.8,335.79,-0.1,0.14,0.08
7377,4467427,63.4409361,10.3488002,21.63,14.77,341.45,-0.06,0.2,0.0
7465,4467767,63.4409359,10.3488017,21.61,14.751,347.12,-0.05,0.19,-0.17
7548,4468087,63.4409355,10.3488025,21.65,14.797,352.71,-0.1,0.07,-0.19
7626,4468427,63.440935,10.3488026,21.69,14.836,358.29,-0.12,-0.05,-0.07
7714,4468767,63.4409345,10.3488019,21.77,14.91,3.57,-0.18,-0.17,-0.11
7797,4469087,63.4409339,10.3488006,21.78,14.921,9.32,-0.18,-0.21,0.06
7876,4469427,63.4409335,10.3487992,21.79,14.935,14.13,-0.09,-0.15,0.13
7963,4469767,63.4409334,10.3487984,21.83,14.975,18.32,0.0,-0.04,0.02
8046,4470087,63.4409336,10.3487981,21.82,14.962,20.01,0.14,0.04,-0.02
8124,4470427,63.4409337,10.3487983,21.77,14.917,19.38,0.19,0.09,0.01
8163,4470567,63.4409339,10.3487984,21.79,14.938,18.73,0.19,0.09,-0.02
8176,4470607,63.4409339,10.3487984,21.8,14.947,18.51,0.19,0.09,-0.03
8180,4470627,63.4409339,10.3487985,21.81,14.951,18.4,0.19,0.09,-0.04
8194,4470667,63.440934,10.3487985,21.81,14.959,18.21,0.19,0.09,-0.05
8207,4470707,63.440934,10.3487986,21.82,14.968,18.03,0.19,0.08,-0.07
8211,4470727,63.440934,10.3487986,21.83,14.972,17.94,0.19,0.08,-0.08
8226,4470767,63.4409341,10.3487987,21.83,14.975,17.78,0.19,0.08,-0.09
8239,4470807,63.4409341,10.3487987,21.83,14.979,17.63,0.19,0.08,-0.1
8243,4470827,63.4409341,10.3487988,21.84,14.981,17.56,0.2,0.08,-0.1
8257,4470867,63.4409341,10.3487988,21.83,14.978,17.43,0.2,0.08,-0.11
8270,4470907,63.4409342,10.3487989,21.83,14.976,17.33,0.22,0.08,-0.12
8274,4470927,63.4409342,10.3487989,21.83,14.975,17.3,0.22,0.08,-0.12
8288,4470967,63.4409343,10.348799,21.82,14.965,17.26,0.24,0.08,-0.13
8301,4471007,63.4409343,10.3487991,21.81,14.956,17.26,0.26,0.09,-0.13
8315,4471027,63.4409343,10.3487991,21.81,14.953,17.27,0.26,0.09,-0.13
8329,4471067,63.4409344,10.3487992,21.79,14.938,17.31,0.29,0.09,-0.13
8343,4471107,63.4409345,10.3487993,21.78,14.926,17.36,0.31,0.09,-0.13
8346,4471127,63.4409345,10.3487994,21.78,14.921,17.39,0.32,0.09,-0.12
8360,4471167,63.4409346,10.3487995,21.76,14.905,17.46,0.35,0.09,-0.11
8363,4471187,63.4409347,10.3487995,21.75,14.898,17.5,0.36,0.1,-0.11
8377,4471227,63.4409348,10.3487996,21.74,14.886,17.59,0.38,0.1,-0.09
8382,4471267,63.4409349,10.3487997,21.73,14.876,17.7,0.4,0.1,-0.08
8394,4471287,63.4409349,10.3487998,21.73,14.872,17.76,0.41,0.1,-0.07
8399,4471327,63.4409351,10.3487999,21.72,14.863,17.9,0.43,0.11,-0.05
8413,4471367,63.4409352,10.3488,21.72,14.863,18.07,0.45,0.11,-0.04
8429,4471387,63.4409352,10.3488,21.72,14.863,18.15,0.46,0.12,-0.03
8444,4471427,63.4409353,10.3488002,21.72,14.862,18.34,0.48,0.13,-0.01
8447,4471467,63.4409355,10.3488003,21.73,14.873,18.54,0.49,0.13,0.0
8461,4471487,63.4409356,10.3488003,21.73,14.878,18.65,0.5,0.14,0.0
8465,4471527,63.4409357,10.3488005,21.74,14.887,18.87,0.52,0.14,0.01
8479,4471567,63.4409358,10.3488006,21.76,14.907,19.08,0.54,0.15,0.02
8491,4471587,63.4409359,10.3488007,21.77,14.916,19.18,0.55,0.15,0.03
8496,4471627,63.4409361,10.3488008,21.79,14.931,19.39,0.56,0.15,0.04
8510,4471667,63.4409362,10.348801,21.81,14.957,19.58,0.58,0.15,0.04
8522,4471687,63.4409363,10.3488011,21.82,14.968,19.68,0.59,0.16,0.04
8527,4471727,63.4409365,10.3488012,21.84,14.988,19.85,0.61,0.16,0.05
8542,4471767,63.4409367,10.3488014,21.87,15.015,20.02,0.62,0.16,0.04
8554,4471787,63.4409368,10.3488015,21.88,15.027,20.1,0.63,0.17,0.04
8559,4471827,63.440937,10.3488016,21.9,15.048,20.25,0.64,0.17,0.03
8571,4471847,63.4409371,10.3488017,21.92,15.06,20.33,0.65,0.17,0.03
8585,4471887,63.4409373,10.3488019,21.94,15.082,20.48,0.66,0.17,0.01
8590,4471927,63.4409375,10.3488021,21.96,15.102,20.63,0.66,0.18,0.0
8602,4471947,63.4409376,10.3488022,21.97,15.11,20.71,0.66,0.18,-0.01
8616,4471987,63.4409378,10.3488024,21.98,15.127,20.86,0.66,0.18,-0.04
8621,4472027,63.440938,10.3488026,22.0,15.142,21.02,0.66,0.19,-0.06
8633,4472047,63.4409381,10.3488027,22.0,15.146,21.1,0.66,0.19,-0.08
8647,4472087,63.4409383,10.3488029,22.01,15.156,21.25,0.66,0.19,-0.11
8653,4472127,63.4409385,10.3488031,22.02,15.166,21.4,0.66,0.2,-0.14
8665,4472147,63.4409386,10.3488032,22.02,15.167,21.46,0.66,0.2,-0.15
8679,4472187,63.4409388,10.3488034,22.02,15.169,21.59,0.66,0.2,-0.17
8684,4472227,63.440939,10.3488036,22.03,15.172,21.69,0.66,0.2,-0.19
8696,4472247,63.4409391,10.3488037,22.02,15.168,21.73,0.66,0.2,-0.2
8710,4472287,63.4409393,10.3488039,22.02,15.162,21.8,0.66,0.2,-0.2
8715,4472327,63.4409395,10.3488042,22.01,15.158,21.85,0.66,0.2,-0.2
8727,4472347,63.4409396,10.3488043,22.01,15.15,21.87,0.66,0.2,-0.19
8743,4472387,63.4409398,10.3488045,21.99,15.135,21.91,0.66,0.21,-0.17
8748,4472427,63.44094,10.3488047,21.98,15.122,21.94,0.66,0.21,-0.14
8761,4472447,63.4409402,10.3488049,21.97,15.112,21.95,0.66,0.21,-0.13
8775,4472487,63.4409404,10.3488051,21.95,15.092,21.98,0.66,0.22,-0.09
8779,4472507,63.4409405,10.3488052,21.94,15.083,21.99,0.66,0.22,-0.07
8794,4472547,63.4409407,10.3488054,21.92,15.063,22.03,0.66,0.23,-0.03
8808,4472587,63.4409409,10.3488057,21.9,15.042,22.09,0.65,0.24,0.0
8812,4472607,63.440941,10.3488058,21.89,15.032,22.12,0.65,0.25,0.02
8825,4472647,63.4409412,10.3488061,21.87,15.015,22.2,0.64,0.26,0.05
8839,4472687,63.4409414,10.3488063,21.86,15.001,22.26,0.64,0.27,0.08
8843,4472707,63.4409415,10.3488065,21.85,14.994,22.29,0.64,0.28,0.08
8856,4472747,63.4409417,10.3488068,21.84,14.986,22.32,0.63,0.28,0.09
8871,4472787,63.4409419,10.348807,21.84,14.984,22.32,0.63,0.29,0.09
8875,4472807,63.440942,10.3488072,21.84,14.983,22.3,0.63,0.29,0.08
8888,4472847,63.4409422,10.3488075,21.84,14.989,22.26,0.62,0.29,0.06
8902,4472887,63.4409424,10.3488078,21.86,15.002,22.19,0.62,0.29,0.03
8906,4472907,63.4409425,10.3488079,21.86,15.008,22.15,0.62,0.29,0.02
8919,4472947,63.4409427,10.3488082,21.88,15.025,22.07,0.61,0.29,0.0
8933,4472987,63.4409429,10.3488085,21.9,15.048,21.98,0.61,0.29,-0.04
8937,4473007,63.440943,10.3488086,21.91,15.058,21.94,0.61,0.29,-0.05
8950,4473047,63.4409432,10.3488089,21.94,15.08,21.85,0.61,0.29,-0.08
8964,4473087,63.4409434,10.3488092,21.96,15.103,21.75,0.62,0.3,-0.1
8969,4473107,63.4409435,10.3488094,21.97,15.113,21.7,0.62,0.3,-0.1
8982,4473147,63.4409437,10.3488097,21.99,15.13,21.59,0.63,0.3,-0.1
8987,4473167,63.4409438,10.3488098,21.99,15.137,21.53,0.63,0.3,-0.1
9000,4473207,63.440944,10.3488101,22.0,15.149,21.4,0.64,0.31,-0.09
9013,4473247,63.4409442,10.3488104,22.01,15.155,21.25,0.65,0.31,-0.06
9018,4473267,63.4409443,10.3488106,22.01,15.156,21.17,0.66,0.32,-0.04
9031,4473307,63.4409445,10.3488109,22.01,15.156,20.99,0.67,0.32,0.0
9044,4473347,63.4409448,10.3488112,22.01,15.151,20.81,0.68,0.33,0.03
9049,4473367,63.4409449,10.3488114,22.0,15.146,20.71,0.68,0.34,0.05
9064,4473407,63.4409451,10.3488117,21.99,15.136,20.51,0.69,0.34,0.1
9079,4473447,63.4409453,10.348812,21.98,15.126,20.3,0.69,0.35,0.14
9083,4473467,63.4409454,10.3488122,21.98,15.12,20.2,0.7,0.36,0.16
9096,4473507,63.4409457,10.3488125,21.96,15.109,19.98,0.7,0.37,0.19
9110,4473547,63.4409459,10.3488129,21.96,15.1,19.78,0.7,0.38,0.21
9115,4473567,63.440946,10.348813,21.95,15.098,19.68,0.7,0.39,0.21
9128,4473607,63.4409463,10.3488134,21.95,15.092,19.47,0.7,0.4,0.21
9142,4473647,63.4409465,10.3488138,21.95,15.091,19.26,0.7,0.41,0.19
9146,4473667,63.4409466,10.348814,21.95,15.093,19.15,0.7,0.42,0.18
9159,4473707,63.4409469,10.3488144,21.95,15.097,18.92,0.69,0.43,0.15
9172,4473747,63.4409471,10.3488148,21.96,15.104,18.67,0.69,0.44,0.12
9178,4473767,63.4409472,10.348815,21.97,15.11,18.53,0.69,0.44,0.1
9191,4473807,63.4409474,10.3488154,21.98,15.122,18.25,0.69,0.44,0.06
9195,4473827,63.4409476,10.3488156,21.98,15.127,18.1,0.69,0.45,0.04
9209,4473867,63.4409478,10.348816,22.0,15.14,17.79,0.7,0.45,0.0
9222,4473907,63.440948,10.3488164,22.01,15.153,17.46,0.7,0.45,-0.02
9226,4473927,63.4409482,10.3488166,22.01,15.159,17.28,0.7,0.45,-0.04
9240,4473967,63.4409484,10.348817,22.02,15.166,16.9,0.71,0.45,-0.06
9253,4474007,63.4409486,10.3488174,22.03,15.173,16.49,0.72,0.44,-0.06
9257,4474027,63.4409487,10.3488176,22.03,15.176,16.28,0.72,0.44,-0.07
9271,4474067,63.440949,10.348818,22.03,15.173,15.81,0.72,0.44,-0.06
9285,4474107,63.4409492,10.3488184,22.03,15.17,15.36,0.72,0.43,-0.06
9289,4474127,63.4409494,10.3488186,22.02,15.168,15.14,0.72,0.43,-0.06
9303,4474167,63.4409496,10.3488189,22.01,15.156,14.7,0.72,0.42,-0.06
9316,4474207,63.4409498,10.3488193,22.0,15.146,14.27,0.71,0.42,-0.06
9320,4474227,63.4409499,10.3488194,22.0,15.142,14.05,0.7,0.42,-0.06
9334,4474267,63.4409501,10.3488198,21.98,15.128,13.62,0.69,0.41,-0.07
9347,4474307,63.4409504,10.3488201,21.97,15.117,13.19,0.69,0.41,-0.08
9351,4474327,63.4409505,10.3488203,21.97,15.112,12.97,0.68,0.4,-0.09
9365,4474367,63.4409507,10.3488206,21.96,15.103,12.5,0.68,0.39,-0.1
9380,4474407,63.4409509,10.348821,21.95,15.095,12.02,0.67,0.38,-0.12
9394,4474427,63.440951,10.3488211,21.95,15.093,11.77,0.67,0.38,-0.13
9399,4474467,63.4409512,10.3488215,21.94,15.089,11.26,0.67,0.37,-0.14
9411,4474487,63.4409513,10.3488216,21.94,15.087,10.99,0.66,0.36,-0.14
9417,4474527,63.4409515,10.3488219,21.94,15.086,10.44,0.66,0.35,-0.15
9431,4474567,63.4409518,10.3488223,21.94,15.085,9.88,0.65,0.34,-0.15
9443,4474587,63.4409519,10.3488224,21.94,15.085,9.6,0.64,0.33,-0.16
9448,4474627,63.4409521,10.3488227,21.94,15.085,9.05,0.63,0.32,-0.16
9462,4474667,63.4409523,10.348823,21.94,15.086,8.51,0.62,0.31,-0.16
9474,4474687,63.4409524,10.3488231,21.94,15.087,8.26,0.61,0.31,-0.17
9479,4474727,63.4409526,10.3488234,21.94,15.089,7.75,0.6,0.3,-0.17
9494,4474767,63.4409528,10.3488237,21.95,15.09,7.27,0.59,0.28,-0.17
9506,4474787,63.4409529,10.3488238,21.95,15.09,7.03,0.58,0.28,-0.16
9511,4474827,63.4409531,10.348824,21.95,15.092,6.59,0.58,0.27,-0.17
9525,4474867,63.4409533,10.3488243,21.95,15.094,6.21,0.57,0.25,-0.16
9537,4474887,63.4409534,10.3488244,21.95,15.095,6.03,0.57,0.25,-0.17
9542,4474927,63.4409536,10.3488246,21.95,15.098,5.72,0.57,0.23,-0.16
9556,4474967,63.4409538,10.3488248,21.96,15.102,5.47,0.57,0.22,-0.16
9568,4474987,63.4409539,10.3488249,21.96,15.103,5.36,0.57,0.21,-0.16
9573,4475027,63.4409541,10.348825,21.96,15.107,5.18,0.57,0.2,-0.15
9587,4475067,63.4409543,10.3488252,21.97,15.112,5.04,0.58,0.18,-0.14
9600,4475087,63.4409544,10.3488253,21.97,15.115,4.98,0.59,0.17,-0.13
9605,4475127,63.4409546,10.3488254,21.98,15.12,4.88,0.6,0.16,-0.11
9617,4475147,63.4409547,10.3488255,21.98,15.122,4.84,0.6,0.16,-0.1
9631,4475187,63.4409549,10.3488256,21.98,15.126,4.77,0.61,0.15,-0.07
9636,4475227,63.4409551,10.3488257,21.98,15.128,4.73,0.62,0.15,-0.04
9648,4475247,63.4409553,10.3488257,21.99,15.13,4.73,0.63,0.15,-0.02
9662,4475287,63.4409555,10.3488258,21.99,15.133,4.73,0.64,0.15,0.01
9667,4475327,63.4409557,10.3488259,21.99,15.133,4.76,0.64,0.15,0.04
9679,4475347,63.4409558,10.348826,21.99,15.134,4.78,0.65,0.15,0.06
9695,4475387,63.4409561,10.3488261,21.99,15.135,4.82,0.65,0.16,0.09
9710,4475427,63.4409563,10.3488262,21.99,15.134,4.87,0.65,0.16,0.12
9713,4475447,63.4409564,10.3488263,21.99,15.137,4.9,0.65,0.17,0.13
9727,4475487,63.4409567,10.3488264,22.0,15.14,4.95,0.65,0.17,0.14
9733,4475527,63.4409569,10.3488265,22.0,15.141,5.0,0.65,0.18,0.14
9745,4475547,63.440957,10.3488266,22.0,15.146,5.03,0.65,0.18,0.13
9759,4475587,63.4409573,10.3488267,22.01,15.154,5.08,0.65,0.19,0.12
9764,4475627,63.4409575,10.3488269,22.02,15.161,5.14,0.65,0.2,0.1
9776,4475647,63.4409576,10.3488269,22.02,15.167,5.16,0.65,0.2,0.09
9790,4475687,63.4409579,10.3488271,22.03,15.177,5.22,0.66,0.21,0.07
9795,4475727,63.4409581,10.3488272,22.04,15.187,5.27,0.66,0.22,0.04
9807,4475747,63.4409583,10.3488273,22.05,15.191,5.29,0.66,0.22,0.03
9822,4475787,63.4409585,10.3488274,22.06,15.2,5.34,0.67,0.22,0.01
9826,4475807,63.4409587,10.3488275,22.06,15.204,5.36,0.67,0.22,0.0
9839,4475847,63.4409589,10.3488277,22.06,15.209,5.39,0.68,0.22,-0.01
9853,4475887,63.4409592,10.3488278,22.07,15.21,5.43,0.69,0.23,-0.02
9857,4475907,63.4409593,10.3488279,22.07,15.211,5.44,0.69,0.23,-0.02
9870,4475947,63.4409596,10.3488281,22.06,15.208,5.46,0.69,0.23,-0.02
9884,4475987,63.4409599,10.3488282,22.06,15.201,5.48,0.69,0.23,-0.02
9888,4476007,63.44096,10.3488283,22.05,15.198,5.49,0.69,0.23,-0.02
9901,4476047,63.4409603,10.3488285,22.04,15.188,5.5,0.7,0.24,0.0
9915,4476087,63.4409605,10.3488286,22.03,15.177,5.52,0.7,0.24,0.0
9920,4476107,63.4409607,10.3488287,22.03,15.171,5.52,0.7,0.25,0.01
9933,4476147,63.4409609,10.3488289,22.02,15.161,5.52,0.7,0.26,0.02
9947,4476187,63.4409612,10.3488291,22.01,15.15,5.5,0.7,0.27,0.03
9951,4476207,63.4409613,10.3488291,22.0,15.145,5.49,0.7,0.27,0.04
9964,4476247,63.4409616,10.3488293,21.99,15.139,5.45,0.7,0.29,0.05
9978,4476287,63.4409618,10.3488295,21.99,15.135,5.4,0.7,0.3,0.05
9982,4476307,63.4409619,10.3488296,21.99,15.134,5.36,0.7,0.31,0.06
9995,4476347,63.4409622,10.3488299,21.99,15.135,5.27,0.7,0.32,0.05
10011,4476387,63.4409625,10.3488301,22.0,15.141,5.17,0.69,0.33,0.05
10015,4476407,63.4409626,10.3488302,22.0,15.144,5.1,0.69,0.34,0.04
10029,4476447,63.4409628,10.3488304,22.01,15.154,4.97,0.7,0.35,0.02
10034,4476467,63.440963,10.3488306,22.02,15.161,4.89,0.7,0.35,0.01
10047,4476507,63.4409632,10.3488308,22.03,15.174,4.71,0.7,0.36,0.0
10061,4476547,63.4409635,10.3488311,22.05,15.19,4.51,0.7,0.37,-0.02
10066,4476567,63.4409636,10.3488312,22.05,15.198,4.41,0.7,0.37,-0.03
10079,4476607,63.4409639,10.3488314,22.07,15.215,4.18,0.7,0.37,-0.05
10092,4476647,63.4409641,10.3488317,22.08,15.229,3.92,0.7,0.37,-0.07
10097,4476667,63.4409643,10.3488318,22.09,15.236,3.79,0.71,0.37,-0.08
10110,4476707,63.4409645,10.3488321,22.1,15.249,3.53,0.71,0.37,-0.08
10124,4476747,63.4409648,10.3488323,22.11,15.256,3.25,0.71,0.36,-0.08
10129,4476767,63.4409649,10.3488324,22.11,15.257,3.11,0.71,0.36,-0.08
10142,4476807,63.4409652,10.3488326,22.12,15.26,2.82,0.72,0.36,-0.08
10155,4476847,63.4409654,10.3488329,22.11,15.257,2.52,0.72,0.35,-0.07
10160,4476867,63.4409656,10.348833,22.11,15.253,2.38,0.72,0.34,-0.07
10173,4476907,63.4409658,10.3488332,22.1,15.246,2.08,0.72,0.33,-0.06
10186,4476947,63.4409661,10.3488334,22.09,15.235,1.78,0.72,0.33,-0.05
10191,4476967,63.4409662,10.3488335,22.08,15.227,1.63,0.71,0.32,-0.04
10204,4477007,63.4409665,10.3488337,22.07,15.214,1.33,0.71,0.32,-0.04
10217,4477047,63.4409667,10.3488339,22.06,15.2,1.05,0.7,0.31,-0.04
10222,4477067,63.4409668,10.348834,22.05,15.192,0.91,0.69,0.31,-0.04
10236,4477107,63.4409671,10.3488342,22.04,15.18,0.64,0.68,0.3,-0.05
10240,4477127,63.4409672,10.3488343,22.03,15.174,0.5,0.67,0.3,-0.05
10254,4477167,63.4409675,10.3488345,22.02,15.166,0.23,0.66,0.3,-0.06
10267,4477207,63.4409677,10.3488347,22.01,15.159,359.96,0.65,0.3,-0.08
10271,4477227,63.4409678,10.3488348,22.01,15.157,359.83,0.64,0.3,-0.08
10285,4477267,63.440968,10.348835,22.01,15.156,359.57,0.63,0.29,-0.1
10298,4477307,63.4409683,10.3488352,22.01,15.157,359.32,0.62,0.3,-0.11
10302,4477327,63.4409684,10.3488353,22.01,15.158,359.21,0.61,0.3,-0.11
10316,4477367,63.4409686,10.3488355,22.02,15.161,358.99,0.61,0.3,-0.11
10331,4477407,63.4409688,10.3488357,22.02,15.163,358.78,0.61,0.3,-0.1
10336,4477427,63.440969,10.3488358,22.02,15.165,358.68,0.61,0.3,-0.09
10350,4477467,63.4409692,10.348836,22.02,15.167,358.51,0.61,0.29,-0.07
10363,4477507,63.4409694,10.3488362,22.02,15.169,358.36,0.62,0.29,-0.04
10368,4477527,63.4409695,10.3488363,22.03,15.169,358.29,0.62,0.29,-0.03
10382,4477567,63.4409698,10.3488364,22.02,15.169,358.17,0.63,0.28,0.0
10395,4477607,63.44097,10.3488366,22.02,15.167,358.05,0.64,0.27,0.03
10399,4477627,63.4409701,10.3488367,22.02,15.166,358.0,0.64,0.27,0.04
10413,4477667,63.4409704,10.3488369,22.02,15.165,357.9,0.65,0.25,0.07
10426,4477707,63.4409706,10.348837,22.02,15.164,357.83,0.66,0.25,0.09
10430,4477727,63.4409707,10.3488371,22.02,15.162,357.8,0.66,0.24,0.1
10445,4477767,63.440971,10.3488372,22.02,15.167,357.77,0.66,0.24,0.11
10457,4477787,63.4409711,10.3488373,22.02,15.169,357.76,0.66,0.23,0.11
10462,4477827,63.4409713,10.3488374,22.03,15.171,357.76,0.66,0.22,0.11
10476,4477867,63.4409716,10.3488375,22.04,15.184,357.78,0.67,0.22,0.1
10488,4477887,63.4409717,10.3488376,22.04,15.189,357.78,0.67,0.21,0.1
10493,4477927,63.440972,10.3488377,22.05,15.199,357.8,0.67,0.21,0.08
10507,4477967,63.4409722,10.3488378,22.08,15.22,357.82,0.68,0.2,0.06
10519,4477987,63.4409723,10.3488379,22.08,15.229,357.82,0.67,0.2,0.05
10524,4478027,63.4409726,10.348838,22.1,15.246,357.82,0.67,0.2,0.03
10538,4478067,63.4409729,10.3488381,22.12,15.267,357.82,0.68,0.2,0.01
10551,4478087,63.440973,10.3488382,22.13,15.277,357.82,0.68,0.2,0.0
10556,4478127,63.4409732,10.3488383,22.15,15.296,357.82,0.67,0.21,-0.01
10570,4478167,63.4409735,10.3488384,22.17,15.312,357.82,0.67,0.21,-0.03
10582,4478187,63.4409736,10.3488385,22.18,15.32,357.82,0.68,0.22,-0.03
10587,4478227,63.4409739,10.3488387,22.19,15.334,357.84,0.67,0.23,-0.05
10601,4478267,63.4409742,10.3488388,22.2,15.342,357.86,0.67,0.23,-0.06
10613,4478287,63.4409743,10.3488389,22.2,15.345,357.87,0.67,0.24,-0.06
10618,4478327,63.4409746,10.3488391,22.21,15.352,357.9,0.67,0.24,-0.07
10632,4478367,63.4409748,10.3488393,22.21,15.35,357.92,0.66,0.25,-0.08
10646,4478387,63.4409749,10.3488393,22.2,15.349,357.93,0.66,0.26,-0.09
10652,4478427,63.4409752,10.3488395,22.2,15.349,357.95,0.66,0.26,-0.1
10664,4478447,63.4409753,10.3488396,22.2,15.344,357.96,0.66,0.26,-0.1
10678,4478487,63.4409756,10.3488398,22.19,15.336,357.97,0.66,0.26,-0.11
10684,4478527,63.4409758,10.34884,22.19,15.331,357.98,0.66,0.26,-0.11
10697,4478547,63.440976,10.3488401,22.18,15.324,357.99,0.66,0.26,-0.11
10710,4478587,63.4409762,10.3488402,22.17,15.313,357.99,0.66,0.26,-0.11
10715,4478627,63.4409765,10.3488404,22.16,15.303,358.0,0.66,0.26,-0.1
10727,4478647,63.4409766,10.3488405,22.15,15.297,358.01,0.66,0.25,-0.1
10741,4478687,63.4409768,10.3488407,22.14,15.287,358.02,0.66,0.25,-0.1
10746,4478727,63.4409771,10.3488409,22.13,15.277,358.04,0.67,0.25,-0.09
10760,4478747,63.4409772,10.3488409,22.13,15.272,358.04,0.67,0.25,-0.09
10773,4478787,63.4409775,10.3488411,22.12,15.263,358.05,0.67,0.24,-0.08
10778,4478827,63.4409777,10.3488412,22.11,15.256,358.06,0.67,0.24,-0.08
10791,4478847,63.4409778,10.3488413,22.11,15.253,358.06,0.67,0.24,-0.08
10804,4478887,63.4409781,10.3488415,22.1,15.248,358.07,0.67,0.23,-0.07
10809,4478927,63.4409783,10.3488416,22.1,15.244,358.06,0.67,0.23,-0.07
10822,4478947,63.4409785,10.3488417,22.1,15.243,358.05,0.67,0.23,-0.06
10835,4478987,63.4409787,10.3488418,22.1,15.243,358.04,0.67,0.23,-0.06
10840,4479027,63.440979,10.3488419,22.1,15.242,358.02,0.67,0.23,-0.05
10852,4479047,63.4409791,10.348842,22.1,15.243,358.01,0.67,0.23,-0.04
10868,4479087,63.4409793,10.3488422,22.1,15.246,357.97,0.67,0.23,-0.04
10871,4479107,63.4409795,10.3488422,22.1,15.247,357.95,0.67,0.23,-0.04
10885,4479147,63.4409797,10.3488424,22.11,15.251,357.9,0.68,0.23,-0.03
10898,4479187,63.44098,10.3488425,22.11,15.255,357.85,0.68,0.23,-0.03
10902,4479207,63.4409801,10.3488425,22.11,15.257,357.81,0.68,0.23,-0.03
10915,4479247,63.4409803,10.3488426,22.12,15.261,357.75,0.68,0.22,-0.03
10929,4479287,63.4409806,10.3488428,22.12,15.265,357.71,0.68,0.22,-0.03
10933,4479307,63.4409807,10.3488428,22.12,15.267,357.69,0.68,0.22,-0.03
10947,4479347,63.440981,10.3488429,22.13,15.271,357.68,0.67,0.21,-0.04
10962,4479387,63.4409812,10.348843,22.13,15.275,357.7,0.66,0.21,-0.04
10966,4479407,63.4409813,10.3488431,22.13,15.277,357.73,0.66,0.21,-0.05
10980,4479447,63.4409816,10.3488432,22.14,15.281,357.82,0.65,0.21,-0.05
10994,4479487,63.4409818,10.3488433,22.14,15.285,357.97,0.65,0.21,-0.05
10998,4479507,63.4409819,10.3488434,22.14,15.286,358.05,0.64,0.21,-0.05
11012,4479547,63.4409822,10.3488435,22.15,15.29,358.24,0.64,0.22,-0.05
11026,4479587,63.4409824,10.3488436,22.15,15.292,358.45,0.64,0.22,-0.03
11030,4479607,63.4409825,10.3488436,22.15,15.293,358.56,0.65,0.22,-0.02
11043,4479647,63.4409828,10.3488437,22.15,15.295,358.78,0.66,0.22,0.0
11057,4479687,63.440983,10.3488439,22.15,15.295,358.98,0.67,0.22,0.03
11061,4479707,63.4409832,10.3488439,22.15,15.294,359.08,0.67,0.23,0.04
11074,4479747,63.4409834,10.348844,22.15,15.292,359.26,0.69,0.23,0.08
11080,4479767,63.4409835,10.3488441,22.15,15.29,359.34,0.7,0.23,0.1
11093,4479807,63.4409838,10.3488442,22.14,15.286,359.47,0.7,0.23,0.13
11106,4479847,63.4409841,10.3488443,22.14,15.281,359.58,0.71,0.23,0.16
11111,4479867,63.4409842,10.3488444,22.13,15.279,359.62,0.71,0.23,0.17
11124,4479907,63.4409844,10.3488445,22.13,15.275,359.7,0.71,0.23,0.18
11137,4479947,63.4409847,10.3488446,22.13,15.274,359.79,0.7,0.24,0.18
11142,4479967,63.4409848,10.3488447,22.13,15.275,359.82,0.7,0.24,0.18
11155,4480007,63.4409851,10.3488448,22.13,15.277,359.9,0.7,0.25,0.16
11168,4480047,63.4409853,10.348845,22.14,15.284,359.97,0.69,0.26,0.13
11173,4480067,63.4409855,10.348845,22.15,15.29,0.0,0.69,0.27,0.11
11187,4480107,63.4409857,10.3488452,22.16,15.302,0.06,0.68,0.28,0.07
11200,4480147,63.440986,10.3488454,22.17,15.317,0.1,0.68,0.29,0.03
11205,4480167,63.4409861,10.3488455,22.18,15.327,0.11,0.68,0.3,0.01
11218,4480207,63.4409864,10.3488457,22.2,15.345,0.13,0.68,0.31,-0.02
11231,4480247,63.4409866,10.3488459,22.22,15.361,0.14,0.68,0.32,-0.06
11236,4480267,63.4409867,10.348846,22.22,15.369,0.14,0.68,0.32,-0.08
11249,4480307,63.440987,10.3488463,22.24,15.385,0.12,0.68,0.33,-0.1
11262,4480347,63.4409872,10.3488465,22.25,15.395,0.1,0.68,0.34,-0.12
11267,4480367,63.4409874,10.3488466,22.25,15.398,0.08,0.69,0.34,-0.12
11282,4480407,63.4409876,10.3488468,22.26,15.403,0.04,0.69,0.34,-0.12
11287,4480427,63.4409878,10.348847,22.26,15.406,0.02,0.7,0.34,-0.12
11301,4480467,63.440988,10.3488472,22.25,15.399,359.97,0.7,0.34,-0.12
11314,4480507,63.4409883,10.3488474,22.25,15.393,359.91,0.7,0.34,-0.12
11319,4480527,63.4409884,10.3488476,22.25,15.391,359.88,0.7,0.34,-0.12
11333,4480567,63.4409887,10.3488478,22.23,15.375,359.83,0.7,0.34,-0.11
11346,4480607,63.4409889,10.348848,22.22,15.362,359.78,0.7,0.34,-0.11
11350,4480627,63.440989,10.3488481,22.21,15.357,359.75,0.69,0.33,-0.1
11364,4480667,63.4409893,10.3488484,22.2,15.343,359.7,0.69,0.33,-0.1
11377,4480707,63.4409895,10.3488486,22.19,15.331,359.65,0.69,0.33,-0.09
11381,4480727,63.4409897,10.3488487,22.18,15.325,359.63,0.68,0.33,-0.09
11396,4480767,63.4409899,10.3488489,22.17,15.318,359.57,0.68,0.32,-0.08
11409,4480807,63.4409902,10.3488492,22.17,15.312,359.49,0.68,0.31,-0.08
11413,4480827,63.4409903,10.3488493,22.16,15.309,359.45,0.68,0.31,-0.07
11427,4480867,63.4409905,10.3488495,22.17,15.311,359.35,0.68,0.3,-0.06
11440,4480907,63.4409908,10.3488497,22.17,15.312,359.23,0.68,0.29,-0.06
11444,4480927,63.4409909,10.3488498,22.17,15.313,359.17,0.67,0.28,-0.06
11458,4480967,63.4409911,10.34885,22.17,15.318,359.05,0.67,0.27,-0.06
11471,4481007,63.4409914,10.3488501,22.18,15.323,358.93,0.67,0.26,-0.06
11475,4481027,63.4409915,10.3488502,22.18,15.326,358.87,0.66,0.26,-0.06
11489,4481067,63.4409917,10.3488504,22.19,15.332,358.76,0.66,0.25,-0.06
11502,4481087,63.4409918,10.3488505,22.19,15.335,358.71,0.66,0.25,-0.06
11507,4481127,63.4409921,10.3488506,22.2,15.341,358.63,0.65,0.24,-0.07
11521,4481167,63.4409923,10.3488508,22.2,15.345,358.58,0.64,0.24,-0.08
11533,4481187,63.4409924,10.3488509,22.2,15.347,358.56,0.64,0.24,-0.08
11538,4481227,63.4409926,10.348851,22.21,15.351,358.55,0.63,0.23,-0.09
11552,4481267,63.4409929,10.3488512,22.21,15.351,358.56,0.63,0.23,-0.09
11566,4481287,63.440993,10.3488513,22.21,15.352,358.58,0.63,0.23,-0.09
11569,4481327,63.4409932,10.3488515,22.21,15.352,358.63,0.63,0.22,-0.09
11583,4481367,63.4409935,10.3488516,22.2,15.346,358.7,0.62,0.22,-0.08
11599,4481387,63.4409936,10.3488517,22.2,15.344,358.75,0.62,0.22,-0.07
11614,4481427,63.4409938,10.3488518,22.19,15.339,358.87,0.62,0.21,-0.06
11617,4481467,63.440994,10.348852,22.18,15.327,359.02,0.62,0.2,-0.03
11631,4481487,63.4409941,10.348852,22.18,15.322,359.1,0.62,0.2,-0.01
11635,4481527,63.4409943,10.3488522,22.17,15.312,359.28,0.63,0.19,0.01
11649,4481567,63.4409946,10.3488523,22.15,15.298,359.46,0.63,0.19,0.04
11661,4481587,63.4409947,10.3488523,22.15,15.291,359.56,0.63,0.18,0.05
11666,4481627,63.4409949,10.3488524,22.13,15.278,359.76,0.64,0.19,0.08
11680,4481667,63.4409952,10.3488526,22.13,15.27,359.96,0.64,0.19,0.11
11692,4481687,63.4409953,10.3488526,22.12,15.266,0.06,0.64,0.2,0.12
11697,4481727,63.4409955,10.3488528,22.11,15.257,0.27,0.65,0.2,0.13
11711,4481747,63.4409956,10.3488528,22.11,15.259,0.38,0.65,0.21,0.14
11724,4481787,63.4409959,10.3488529,22.12,15.261,0.61,0.65,0.22,0.16
11729,4481827,63.4409961,10.3488531,22.12,15.261,0.83,0.66,0.23,0.16
11741,4481847,63.4409962,10.3488532,22.12,15.268,0.93,0.66,0.23,0.17
11755,4481887,63.4409965,10.3488533,22.13,15.279,1.14,0.66,0.24,0.16
11760,4481927,63.4409967,10.3488535,22.14,15.288,1.34,0.67,0.25,0.16
11774,4481947,63.4409968,10.3488536,22.15,15.297,1.45,0.67,0.26,0.15
11786,4481987,63.4409971,10.3488537,22.17,15.313,1.65,0.68,0.27,0.14
11791,4482027,63.4409974,10.3488539,22.18,15.327,1.84,0.68,0.28,0.12
11803,4482047,63.4409975,10.348854,22.19,15.333,1.93,0.69,0.29,0.12
11818,4482087,63.4409977,10.3488542,22.2,15.345,2.11,0.69,0.3,0.1
11823,4482127,63.440998,10.3488545,22.21,15.355,2.29,0.7,0.32,0.08
11835,4482147,63.4409981,10.3488546,22.21,15.357,2.38,0.7,0.33,0.07
11849,4482187,63.4409984,10.3488548,22.22,15.361,2.55,0.71,0.34,0.06
11854,4482227,63.4409987,10.3488551,22.22,15.364,2.7,0.71,0.36,0.05
11866,4482247,63.4409988,10.3488552,22.22,15.361,2.77,0.72,0.36,0.04
11880,4482287,63.4409991,10.3488555,22.21,15.356,2.88,0.73,0.37,0.03
11885,4482327,63.4409994,10.3488558,22.21,15.351,2.97,0.73,0.38,0.02
11897,4482347,63.4409995,10.3488559,22.2,15.345,3.01,0.73,0.38,0.01
11913,4482387,63.4409998,10.3488561,22.19,15.334,3.06,0.73,0.39,0.0
11919,4482407,63.4409999,10.3488563,22.18,15.329,3.08,0.74,0.39,0.0
11931,4482447,63.4410001,10.3488565,22.17,15.316,3.11,0.74,0.39,-0.01
11945,4482487,63.4410004,10.3488568,22.16,15.303,3.11,0.74,0.39,-0.03
11949,4482507,63.4410005,10.348857,22.15,15.297,3.11,0.73,0.4,-0.04
11963,4482547,63.4410008,10.3488572,22.14,15.284,3.08,0.73,0.39,-0.07
11977,4482587,63.441001,10.3488575,22.13,15.271,3.05,0.73,0.39,-0.09
11981,4482607,63.4410011,10.3488576,22.12,15.265,3.02,0.73,0.39,-0.1
11994,4482647,63.4410014,10.3488579,22.11,15.255,2.95,0.72,0.39,-0.12
12008,4482687,63.4410016,10.3488582,22.1,15.245,2.87,0.72,0.38,-0.14
12012,4482707,63.4410018,10.3488583,22.1,15.241,2.83,0.72,0.38,-0.15
12027,4482747,63.441002,10.3488586,22.09,15.233,2.73,0.71,0.37,-0.17
12040,4482787,63.4410022,10.3488588,22.08,15.226,2.63,0.71,0.36,-0.18
12044,4482807,63.4410023,10.348859,22.08,15.224,2.57,0.71,0.36,-0.19
12057,4482847,63.4410026,10.3488592,22.07,15.219,2.45,0.7,0.34,-0.2
12072,4482887,63.4410028,10.3488595,22.07,15.215,2.32,0.69,0.33,-0.21
12075,4482907,63.4410029,10.3488596,22.07,15.214,2.25,0.69,0.32,-0.22
12088,4482947,63.4410031,10.3488598,22.07,15.211,2.12,0.68,0.31,-0.22
12104,4482987,63.4410034,10.34886,22.06,15.209,2.0,0.67,0.29,-0.23
12108,4483007,63.4410035,10.3488601,22.06,15.208,1.95,0.66,0.28,-0.23
12121,4483047,63.4410037,10.3488603,22.06,15.207,1.86,0.65,0.27,-0.22
12126,4483067,63.4410038,10.3488604,22.06,15.206,1.82,0.65,0.26,-0.22
12140,4483107,63.441004,10.3488605,22.06,15.206,1.78,0.64,0.24,-0.22
12153,4483147,63.4410042,10.3488607,22.06,15.206,1.77,0.63,0.23,-0.22
12158,4483167,63.4410043,10.3488608,22.06,15.206,1.78,0.62,0.22,-0.21
12171,4483207,63.4410045,10.3488609,22.06,15.206,1.83,0.61,0.21,-0.2
12184,4483247,63.4410047,10.3488611,22.06,15.207,1.92,0.6,0.2,-0.19
12189,4483267,63.4410048,10.3488612,22.06,15.208,1.98,0.6,0.2,-0.18
12202,4483307,63.441005,10.3488613,22.06,15.209,2.13,0.59,0.19,-0.15
12215,4483347,63.4410052,10.3488615,22.06,15.208,2.33,0.59,0.19,-0.12
12220,4483367,63.4410053,10.3488615,22.06,15.208,2.45,0.59,0.19,-0.09
12235,4483407,63.4410055,10.3488617,22.06,15.205,2.7,0.6,0.19,-0.05
12249,4483447,63.4410057,10.3488618,22.06,15.202,2.97,0.6,0.2,0.0
12263,4483467,63.4410058,10.3488619,22.06,15.201,3.12,0.6,0.2,0.02
12267,4483507,63.441006,10.348862,22.05,15.196,3.43,0.61,0.2,0.08
12281,4483547,63.4410062,10.3488621,22.05,15.191,3.74,0.61,0.21,0.14
12286,4483567,63.4410063,10.3488622,22.04,15.189,3.9,0.62,0.21,0.17
12299,4483607,63.4410066,10.3488623,22.04,15.183,4.2,0.63,0.21,0.22
12312,4483647,63.4410068,10.3488625,22.04,15.18,4.47,0.63,0.22,0.26
12317,4483667,63.4410069,10.3488626,22.03,15.179,4.6,0.63,0.22,0.27
12330,4483707,63.4410071,10.3488627,22.03,15.177,4.85,0.63,0.22,0.29
12334,4483727,63.4410073,10.3488628,22.03,15.176,4.96,0.63,0.22,0.29
12349,4483767,63.4410075,10.348863,22.04,15.186,5.18,0.63,0.22,0.28
12362,4483807,63.4410077,10.3488631,22.05,15.193,5.4,0.62,0.23,0.26
12366,4483827,63.4410079,10.3488632,22.05,15.196,5.5,0.62,0.23,0.25
12380,4483867,63.4410081,10.3488634,22.07,15.212,5.73,0.61,0.24,0.21
12393,4483907,63.4410083,10.3488636,22.08,15.226,5.97,0.61,0.26,0.17
12397,4483927,63.4410084,10.3488637,22.09,15.233,6.09,0.61,0.26,0.15
12411,4483967,63.4410086,10.3488639,22.11,15.25,6.34,0.61,0.28,0.11
12424,4484007,63.4410089,10.3488641,22.12,15.265,6.59,0.62,0.29,0.08
12428,4484027,63.441009,10.3488642,22.13,15.272,6.7,0.62,0.3,0.07
12442,4484067,63.4410092,10.3488644,22.13,15.277,6.92,0.63,0.31,0.06
12456,4484107,63.4410094,10.3488646,22.14,15.282,7.13,0.64,0.33,0.06
12460,4484127,63.4410096,10.3488648,22.14,15.284,7.23,0.65,0.33,0.07
12474,4484167,63.4410098,10.348865,22.13,15.272,7.4,0.67,0.35,0.09
12487,4484207,63.44101,10.3488653,22.12,15.261,7.55,0.68,0.36,0.12
12491,4484227,63.4410102,10.3488654,22.11,15.256,7.62,0.68,0.37,0.13
12505,4484267,63.4410104,10.3488657,22.09,15.232,7.74,0.7,0.38,0.17
12518,4484307,63.4410107,10.348866,22.06,15.209,7.86,0.71,0.4,0.2
12522,4484327,63.4410108,10.3488662,22.05,15.198,7.91,0.71,0.41,0.21
12536,4484367,63.441011,10.3488665,22.03,15.174,8.0,0.72,0.42,0.23
12550,4484387,63.4410112,10.3488666,22.02,15.163,8.04,0.72,0.43,0.23
12556,4484427,63.4410114,10.348867,22.0,15.142,8.11,0.72,0.44,0.23
12570,4484467,63.4410117,10.3488673,21.98,15.129,8.16,0.72,0.45,0.21
12582,4484487,63.4410118,10.3488675,21.98,15.123,8.18,0.72,0.45,0.19
12588,4484527,63.4410121,10.3488679,21.97,15.112,8.21,0.72,0.46,0.15
12602,4484567,63.4410123,10.3488682,21.97,15.115,8.23,0.72,0.47,0.1
12614,4484587,63.4410124,10.3488684,21.97,15.116,8.23,0.72,0.47,0.08
12619,4484627,63.4410127,10.3488688,21.98,15.12,8.22,0.72,0.47,0.02
12633,4484667,63.4410129,10.3488692,21.99,15.13,8.19,0.71,0.47,-0.02
12645,4484687,63.4410131,10.3488694,21.99,15.136,8.16,0.71,0.47,-0.05
12650,4484727,63.4410133,10.3488697,22.0,15.147,8.08,0.71,0.47,-0.09
12665,4484767,63.4410136,10.3488701,22.01,15.157,7.98,0.71,0.46,-0.13
12677,4484787,63.4410137,10.3488703,22.02,15.162,7.91,0.71,0.46,-0.15
12682,4484827,63.4410139,10.3488706,22.03,15.172,7.76,0.7,0.45,-0.18
12696,4484867,63.4410142,10.348871,22.03,15.175,7.58,0.7,0.44,-0.19
12708,4484887,63.4410143,10.3488712,22.03,15.177,7.49,0.7,0.43,-0.19
12716,4484927,63.4410145,10.3488715,22.04,15.181,7.28,0.69,0.42,-0.2
12729,4484967,63.4410147,10.3488718,22.03,15.175,7.04,0.69,0.4,-0.19
12739,4484987,63.4410148,10.348872,22.03,15.172,6.92,0.69,0.39,-0.19
12744,4485027,63.4410151,10.3488723,22.02,15.168,6.68,0.68,0.38,-0.17
12756,4485047,63.4410152,10.3488724,22.02,15.162,6.56,0.68,0.37,-0.17
12771,4485087,63.4410154,10.3488727,22.01,15.153,6.33,0.67,0.36,-0.15
12776,4485127,63.4410156,10.348873,22.0,15.144,6.12,0.66,0.35,-0.14
12788,4485147,63.4410157,10.3488731,21.99,15.138,6.02,0.65,0.34,-0.13
12802,4485187,63.4410159,10.3488734,21.98,15.126,5.84,0.64,0.33,-0.12
12807,4485227,63.4410161,10.3488736,21.97,15.117,5.66,0.63,0.32,-0.11
12821,4485247,63.4410162,10.3488737,21.97,15.112,5.58,0.63,0.32,-0.11
12833,4485287,63.4410164,10.3488739,21.96,15.103,5.43,0.62,0.31,-0.11
12838,4485327,63.4410166,10.3488742,21.95,15.096,5.29,0.62,0.3,-0.12
12850,4485347,63.4410167,10.3488743,21.95,15.092,5.23,0.61,0.29,-0.13
12866,4485387,63.4410169,10.3488745,21.94,15.086,5.1,0.61,0.28,-0.14
12872,4485427,63.4410171,10.3488747,21.94,15.083,4.98,0.6,0.27,-0.15
12884,4485447,63.4410172,10.3488748,21.94,15.08,4.92,0.6,0.26,-0.16
12898,4485487,63.4410174,10.348875,21.93,15.075,4.82,0.59,0.25,-0.17
12904,4485527,63.4410176,10.3488752,21.93,15.073,4.75,0.59,0.24,-0.18
12916,4485547,63.4410177,10.3488753,21.92,15.069,4.73,0.58,0.23,-0.18
12930,4485587,63.4410179,10.3488755,21.92,15.062,4.72,0.58,0.22,-0.18
12935,4485627,63.4410181,10.3488756,21.91,15.057,4.76,0.58,0.22,-0.18
12947,4485647,63.4410182,10.3488757,21.91,15.052,4.79,0.58,0.21,-0.17
12961,4485687,63.4410184,10.3488759,21.9,15.043,4.91,0.58,0.21,-0.15
12965,4485707,63.4410185,10.3488759,21.9,15.04,4.98,0.58,0.21,-0.14
12980,4485747,63.4410187,10.3488761,21.89,15.03,5.17,0.58,0.21,-0.11
12993,4485787,63.4410189,10.3488763,21.87,15.019,5.4,0.59,0.21,-0.08
12997,4485807,63.441019,10.3488764,21.87,15.013,5.52,0.59,0.21,-0.06
13010,4485847,63.4410192,10.3488765,21.86,15.003,5.78,0.6,0.22,-0.01
13026,4485887,63.4410194,10.3488767,21.85,14.993,6.06,0.61,0.23,0.04
13030,4485907,63.4410195,10.3488768,21.84,14.987,6.2,0.61,0.23,0.06
13043,4485947,63.4410197,10.348877,21.83,14.978,6.49,0.62,0.24,0.12
13057,4485987,63.4410199,10.3488772,21.83,14.971,6.77,0.62,0.26,0.17
13061,4486007,63.4410201,10.3488773,21.82,14.967,6.91,0.63,0.27,0.2
13074,4486047,63.4410203,10.3488775,21.82,14.964,7.17,0.63,0.28,0.25
13089,4486087,63.4410205,10.3488777,21.82,14.964,7.42,0.64,0.3,0.3
13093,4486107,63.4410206,10.3488779,21.82,14.963,7.54,0.64,0.3,0.32
13106,4486147,63.4410209,10.3488781,21.82,14.969,7.74,0.66,0.31,0.36
13120,4486187,63.4410211,10.3488783,21.84,14.981,7.92,0.66,0.32,0.38
13124,4486207,63.4410212,10.3488785,21.84,14.985,8.0,0.67,0.33,0.38
13137,4486247,63.4410215,10.3488787,21.86,15.002,8.15,0.68,0.34,0.38
13151,4486287,63.4410217,10.348879,21.88,15.025,8.28,0.68,0.34,0.36
13155,4486307,63.4410218,10.3488791,21.89,15.036,8.34,0.69,0.35,0.34
13168,4486347,63.4410221,10.3488794,21.92,15.064,8.46,0.69,0.36,0.3
13175,4486367,63.4410222,10.3488795,21.94,15.081,8.53,0.69,0.36,0.28
13190,4486407,63.4410225,10.3488798,21.97,15.113,8.66,0.69,0.37,0.23
13202,4486447,63.4410227,10.3488802,22.0,15.147,8.8,0.7,0.38,0.17
13207,4486467,63.4410229,10.3488803,22.02,15.165,8.86,0.7,0.39,0.14
13220,4486507,63.4410231,10.3488806,22.05,15.198,9.0,0.7,0.39,0.09
13234,4486547,63.4410234,10.348881,22.09,15.23,9.12,0.7,0.4,0.05
13239,4486567,63.4410235,10.3488811,22.1,15.245,9.17,0.7,0.4,0.03
13252,4486607,63.4410237,10.3488815,22.13,15.273,9.25,0.7,0.41,0.0
13265,4486647,63.441024,10.3488818,22.15,15.293,9.31,0.71,0.41,-0.01
13270,4486667,63.4410241,10.348882,22.16,15.301,9.32,0.71,0.41,-0.02
13283,4486707,63.4410244,10.3488823,22.17,15.315,9.32,0.71,0.42,-0.04
13296,4486747,63.4410246,10.3488827,22.18,15.32,9.29,0.71,0.42,-0.04
13311,4486767,63.4410248,10.3488829,22.17,15.319,9.26,0.71,0.42,-0.05
13315,4486807,63.441025,10.3488832,22.17,15.317,9.19,0.7,0.42,-0.06
13328,4486847,63.4410253,10.3488835,22.16,15.307,9.09,0.7,0.42,-0.06
13333,4486867,63.4410254,10.3488837,22.16,15.3,9.03,0.7,0.42,-0.06
13346,4486907,63.4410256,10.3488841,22.14,15.286,8.89,0.69,0.41,-0.07
13360,4486947,63.4410259,10.3488844,22.12,15.267,8.74,0.68,0.41,-0.07
13364,4486967,63.441026,10.3488846,22.11,15.255,8.65,0.68,0.41,-0.07
13377,4487007,63.4410262,10.3488849,22.09,15.235,8.48,0.67,0.4,-0.08
13381,4487027,63.4410263,10.3488851,22.08,15.226,8.4,0.66,0.4,-0.08
13395,4487067,63.4410265,10.3488854,22.06,15.2,8.22,0.65,0.4,-0.09
13409,4487107,63.4410267,10.3488857,22.03,15.179,8.04,0.64,0.4,-0.09
13413,4487127,63.4410269,10.3488859,22.02,15.169,7.95,0.63,0.39,-0.09
13427,4487167,63.4410271,10.3488862,22.0,15.146,7.76,0.63,0.39,-0.09
13440,4487207,63.4410273,10.3488865,21.98,15.126,7.57,0.62,0.39,-0.08
13444,4487227,63.4410274,10.3488867,21.97,15.117,7.47,0.62,0.38,-0.08
13458,4487267,63.4410276,10.348887,21.95,15.099,7.27,0.61,0.38,-0.06
13471,4487307,63.4410278,10.3488873,21.94,15.082,7.09,0.61,0.37,-0.05
13475,4487327,63.4410279,10.3488875,21.93,15.075,6.99,0.61,0.37,-0.04
13489,4487367,63.4410281,10.3488878,21.92,15.063,6.83,0.6,0.35,-0.02
13504,4487407,63.4410283,10.3488881,21.91,15.052,6.68,0.6,0.35,-0.01
13509,4487427,63.4410284,10.3488882,21.9,15.047,6.61,0.6,0.34,0.0
13523,4487467,63.4410286,10.3488885,21.9,15.043,6.5,0.59,0.33,0.0
13536,4487507,63.4410288,10.3488888,21.89,15.039,6.4,0.59,0.32,0.0
13541,4487527,63.4410289,10.3488889,21.89,15.037,6.36,0.59,0.31,0.01
13555,4487567,63.4410291,10.3488892,21.9,15.042,6.31,0.59,0.3,0.01
13568,4487607,63.4410293,10.3488894,21.9,15.046,6.27,0.58,0.29,0.0
13572,4487627,63.4410294,10.3488895,21.9,15.049,6.27,0.58,0.29,0.0
13586,4487667,63.4410296,10.3488898,21.92,15.062,6.27,0.58,0.28,0.0
13598,4487687,63.4410297,10.3488899,21.92,15.068,6.28,0.58,0.28,-0.01
13603,4487727,63.4410299,10.3488901,21.93,15.079,6.3,0.59,0.28,-0.02
13618,4487767,63.4410301,10.3488903,21.95,15.095,6.34,0.59,0.27,-0.02
13630,4487787,63.4410302,10.3488904,21.96,15.102,6.35,0.6,0.27,-0.02
13635,4487827,63.4410304,10.3488907,21.97,15.115,6.39,0.61,0.28,-0.01
13649,4487867,63.4410306,10.3488909,21.98,15.125,6.44,0.62,0.28,0.0
13661,4487887,63.4410308,10.348891,21.98,15.129,6.47,0.62,0.28,0.0
13666,4487927,63.441031,10.3488913,21.99,15.136,6.53,0.63,0.29,0.02
13680,4487967,63.4410312,10.3488915,21.99,15.134,6.59,0.64,0.3,0.05
13692,4487987,63.4410313,10.3488916,21.99,15.133,6.63,0.65,0.3,0.06
13697,4488027,63.4410316,10.3488919,21.99,15.13,6.7,0.66,0.31,0.08
13711,4488067,63.4410318,10.3488921,21.97,15.119,6.78,0.66,0.32,0.1
13724,4488087,63.4410319,10.3488923,21.97,15.113,6.82,0.66,0.32,0.1
13729,4488127,63.4410322,10.3488925,21.96,15.103,6.88,0.66,0.33,0.1
13743,4488167,63.4410324,10.3488928,21.95,15.092,6.93,0.66,0.33,0.09
13756,4488187,63.4410325,10.3488929,21.94,15.087,6.95,0.66,0.33,0.08
13760,4488227,63.4410327,10.3488932,21.93,15.078,6.99,0.66,0.33,0.05
13774,4488267,63.441033,10.3488935,21.93,15.072,7.03,0.65,0.33,0.02
13787,4488287,63.4410331,10.3488936,21.93,15.07,7.04,0.65,0.33,0.01
13791,4488327,63.4410333,10.3488939,21.92,15.066,7.08,0.65,0.34,0.0
13803,4488347,63.4410334,10.348894,21.92,15.066,7.09,0.65,0.34,-0.01
13819,4488387,63.4410337,10.3488943,21.92,15.068,7.13,0.65,0.34,-0.03
13825,4488427,63.4410339,10.3488946,21.93,15.07,7.17,0.65,0.35,-0.04
13837,4488447,63.441034,10.3488948,21.93,15.071,7.19,0.65,0.35,-0.04
13851,4488487,63.4410342,10.3488951,21.93,15.074,7.23,0.66,0.36,-0.03
13857,4488527,63.4410345,10.3488954,21.93,15.075,7.27,0.67,0.36,-0.01
13871,4488547,63.4410346,10.3488955,21.93,15.075,7.28,0.68,0.37,0.0
13883,4488587,63.4410348,10.3488958,21.93,15.074,7.29,0.69,0.37,0.02
13888,4488627,63.4410351,10.3488961,21.93,15.072,7.29,0.7,0.38,0.05
13900,4488647,63.4410352,10.3488963,21.93,15.07,7.27,0.71,0.38,0.07
13914,4488687,63.4410355,10.3488966,21.92,15.065,7.23,0.72,0.38,0.09
13919,4488727,63.4410357,10.3488969,21.92,15.06,7.17,0.72,0.38,0.11
13933,4488747,63.4410358,10.3488971,21.91,15.059,7.13,0.73,0.38,0.12
13946,4488787,63.4410361,10.3488974,21.91,15.057,7.04,0.72,0.39,0.12
13951,4488827,63.4410363,10.3488977,21.91,15.054,6.96,0.72,0.38,0.11
13965,4488847,63.4410365,10.3488979,21.91,15.058,6.92,0.71,0.38,0.1
13977,4488887,63.4410367,10.3488982,21.92,15.064,6.85,0.71,0.39,0.06
13982,4488927,63.441037,10.3488985,21.93,15.071,6.79,0.7,0.39,0.02
13996,4488947,63.4410371,10.3488987,21.93,15.079,6.76,0.69,0.39,0.0
14010,4488987,63.4410373,10.348899,21.95,15.095,6.7,0.69,0.39,-0.05
14013,4489007,63.4410375,10.3488992,21.96,15.103,6.67,0.68,0.39,-0.07
14027,4489047,63.4410377,10.3488995,21.97,15.119,6.58,0.68,0.38,-0.12
14040,4489087,63.4410379,10.3488999,21.99,15.134,6.47,0.68,0.38,-0.17
14044,4489107,63.4410381,10.3489,22.0,15.141,6.41,0.68,0.37,-0.19
14057,4489147,63.4410383,10.3489003,22.0,15.149,6.27,0.68,0.36,-0.22
14071,4489187,63.4410385,10.3489006,22.01,15.151,6.13,0.68,0.35,-0.24
14075,4489207,63.4410386,10.3489008,22.01,15.153,6.06,0.68,0.34,-0.24
14089,4489247,63.4410389,10.348901,22.0,15.146,5.92,0.67,0.33,-0.23
14102,4489287,63.4410391,10.3489013,21.98,15.129,5.81,0.67,0.32,-0.21
14106,4489307,63.4410392,10.3489015,21.98,15.122,5.76,0.67,0.31,-0.19
14119,4489347,63.4410395,10.3489017,21.95,15.097,5.7,0.66,0.31,-0.15
14135,4489387,63.4410397,10.348902,21.92,15.064,5.67,0.66,0.3,-0.11
14150,4489407,63.4410398,10.3489021,21.9,15.049,5.67,0.65,0.3,-0.09
14153,4489447,63.44104,10.3489023,21.87,15.016,5.68,0.64,0.3,-0.04
14167,4489487,63.4410403,10.3489026,21.84,14.98,5.71,0.64,0.3,0.01
14171,4489507,63.4410404,10.3489027,21.82,14.964,5.73,0.64,0.3,0.03
14185,4489547,63.4410406,10.348903,21.79,14.933,5.77,0.63,0.31,0.08
14199,4489587,63.4410408,10.3489032,21.76,14.906,5.8,0.63,0.31,0.12
14203,4489607,63.4410409,10.3489034,21.75,14.893,5.81,0.63,0.31,0.14
14216,4489647,63.4410412,10.3489036,21.73,14.875,5.82,0.62,0.31,0.16
14221,4489667,63.4410413,10.3489038,21.73,14.87,5.81,0.62,0.31,0.17
14234,4489707,63.4410415,10.348904,21.72,14.86,5.8,0.62,0.31,0.19
14249,4489747,63.4410417,10.3489043,21.72,14.86,5.79,0.62,0.31,0.19
14263,4489767,63.4410418,10.3489044,21.72,14.864,5.78,0.61,0.31,0.19
14266,4489807,63.441042,10.3489047,21.73,14.872,5.77,0.61,0.3,0.19
14280,4489847,63.4410423,10.3489049,21.74,14.886,5.77,0.61,0.3,0.17
14284,4489867,63.4410424,10.3489051,21.75,14.896,5.77,0.61,0.3,0.16
14297,4489907,63.4410426,10.3489053,21.77,14.915,5.8,0.61,0.29,0.14
14310,4489947,63.4410428,10.3489056,21.79,14.937,5.83,0.61,0.29,0.12
14315,4489967,63.4410429,10.3489057,21.81,14.95,5.85,0.6,0.29,0.11
14328,4490007,63.4410432,10.3489059,21.83,14.973,5.9,0.6,0.29,0.09
14341,4490047,63.4410434,10.3489062,21.85,14.995,5.97,0.6,0.3,0.07
14347,4490067,63.4410435,10.3489063,21.86,15.006,6.0,0.61,0.3,0.07
14360,4490107,63.4410437,10.3489066,21.88,15.026,6.08,0.61,0.31,0.06
14373,4490147,63.441044,10.3489069,21.9,15.043,6.16,0.61,0.32,0.06
14378,4490167,63.4410441,10.348907,21.91,15.05,6.2,0.61,0.33,0.07
14391,4490207,63.4410443,10.3489073,21.92,15.063,6.28,0.62,0.35,0.08
14404,4490247,63.4410446,10.3489076,21.93,15.072,6.36,0.63,0.37,0.09
14409,4490267,63.4410447,10.3489078,21.93,15.075,6.39,0.63,0.38,0.1
14422,4490307,63.4410449,10.3489081,21.93,15.079,6.44,0.65,0.4,0.13
14426,4490327,63.4410451,10.3489082,21.94,15.08,6.45,0.66,0.41,0.14
14440,4490367,63.4410453,10.3489086,21.93,15.078,6.44,0.68,0.42,0.16
14455,4490407,63.4410456,10.3489089,21.93,15.074,6.38,0.69,0.43,0.19
14460,4490427,63.4410457,10.3489091,21.93,15.071,6.33,0.7,0.44,0.2
14474,4490467,63.441046,10.3489095,21.92,15.062,6.21,0.72,0.45,0.21
14487,4490507,63.4410462,10.3489098,21.91,15.053,6.05,0.74,0.45,0.21
14492,4490527,63.4410464,10.34891,21.9,15.049,5.96,0.74,0.45,0.2
14506,4490567,63.4410466,10.3489104,21.9,15.04,5.77,0.75,0.45,0.19
14519,4490607,63.4410469,10.3489107,21.89,15.032,5.59,0.75,0.44,0.16
14523,4490627,63.441047,10.3489109,21.88,15.029,5.5,0.75,0.44,0.13
14537,4490667,63.4410473,10.3489113,21.88,15.024,5.33,0.75,0.43,0.08
14550,4490707,63.4410476,10.3489116,21.88,15.022,5.17,0.75,0.42,0.02
14554,4490727,63.4410477,10.3489118,21.88,15.022,5.1,0.74,0.42,0.0
14569,4490767,63.441048,10.3489122,21.88,15.025,4.95,0.73,0.41,-0.07
14582,4490807,63.4410482,10.3489125,21.89,15.031,4.8,0.72,0.4,-0.13
14586,4490827,63.4410484,10.3489127,21.89,15.034,4.72,0.71,0.39,-0.16
14600,4490867,63.4410486,10.348913,21.9,15.041,4.56,0.7,0.38,-0.21
14613,4490907,63.4410488,10.3489133,21.9,15.049,4.39,0.68,0.37,-0.25
14617,4490927,63.441049,10.3489135,21.91,15.054,4.3,0.68,0.37,-0.27
14631,4490967,63.4410492,10.3489138,21.91,15.057,4.1,0.67,0.36,-0.29
14643,4490987,63.4410493,10.348914,21.92,15.06,4.0,0.66,0.35,-0.29
14648,4491027,63.4410495,10.3489143,21.92,15.066,3.81,0.66,0.35,-0.29
14662,4491067,63.4410498,10.3489146,21.92,15.064,3.62,0.65,0.34,-0.29
14675,4491087,63.4410499,10.3489147,21.92,15.063,3.54,0.64,0.34,-0.28
14680,4491127,63.4410501,10.348915,21.92,15.063,3.38,0.64,0.33,-0.27
14694,4491167,63.4410503,10.3489153,21.91,15.054,3.23,0.63,0.32,-0.24
14706,4491187,63.4410504,10.3489154,21.91,15.05,3.17,0.63,0.31,-0.23
14711,4491227,63.4410506,10.3489157,21.9,15.043,3.06,0.63,0.3,-0.19
14725,4491267,63.4410508,10.3489159,21.89,15.034,2.98,0.63,0.29,-0.16
14737,4491287,63.4410509,10.348916,21.89,15.03,2.95,0.63,0.29,-0.14
14742,4491327,63.4410512,10.3489163,21.88,15.021,2.91,0.63,0.28,-0.09
14756,4491367,63.4410514,10.3489165,21.87,15.013,2.88,0.63,0.26,-0.05
14770,4491387,63.4410515,10.3489166,21.86,15.009,2.87,0.63,0.26,-0.03
14776,4491427,63.4410517,10.3489168,21.86,15.0,2.86,0.64,0.25,0.0
14790,4491467,63.4410519,10.348917,21.85,14.997,2.86,0.64,0.23,0.04
14802,4491487,63.441052,10.3489171,21.85,14.995,2.86,0.64,0.23,0.05
14808,4491527,63.4410522,10.3489173,21.85,14.991,2.87,0.64,0.22,0.07
14822,4491567,63.4410525,10.3489174,21.85,14.995,2.89,0.65,0.21,0.08
14834,4491587,63.4410526,10.3489175,21.85,14.996,2.91,0.65,0.21,0.09
14839,4491627,63.4410528,10.3489177,21.85,14.998,2.97,0.64,0.21,0.09
14851,4491647,63.441053,10.3489178,21.86,15.003,3.0,0.64,0.21,0.08
14865,4491687,63.4410532,10.3489179,21.87,15.012,3.1,0.63,0.21,0.07
14870,4491727,63.4410534,10.3489181,21.87,15.019,3.23,0.63,0.22,0.05
14883,4491747,63.4410535,10.3489182,21.88,15.025,3.31,0.63,0.22,0.04
14897,4491787,63.4410538,10.3489184,21.89,15.036,3.49,0.62,0.23,0.02
14902,4491827,63.441054,10.3489186,21.9,15.046,3.71,0.62,0.24,0.01
14915,4491847,63.4410541,10.3489187,21.9,15.049,3.82,0.62,0.25,0.0
14928,4491887,63.4410544,10.3489189,21.91,15.056,4.05,0.62,0.26,-0.01
14933,4491927,63.4410546,10.3489192,21.92,15.061,4.27,0.62,0.27,-0.01
14945,4491947,63.4410547,10.3489193,21.92,15.06,4.38,0.62,0.28,-0.01
14959,4491987,63.441055,10.3489195,21.91,15.058,4.6,0.62,0.29,0.0
14964,4492027,63.4410552,10.3489198,21.91,15.056,4.79,0.62,0.3,0.01
14976,4492047,63.4410553,10.3489199,21.91,15.05,4.88,0.62,0.3,0.02
14991,4492087,63.4410556,10.3489202,21.89,15.039,5.05,0.62,0.31,0.05
14996,4492127,63.4410558,10.3489204,21.88,15.027,5.2,0.63,0.32,0.09
15008,4492147,63.4410559,10.3489206,21.88,15.02,5.27,0.64,0.32,0.11
15022,4492187,63.4410562,10.3489208,21.86,15.005,5.37,0.64,0.33,0.15
15027,4492227,63.4410564,10.3489211,21.85,14.99,5.45,0.65,0.33,0.19
15039,4492247,63.4410565,10.3489212,21.84,14.984,5.47,0.66,0.34,0.2
15053,4492287,63.4410568,10.3489215,21.83,14.972,5.51,0.67,0.34,0.24
15057,4492307,63.4410569,10.3489216,21.82,14.966,5.51,0.67,0.35,0.25
15070,4492347,63.4410572,10.3489219,21.81,14.959,5.52,0.68,0.36,0.28
15086,4492387,63.4410574,10.3489222,21.81,14.957,5.51,0.69,0.37,0.3
15092,4492407,63.4410576,10.3489224,21.81,14.955,5.49,0.7,0.38,0.3
15104,4492447,63.4410578,10.3489227,21.81,14.959,5.46,0.71,0.39,0.3
15118,4492487,63.4410581,10.348923,21.82,14.968,5.41,0.72,0.41,0.3
15122,4492507,63.4410583,10.3489232,21.83,14.972,5.38,0.72,0.41,0.29
15137,4492547,63.4410585,10.3489235,21.84,14.986,5.31,0.73,0.43,0.27
15150,4492587,63.4410588,10.3489239,21.86,15.005,5.21,0.73,0.44,0.24
15154,4492607,63.4410589,10.3489241,21.87,15.013,5.16,0.73,0.45,0.23
15167,4492647,63.4410592,10.3489244,21.89,15.032,5.05,0.74,0.46,0.19
15181,4492687,63.4410595,10.3489248,21.91,15.052,4.94,0.74,0.48,0.14
15185,4492707,63.4410596,10.348925,21.92,15.062,4.88,0.74,0.48,0.12
15200,4492747,63.4410599,10.3489254,21.93,15.079,4.77,0.74,0.49,0.07
15213,4492787,63.4410602,10.3489258,21.95,15.095,4.65,0.75,0.5,0.03
15217,4492807,63.4410603,10.3489261,21.96,15.102,4.58,0.75,0.5,0.01
15231,4492847,63.4410606,10.3489265,21.97,15.112,4.42,0.76,0.5,-0.02
15244,4492887,63.4410609,10.3489269,21.97,15.117,4.22,0.77,0.49,-0.06
15248,4492907,63.441061,10.3489271,21.98,15.12,4.11,0.77,0.48,-0.07
15261,4492947,63.4410613,10.3489275,21.98,15.12,3.84,0.77,0.47,-0.09
15266,4492967,63.4410614,10.3489277,21.97,15.117,3.7,0.78,0.46,-0.1
15279,4493007,63.4410617,10.3489281,21.97,15.113,3.42,0.77,0.45,-0.12
15292,4493047,63.441062,10.3489285,21.96,15.104,3.14,0.77,0.44,-0.12
15298,4493067,63.4410621,10.3489286,21.95,15.098,3.0,0.76,0.43,-0.13
15311,4493107,63.4410624,10.348929,21.94,15.088,2.73,0.75,0.42,-0.13
15324,4493147,63.4410626,10.3489293,21.93,15.076,2.47,0.74,0.41,-0.14
15329,4493167,63.4410627,10.3489295,21.92,15.069,2.35,0.73,0.41,-0.14
15342,4493207,63.441063,10.3489299,21.91,15.057,2.1,0.72,0.4,-0.14
15355,4493247,63.4410632,10.3489302,21.9,15.047,1.83,0.71,0.39,-0.14
15360,4493267,63.4410633,10.3489304,21.9,15.042,1.7,0.7,0.38,-0.14
15373,4493307,63.4410636,10.3489307,21.89,15.035,1.43,0.69,0.37,-0.15
15386,4493347,63.4410638,10.348931,21.88,15.029,1.15,0.68,0.36,-0.15
