nx_bin,ny_bin,packet_index,ping_number,pwr_up_msec,utc_msec,utc_iso,ping_hz,sos_mps,listening_sec,pulse_sec,point_index,angle_rad,angle_deg,tof_s,range_m,y_m,z_m,reserved0,reserved1,beam_order,beam_count,beam_order_reversed,t_sync,boat_x_m,boat_y_m,boat_z_m,roll_rad,pitch_rad,yaw_rad,map_x_m,map_y_m,map_z_m,x_boat_m,y_boat_m,z_boat_m,altitude_like_sonarview_m
38.25,28.75,565,35669,4503018,1776873493957,2026-04-22T15:58:13.957000+00:00,240000,1500.0,0.0192713905125856,0.0001374999992549,1,0.5759586691856384,33.000000918308665,0.0181370079517364,11.737504203676016,7.408592064515743,-11.40823095104383,4294967295,4294967295,1,2,0,4503018,41.55575942993164,17.47208595275879,11.25969123840332,-0.0672555863857269,-0.0081926342099905,1.7559534311294556,38.43975978198128,28.788425958488794,7.024127837717996,11.75372509641985,0.51157567121056,6.97822423703428,7.024127837717996
38.5,26.25,163,35638,4501468,1776873492407,2026-04-22T15:58:12.407000+00:00,240000,1500.0,0.0157589297741651,0.0001124999980675,1,0.6108652353286743,34.99999983559887,0.014737038873136,9.370862704259212,6.33961365343641,-9.053906657962312,4294967295,4294967295,1,2,0,4501468,41.55078887939453,17.434289932250977,11.289484024047852,-0.0203759782016277,0.0003814046795014,1.8130189180374143,38.7409553988748,26.373971337861953,6.01168700798653,9.350383305222394,0.4608471658330163,6.025894160971652,6.01168700798653
38.5,28.0,583,35670,4503069,1776873494008,2026-04-22T15:58:14.008000+00:00,240000,1500.0,0.0201495084911584,0.0001437500031897,1,0.6108652353286743,34.99999983559887,0.0172745082527399,10.967450703351098,7.431188132040621,-10.612836583311829,4294967295,4294967295,1,2,0,4503069,41.55755615234375,17.478755950927734,11.247735977172852,-0.0730630382895469,-0.0058340490795671,1.7522855997085571,38.57835532043944,28.03381811718792,7.046967194620522,10.96036150564713,0.512647970446042,7.039345800315568,7.046967194620522
38.5,28.25,615,35672,4503168,1776873494107,2026-04-22T15:58:14.107000+00:00,240000,1500.0,0.0193333327770233,0.0001374999992549,1,0.593411922454834,33.99999866940647,0.0174083337187767,11.206675506164414,7.300962256221671,-10.824122215884026,4294967295,4294967295,1,2,0,4503168,41.561370849609375,17.49163055419922,11.232999801635742,-0.073433868587017,-0.0006040520383976,1.7463786602020264,38.61602584294473,28.304332283747716,6.8501630416029045,11.165089497503427,0.5064680850776305,6.899172137912219,6.8501630416029045
38.75,25.75,174,35639,4501518,1776873492457,2026-04-22T15:58:12.457000+00:00,240000,1500.0,0.0166370384395122,0.0001187500020023,1,0.6108652353286743,34.99999983559887,0.0139453718438744,8.86801596350986,5.999052489766616,-8.567534907923257,4294967295,4294967295,1,2,0,4501518,41.55078887939453,17.434289932250977,11.289484024047852,-0.0203759782016277,0.0003814046795014,1.8130189180374143,38.88340646597981,25.891640474215734,5.696085967286226,8.848084964461666,0.44468579284030807,5.70970660219018,5.696085967286226
38.75,28.25,661,35675,4503318,1776873494257,2026-04-22T15:58:14.257000+00:00,240000,1500.0,0.0201526675373315,0.0001437500031897,1,0.5235987901687622,30.000000834826057,0.0166750010102987,11.193410208309267,6.253125536670789,-10.830730771176473,4294967295,4294967295,1,2,0,4503318,41.56678009033203,17.516103744506836,11.24558448791504,-0.0475967265665531,0.0083663212135434,1.7378168106079102,38.98544393161152,28.407804058377216,5.731822856219778,11.120926279999072,0.45674286133915054,5.853427199513745,5.731822856219778
38.75,28.5,647,35674,4503268,1776873494207,2026-04-22T15:58:14.207000+00:00,240000,1500.0,0.0201526675373315,0.0001437500031897,1,0.5410520434379578,30.99999858592387,0.017277667298913,11.481220751197203,6.673992104292901,-11.107388745494838,4294967295,4294967295,1,2,0,4503268,41.56476211547852,17.506553649902344,11.232007026672363,-0.0604051910340786,0.0051347771659493,1.7408554553985596,38.78562155993273,28.646338554030514,6.16100220065769,11.41764816499185,0.47671513740905724,6.259906637678677,6.16100220065769
38.75,29.0,679,35676,4503368,1776873494307,2026-04-22T15:58:14.307000+00:00,240000,1500.0,0.0193333327770233,0.0001374999992549,1,0.5061454772949219,28.99999966863366,0.0174083337187767,11.792845438775444,6.329795678448731,-11.419253840783966,4294967295,4294967295,1,2,0,4503368,41.56812286376953,17.52269744873047,11.253475189208984,-0.0378808677196502,0.0104057369753718,1.7358522415161133,38.959470948691084,29.023399111185867,5.757514704712398,11.712471131549771,0.4603812525911799,5.901376806534402,5.757514704712398
38.75,29.25,696,35677,4503418,1776873494357,2026-04-22T15:58:14.357000+00:00,240000,1500.0,0.0193333327770233,0.0001374999992549,1,0.5061454772949219,28.99999966863366,0.0180443339049816,12.235213682896665,6.561049932598871,-11.836447564570763,4294967295,4294967295,1,2,0,4503418,41.56998062133789,17.532917022705078,11.278119087219238,-0.022981472313404,0.0132142389193177,1.7330217361450195,38.99263657520574,29.493592235000115,5.938465210187006,12.140377325268393,0.4713554524006882,6.1118643110219955,5.938465210187006
39.0,25.5,338,35652,4502168,1776873493107,2026-04-22T15:58:13.107000+00:00,240000,1500.0,0.0149416122585535,0.0001062500014086,1,0.6457718014717102,36.99999875288908,0.0135249458253383,8.600008812636364,6.104636512423981,-8.101126638560523,4294967295,4294967295,1,2,0,4502168,41.57394409179688,17.451814651489258,11.299851417541504,-0.0139580117538571,0.0345214270055294,1.7912840843200684,39.1783906238535,25.711443890120226,5.53786405439047,8.38734077151036,0.449696295957718,5.837668874327756,5.53786405439047
39.0,26.0,475,35663,4502718,1776873493657,2026-04-22T15:58:13.657000+00:00,240000,1500.0,0.0166399087756872,0.0001187500020023,1,0.6108652353286743,34.99999983559887,0.0142653016373515,9.029113273644283,6.13668063232146,-8.764088266584924,4294967295,4294967295,1,2,0,4502718,41.55615615844727,17.45064353942871,11.283411026000977,-0.0229305494576692,-0.0069877952337265,1.7741938829421997,39.16323936639691,26.156896219808644,5.888708771925747,9.051074603392742,0.4512169537106623,5.837484843094471,5.888708771925747
39.0,26.25,349,35653,4502218,1776873493157,2026-04-22T15:58:13.157000+00:00,240000,1500.0,0.0149416122585535,0.0001062500014086,1,0.6108652353286743,34.99999983559887,0.0142620224505662,9.26012571885505,6.135269984124443,-8.762073652161838,4294967295,4294967295,1,2,0,4502218,41.57394409179688,17.451814651489258,11.299851417541504,-0.0139580117538571,0.0345214270055294,1.7912840843200684,39.03238295926596,26.356330098082008,5.513514412929348,9.04899401897988,0.45115001122248244,5.836175153507708,5.513514412929348
39.25,25.0,325,35651,4502118,1776873493057,2026-04-22T15:58:13.057000+00:00,240000,1500.0,0.0158152226358652,0.0001124999980675,1,0.6632251143455505,37.99999991908148,0.0127457790076732,8.04489486012656,5.885313820390579,-7.532858199167806,4294967295,4294967295,1,2,0,4502118,41.57394409179688,17.451814651489258,11.299851417541504,-0.0154012124985456,0.0398684404790401,1.7944424152374268,39.28042707903211,25.162853039582608,5.3232420510072656,7.809115699871793,0.4392883099339402,5.646412755978259,5.3232420510072656
39.25,25.5,449,35661,4502618,1776873493557,2026-04-22T15:58:13.557000+00:00,240000,1500.0,0.0166399087756872,0.0001187500020023,2,0.6108652353286743,34.99999983559887,0.0133940763771533,8.503712548367496,5.761894923854687,-8.228838800813914,4294967295,4294967295,2,4,1,4502618,41.56037521362305,17.448143005371094,11.27109432220459,-0.0141987223178148,-0.0018163154600188,1.7796692848205566,39.30004166391919,25.645948769680587,5.4982413811555,8.49829801114976,0.43343145062628596,5.489522154250733,5.4982413811555
39.5,26.0,251,35645,4501818,1776873492757,2026-04-22T15:58:12.757000+00:00,240000,1500.0,0.0149416122585535,0.0001062500014086,2,-0.5061454772949219,-28.99999966863366,0.0140370223671197,8.854061048173861,-5.1039625591418565,-9.207792323398024,4294967295,4294967295,2,3,0,4501818,41.56862258911133,17.447643280029297,11.334304809570312,-0.0095824990421533,0.0176462978124618,1.802588701248169,39.66523637873035,26.094695840232752,-5.554845194370836,8.949686938763055,-0.08220918724334667,-5.398800563632739,-5.554845194370836
39.5,26.25,711,35678,4503468,1776873494407,2026-04-22T15:58:14.407000+00:00,240000,1500.0,0.0201526675373315,0.0001437500031897,0,0.5410520434379578,30.99999858592387,0.0134443333372473,8.968981858877976,5.193257457036219,-8.643032315491887,4294967295,4294967295,0,1,0,4503468,41.57136154174805,17.539867401123047,11.29233169555664,-0.0136661315336823,0.0149128530174493,1.731076717376709,39.67462038233242,26.30599588290227,4.763060713521515,8.88445559240619,0.40644668788982624,4.902104941965244,4.763060713521515
39.5,28.75,501,35665,4502818,1776873493757,2026-04-22T15:58:13.757000+00:00,240000,1500.0,0.0175153017044067,0.0001250000059371,0,-0.4886921942234039,-28.000000209988556,0.0180432796478271,11.69839349565388,-6.353105064327181,-11.948452725963008,4294967295,4294967295,0,2,1,4502818,41.55381774902344,17.455305099487305,11.286713600158691,-0.0359560698270797,-0.0097514893859624,1.7682301998138428,39.63795094152435,28.99574983767137,-6.654828493526669,11.626605384523332,-0.14148740243913457,-6.77799241700192,-6.654828493526669
39.75,23.25,423,35659,4502518,1776873493457,2026-04-22T15:58:13.457000+00:00,240000,1500.0,0.0158152226358652,0.0001124999980675,2,0.6283185482025146,36.00000100179127,0.0096652237698435,6.107310839431912,4.260807096553675,-5.864497638681793,4294967295,4294967295,2,3,0,4502518,41.565189361572266,17.447790145874023,11.257054328918455,-0.0091240582987666,0.0074017653241753,1.7845807075500488,39.881689661192816,23.31848639489465,4.058091273267274,6.064016961467315,0.3621971383799617,4.106563282794582,4.058091273267274
39.75,25.0,325,35651,4502118,1776873493057,2026-04-22T15:58:13.057000+00:00,240000,1500.0,0.0158152226358652,0.0001124999980675,0,-0.5235987901687622,-30.000000834826057,0.0126041127368807,7.74481876891113,-4.726542395613013,-8.186611297858411,4294967295,4294967295,0,2,1,4502118,41.57394409179688,17.451814651489258,11.299851417541504,-0.0154012124985456,0.0398684404790401,1.7944424152374268,39.99389852261599,25.033745392572953,-5.283980732448146,7.947992388790949,-0.06429866576159388,-4.972720866232466,-5.283980732448146
39.75,25.25,338,35652,4502168,1776873493107,2026-04-22T15:58:13.107000+00:00,240000,1500.0,0.0149416122585535,0.0001062500014086,0,-0.5410520434379578,-30.99999858592387,0.0133832795545458,8.152297328630919,-5.169673690973505,-8.603782335322915,4294967295,4294967295,0,2,1,4502168,41.57394409179688,17.451814651489258,11.299851417541504,-0.0139580117538571,0.0345214270055294,1.7912840843200684,39.948616969012896,25.44044804390035,-5.718069755848214,8.343204320261895,-0.08532751729560706,-5.435065257409912,-5.718069755848214
39.75,25.75,873,35688,4503968,1776873494907,2026-04-22T15:58:14.907000+00:00,240000,1500.0,0.0193208139389753,0.0001374999992549,1,0.6457718014717102,36.99999875288908,0.0133624803274869,8.46322395144099,6.031305881528991,-8.00381360015818,4294967295,4294967295,1,2,0,4503968,41.593536376953125,17.630373001098633,11.33117389678955,-0.0145413326099514,0.0283526014536619,1.7063465118408203,39.926903610520604,25.927872315596822,5.524897817315515,8.286589647499223,0.4462163816160062,5.769226854506448,5.524897817315515
39.75,26.0,776,35682,4503668,1776873494607,2026-04-22T15:58:14.607000+00:00,240000,1500.0,0.0201526675373315,0.0001437500031897,1,0.6108652353286743,34.99999983559887,0.0134443333372473,8.647070791857413,5.783514579820497,-8.259714869576497,4294967295,4294967295,1,2,0,4503668,41.58016204833984,17.576953887939453,11.378432273864746,0.0114739136770367,0.020064203068614,1.7208735942840576,39.92145021077283,26.0634436404407,5.341966882973532,8.530185138861052,0.4344574141280323,5.509594514140109,5.341966882973532
39.75,26.25,909,35690,4504068,1776873495007,2026-04-22T15:58:15.007000+00:00,240000,1500.0,0.0201520286500453,0.0001437500031897,1,0.5585053563117981,31.999999752116263,0.0132520282641053,8.865175774651142,5.26687876401813,-8.428768027475805,4294967295,4294967295,1,3,1,4504068,41.59569549560547,17.64600944519043,11.288987159729004,-0.02221923135221,0.0365158021450042,1.7027682065963743,39.915061068628276,26.350422661388322,4.655625356067066,8.674010158775724,0.40994039630191925,4.985948817271545,4.655625356067066
39.75,26.5,889,35689,4504018,1776873494957,2026-04-22T15:58:14.957000+00:00,240000,1500.0,0.0193208139389753,0.0001374999992549,1,0.593411922454834,33.99999866940647,0.013827028684318,9.061107335324602,5.798982037609655,-8.597344856743128,4294967295,4294967295,1,2,0,4504018,41.59506607055664,17.640104293823242,11.305127143859863,-0.0198261700570583,0.0329947583377361,1.7041479349136353,39.85302479718103,26.532177074909168,5.203397796879807,8.86816712264904,0.4351914242890439,5.5086509313840955,5.203397796879807
39.75,28.5,551,35668,4502968,1776873493907,2026-04-22T15:58:13.907000+00:00,240000,1500.0,0.0192713905125856,0.0001374999992549,0,-0.4712388813495636,-26.99999904379616,0.0171630587428808,11.241353916404286,-5.8438990203947165,-11.469298083729544,4294967295,4294967295,0,2,1,4502968,41.55488586425781,17.468101501464844,11.269631385803224,-0.0617987439036369,-0.0092973047867417,1.7583534717559814,39.955001110307464,28.59502410602785,-6.123405238752206,11.172683883686043,-0.11732296537456907,-6.2467191187737825,-6.123405238752206
39.75,29.0,696,35677,4503418,1776873494357,2026-04-22T15:58:14.357000+00:00,240000,1500.0,0.0193333327770233,0.0001374999992549,0,-0.4712388813495636,-26.99999904379616,0.0179485008120536,11.600007778277913,-6.111336439760306,-11.994173594196551,4294967295,4294967295,0,2,1,4503418,41.56998062133789,17.532917022705078,11.278119087219238,-0.022981472313404,0.0132142389193177,1.7330217361450195,39.97351755469679,29.022542174682794,-6.68810353256824,11.68398528277125,-0.13001424185483554,-6.538997899323684,-6.68810353256824
40.0,21.25,187,35640,4501568,1776873492507,2026-04-22T15:58:12.507000+00:00,240000,1500.0,0.0166370384395122,0.0001187500020023,2,0.6457718014717102,36.99999875288908,0.0068995389156043,4.277049012003086,3.114184539222342,-4.13266265350006,4294967295,4294967295,2,3,0,4501568,41.55078887939453,17.434289932250977,11.289484024047852,-0.0126182176172733,-0.0051273019053041,1.8076701164245603,40.21387548481032,21.497024334898768,3.0643482136992,4.278670302919532,0.3077840202451758,3.046576383692725,3.0643482136992
40.0,22.25,449,35661,4502618,1776873493557,2026-04-22T15:58:13.557000+00:00,240000,1500.0,0.0166399087756872,0.0001187500020023,3,0.6632251143455505,37.99999991908148,0.0082482434809207,5.062129577825598,3.80859430584708,-4.874778426377951,4294967295,4294967295,3,4,0,4502618,41.56037521362305,17.448143005371094,11.27109432220459,-0.0141987223178148,-0.0018163154600188,1.7796692848205566,40.12914071488558,22.30372985685676,3.70735562206316,5.053554406085848,0.34073732333842943,3.703394053075447,3.70735562206316
40.0,22.5,436,35660,4502568,1776873493507,2026-04-22T15:58:13.507000+00:00,240000,1500.0,0.0158152226358652,0.0001124999980675,1,0.6632251143455505,37.99999991908148,0.0086440769955515,5.304475097966355,3.991368889717388,-5.10871922626134,4294967295,4294967295,1,2,0,4502568,41.56037521362305,17.448143005371094,11.27109432220459,-0.0141987223178148,-0.0018163154600188,1.7796692848205566,40.06805730800036,22.538373190097822,3.878662860462076,5.29607467195409,0.3494109142778213,3.87440146760025,3.878662860462076
40.0,25.25,859,35687,4503918,1776873494857,2026-04-22T15:58:14.857000+00:00,240000,1500.0,0.0201526675373315,0.0001437500031897,1,0.6632251143455505,37.99999991908148,0.0128124803304672,8.009443343368051,5.916112896433032,-7.572279218942379,4294967295,4294967295,1,2,0,4503918,41.59238052368164,17.624170303344727,11.347007751464844,-0.0100934412330389,0.0258536823093891,1.7079650163650513,40.005965455914776,25.474932680552755,5.465667916644344,7.849982432828559,0.4407498839736492,5.6752289636382365,5.465667916644344
40.0,25.75,1196,35708,4504968,1776873495907,2026-04-22T15:58:15.907000+00:00,240000,1500.0,0.0201526675373315,0.0001437500031897,1,0.6283185482025146,36.00000100179127,0.0127333337441086,8.197619796371857,5.613349475566531,-7.726112447377001,4294967295,4294967295,1,2,0,4504968,41.54986953735352,17.685672760009766,11.439950942993164,-0.0379217751324176,0.0354503691196441,1.6716567277908323,40.100588100449926,25.75416417058426,5.059167350221394,7.988966798804783,0.4263822076348519,5.365701473621251,5.059167350221394
40.0,26.0,1051,35699,4504518,1776873495457,2026-04-22T15:58:15.457000+00:00,240000,1500.0,0.0201526675373315,0.0001437500031897,1,0.6457718014717102,36.99999875288908,0.0131568331271409,8.456663074614864,5.938484703232071,-7.880635730584227,4294967295,4294967295,1,2,0,4504518,41.579402923583984,17.69158935546875,11.447714805603027,-0.0096606314182281,0.0517917014658451,1.686723232269287,40.10957734850182,26.01954007196491,5.2480639897904355,8.159059883588634,0.44181154088809016,5.682593631154909,5.2480639897904355
40.0,26.25,1166,35706,4504868,1776873495807,2026-04-22T15:58:15.807000+00:00,240000,1500.0,0.0193333327770233,0.0001374999992549,1,0.6457718014717102,36.99999875288908,0.0137318326160311,8.75387935581647,6.19801719377469,-8.225046993798312,4294967295,4294967295,1,2,0,4504868,41.55613327026367,17.69098472595215,11.48318576812744,-0.0326570831239223,0.0372859574854373,1.675291895866394,40.00174784914813,26.3057563270344,5.585291673031589,8.515639253225075,0.45412768797364766,5.924824301274575,5.585291673031589
40.0,26.5,1230,35710,4505068,1776873496007,2026-04-22T15:58:16.007000+00:00,240000,1500.0,0.0193333327770233,0.0001374999992549,1,0.6108652353286743,34.99999983559887,0.0138276666402816,8.984047364286658,5.948417791561569,-8.495221064168112,4294967295,4294967295,1,2,0,4505068,41.54527282714844,17.682586669921875,11.413358688354492,-0.0382780544459819,0.0339549034833908,1.6672656536102295,40.02665974161321,26.537354952614947,5.340527451387576,8.773403152186749,0.4422829168480872,5.662695776168298,5.340527451387576
40.0,28.0,661,35675,4503318,1776873494257,2026-04-22T15:58:14.257000+00:00,240000,1500.0,0.0201526675373315,0.0001437500031897,0,-0.4712388813495636,-26.99999904379616,0.0164916664361953,10.692354318694688,-5.61529473125732,-11.02063688575443,4294967295,4294967295,0,2,1,4503318,41.56678009033203,17.516103744506836,11.24558448791504,-0.0475967265665531,0.0083663212135434,1.7378168106079102,40.17664993336912,28.117706407463565,-6.074630277674069,10.735625774353005,-0.10647451998910343,-5.996880547133151,-6.074630277674069
40.0,28.25,776,35682,4503668,1776873494607,2026-04-22T15:58:14.607000+00:00,240000,1500.0,0.0201526675373315,0.0001437500031897,0,-0.4886921942234039,-28.000000209988556,0.0170860011130571,10.879026045227755,-6.016043774698971,-11.314532643720309,4294967295,4294967295,0,2,1,4503668,41.58016204833984,17.576953887939453,11.378432273864746,0.0114739136770367,0.020064203068614,1.7208735942840576,40.004951064250584,28.34133580462879,-6.631575779527574,11.00976077622143,-0.12549211641067096,-6.410961268909332,-6.631575779527574
40.0,28.5,679,35676,4503368,1776873494307,2026-04-22T15:58:14.307000+00:00,240000,1500.0,0.0193333327770233,0.0001374999992549,0,-0.4712388813495636,-26.99999904379616,0.0172250010073184,11.152925765762216,-5.864989919394203,-11.510691305384256,4294967295,4294967295,0,2,1,4503368,41.56812286376953,17.52269744873047,11.253475189208984,-0.0378808677196502,0.0104057369753718,1.7358522415161133,40.087398187930035,28.576891565488268,-6.377128583901728,11.213006611118814,-0.11832383664776194,-6.269769080349445,-6.377128583901728
40.25,21.0,2,35625,4500818,1776873491757,2026-04-22T15:58:11.757000+00:00,240000,1500.0,0.0131862852722406,9.999999747378752e-05,1,-0.5759586691856384,-33.000000918308665,0.0066237859427928,3.936646376271378,-2.705679354798324,-4.166380695577971,4294967295,4294967295,1,2,0,4500818,41.514068603515625,17.376554489135742,11.258112907409668,-0.0148858549073338,0.0331549458205699,1.852810263633728,40.42767254605485,21.160326191834553,-2.89377432398311,4.030396772891207,0.03160164482535138,-2.7615245280581795,-2.89377432398311
40.25,21.5,410,35658,4502468,1776873493407,2026-04-22T15:58:13.407000+00:00,240000,1500.0,0.0166371967643499,0.0001187500020023,3,0.6457718014717102,36.99999875288908,0.0068902228958904,4.30834495558063,3.1099796488789546,-4.127082575291682,4294967295,4294967295,3,4,0,4502468,41.565189361572266,17.447790145874023,11.257054328918455,-0.0091240582987666,0.0074017653241753,1.7845807075500488,40.32620656034263,21.574139364558043,3.0080088570053554,4.272893079632765,0.30758447664337274,3.0426518137726783,3.0080088570053554
40.25,25.25,794,35683,4503718,1776873494657,2026-04-22T15:58:14.657000+00:00,240000,1500.0,0.0201526675373315,0.0001437500031897,0,-0.5061454772949219,-28.99999966863366,0.0126416673883795,7.958663579908587,-4.596601426421546,-8.292488598317785,4294967295,4294967295,0,2,1,4503718,41.58338928222656,17.588197708129883,11.38681697845459,0.0106318704783916,0.0205593202263116,1.7176717519760132,40.42516933706344,25.46213271781784,-5.013230847773517,8.060040267156898,-0.05813230067313804,-4.84821421130082,-5.013230847773517
40.25,25.5,1431,35724,4505768,1776873496707,2026-04-22T15:58:16.707000+00:00,240000,1500.0,0.0201526675373315,0.0001437500031897,1,0.6632251143455505,37.99999991908148,0.0133484993129968,8.066469325312193,6.163617574175696,-7.889070761069946,4294967295,4294967295,1,2,0,4505768,41.50340270996094,17.648765563964844,11.462811470031738,-0.0214818883687257,-0.0221768524497747,1.6318289041519165,40.43446943494767,25.64409601553293,6.075622924862408,8.178391881115834,0.45249524968515953,5.906799098431159,6.075622924862408
40.25,25.75,743,35680,4503568,1776873494507,2026-04-22T15:58:14.507000+00:00,240000,1500.0,0.0193333327770233,0.0001374999992549,0,-0.5061454772949219,-28.99999966863366,0.0132833337411284,8.374592497497181,-4.829915939588012,-8.71339912780896,4294967295,4294967295,0,2,1,4503568,41.57559967041016,17.557754516601562,11.340715408325195,0.0043043391779065,0.0182847324758768,1.726146936416626,40.32652548981579,25.838673136568104,-5.25565159950782,8.469152173232645,-0.06920427033422194,-5.101406224771897,-5.25565159950782
40.25,26.0,1334,35717,4505418,1776873496357,2026-04-22T15:58:16.357000+00:00,240000,1500.0,0.0201526675373315,0.0001437500031897,1,0.5235987901687622,30.000000834826057,0.0127333337441086,8.563375238385992,4.775000274546395,-8.270542803373836,4294967295,4294967295,1,2,0,4505418,41.51989364624024,17.656078338623047,11.394886016845703,-0.0289287492632865,0.0125398496165871,1.6525201797485352,40.30715749587913,26.133145431846366,4.382970152426767,8.492141366552177,0.38659824052061487,4.502876818366885,4.382970152426767
40.25,26.25,1374,35720,4505568,1776873496507,2026-04-22T15:58:16.507000+00:00,240000,1500.0,0.0201526675373315,0.0001437500031897,1,0.5410520434379578,30.99999858592387,0.0133484993129968,8.780026436935433,5.156238830036107,-8.581422970666585,4294967295,4294967295,1,2,0,4505568,41.51989364624024,17.656078338623047,11.394886016845703,-0.0260928235948085,-0.0116571681573987,1.6435446739196775,40.35273926555061,26.358182387927567,4.958441321025495,8.821125331891427,0.40468996427466136,4.868159660407297,4.958441321025495
40.25,26.5,1348,35718,4505468,1776873496407,2026-04-22T15:58:16.407000+00:00,240000,1500.0,0.0193333327770233,0.0001374999992549,1,0.5235987901687622,30.000000834826057,0.0133750000968575,8.945004822130363,5.015625162899819,-8.68731732154349,4294967295,4294967295,1,2,0,4505468,41.51989364624024,17.656078338623047,11.394886016845703,-0.0276679061353206,0.0019771221559494,1.6487737894058228,40.2973985951214,26.517151474419038,4.692269991430512,8.920082822199996,0.3980171249585922,4.722733716159211,4.692269991430512
40.25,26.75,1360,35719,4505518,1776873496457,2026-04-22T15:58:16.457000+00:00,240000,1500.0,0.0193333327770233,0.0001374999992549,1,0.5235987901687622,30.000000834826057,0.0138276666402816,9.233183191682047,5.1853751209678105,-8.981332863606596,4294967295,4294967295,1,3,1,4505518,41.51989364624024,17.656078338623047,11.394886016845703,-0.027361998334527,-0.0009366032318212,1.6477771997451782,40.27325571055557,26.804715707568857,4.87353257155976,9.221976132775067,0.40607263063713567,4.87783279770721,4.87353257155976
40.25,27.75,1591,35737,4506418,1776873497357,2026-04-22T15:58:17.357000+00:00,240000,1500.0,0.0201520286500453,0.0001437500031897,1,0.5410520434379578,30.99999858592387,0.0153603618964552,10.164811456239145,5.933378172091188,-9.874800104881585,4294967295,4294967295,1,2,0,4506418,41.50292205810547,17.698108673095703,11.29555892944336,-0.0342637971043586,-0.0009906888008117,1.608852505683899,40.48489758833002,27.811813143754758,5.572430542778406,10.15062998878947,0.44156920980847625,5.580779655085583,5.572430542778406
40.5,20.25,26,35627,4500918,1776873491857,2026-04-22T15:58:11.857000+00:00,240000,1500.0,0.0131862852722406,9.999999747378752e-05,0,-0.6457718014717102,-36.99999875288908,0.0056862859055399,3.1472477106306744,-2.566569138784173,-3.4059524391986837,4294967295,4294967295,0,2,1,4500918,41.514068603515625,17.376554489135742,11.258112907409668,-0.0314180925488472,0.0490230247378349,1.8484305143356323,40.692944435998356,20.414797937839136,-2.743284015348475,3.277602842618423,0.03820313767871959,-2.585852947726842,-2.743284015348475
40.5,20.5,2,35625,4500818,1776873491757,2026-04-22T15:58:11.757000+00:00,240000,1500.0,0.0131862852722406,9.999999747378752e-05,0,-0.6108652353286743,-34.99999983559887,0.0058112856931984,3.359251225748148,-2.4999123936476857,-3.570244923821257,4294967295,4294967295,0,2,1,4500818,41.514068603515625,17.376554489135742,11.258112907409668,-0.0148858549073338,0.0331549458205699,1.852810263633728,40.57562712810336,20.602061642269415,-2.64046022050913,3.4449312603943434,0.04136634192967513,-2.5273180272167486,-2.64046022050913
40.5,20.75,100,35633,4501218,1776873492157,2026-04-22T15:58:12.157000+00:00,240000,1500.0,0.014005834236741,9.999999747378752e-05,0,-0.6283185482025146,-36.00000100179127,0.0064725005067884,3.6065599574985674,-2.853330326175985,-3.927272129680049,4294967295,4294967295,0,1,0,4501218,41.53534698486328,17.408903121948242,11.266108512878418,-0.0552932061254978,0.0600157417356967,1.834028244018555,40.72846349106721,20.924043766996675,-3.1159475544454724,3.7844164380185545,0.024594849348566622,-2.897238548364161,-3.1159475544454724
40.5,21.0,76,35631,4501118,1776873492057,2026-04-22T15:58:12.057000+00:00,240000,1500.0,0.0131862852722406,9.999999747378752e-05,0,-0.6108652353286743,-34.99999983559887,0.0066237859427928,3.724386484713504,-2.849435640487934,-4.069415855154616,4294967295,4294967295,0,1,0,4501118,41.53534698486328,17.408903121948242,11.266108512878418,-0.0562135502696037,0.0676316693425178,1.839532494544983,40.68040055959993,21.033833645068103,-3.15579380357176,3.926581562354562,0.024779672149310233,-2.9002469584854143,-3.15579380357176
40.5,21.25,174,35639,4501518,1776873492457,2026-04-22T15:58:12.457000+00:00,240000,1500.0,0.0166370384395122,0.0001187500020023,0,-0.6108652353286743,-34.99999983559887,0.0066620386205613,3.9483038446751966,-2.865891266366994,-4.09291692459701,4294967295,4294967295,0,2,1,4501518,41.55078887939453,17.434289932250977,11.289484024047852,-0.0203759782016277,0.0003814046795014,1.8130189180374143,40.638203438313795,21.275681745461966,-2.9191938596519753,3.9492577569860923,0.023998768346908922,-2.9178045287698304,-2.9191938596519753
40.5,21.5,939,35692,4504168,1776873495107,2026-04-22T15:58:15.107000+00:00,240000,1500.0,0.0201520286500453,0.0001437500031897,1,0.6457718014717102,36.99999875288908,0.0063957832753658,4.105169143634679,2.886808761570185,-3.830924791540135,4294967295,4294967295,1,2,0,4504168,41.59593963623047,17.658981323242188,11.267939567565918,-0.0236633755266666,0.0448464304208755,1.6997416019439695,40.709188798148354,21.667233641773414,2.64588252931098,3.966271992803183,0.2969938740272513,2.8343586884264838,2.64588252931098
40.5,21.75,251,35645,4501818,1776873492757,2026-04-22T15:58:12.757000+00:00,240000,1500.0,0.0149416122585535,0.0001062500014086,1,-0.5585053563117981,-31.999999752116263,0.0072870221920311,4.435867573295013,-2.8961500587871565,-4.634808984981095,4294967295,4294967295,1,3,1,4501818,41.56862258911133,17.447643280029297,11.334304809570312,-0.0095824990421533,0.0176462978124618,1.802588701248169,40.55538560100883,21.766239340527566,-3.053103532568357,4.489046148098572,0.022562833534666704,-2.974276030763762,-3.053103532568357
40.5,22.0,923,35691,4504118,1776873495057,2026-04-22T15:58:15.057000+00:00,240000,1500.0,0.0201520286500453,0.0001437500031897,2,0.6457718014717102,36.99999875288908,0.0070228613913059,4.49654395556229,3.169847526541664,-4.206529935923295,4294967295,4294967295,2,3,0,4504118,41.59606170654297,17.654155731201172,11.276321411132812,-0.0237964652478694,0.0416737757623195,1.7009239196777344,40.633901890265726,22.046553257865295,2.9061390307127395,4.355147328547063,0.3104255143317658,3.0985285793158304,2.9061390307127395
40.5,22.25,1360,35719,4505518,1776873496457,2026-04-22T15:58:16.457000+00:00,240000,1500.0,0.0193333327770233,0.0001374999992549,2,0.6108652353286743,34.99999983559887,0.0075985002331435,4.834873350410517,3.268740500609523,-4.668245259011582,4294967295,4294967295,2,3,0,4505518,41.51989364624024,17.656078338623047,11.394886016845703,-0.027361998334527,-0.0009366032318212,1.6477771997451782,40.74868650631033,22.429048049592406,3.169504679107878,4.8211102879173495,0.31511849289410865,3.1748001752189317,3.169504679107878
40.5,22.5,1278,35713,4505218,1776873496157,2026-04-22T15:58:16.157000+00:00,240000,1500.0,0.0193333327770233,0.0001374999992549,2,0.6632251143455505,37.99999991908148,0.0081500001251697,5.1214460895260565,3.763230818922111,-4.816715810712213,4294967295,4294967295,2,3,0,4505218,41.53783416748047,17.674827575683594,11.37279987335205,-0.0345740541815757,0.0299393534660339,1.6615585088729858,40.612537938804444,22.711993141467556,3.495949188464244,4.993362421638162,0.33858459334260665,3.660951102591844,3.495949188464244
40.5,23.5,1530,35732,4506168,1776873497107,2026-04-22T15:58:17.107000+00:00,240000,1500.0,0.0193333327770233,0.0001374999992549,1,0.6108652353286743,34.99999983559887,0.0094193331897258,6.039802278309731,4.052030656219987,-5.786899540278983,4294967295,4294967295,1,2,0,4506168,41.49779891967773,17.656957626342773,11.34341049194336,-0.033344954252243,0.0114505924284458,1.6169267892837524,40.73849807439637,23.64884161949805,3.8194303958853744,5.976395703487602,0.3522896260612812,3.9020310768615176,3.8194303958853744
40.5,25.25,859,35687,4503918,1776873494857,2026-04-22T15:58:14.857000+00:00,240000,1500.0,0.0201526675373315,0.0001437500031897,0,-0.5235987901687622,-30.000000834826057,0.012629147619009,7.833174496524158,-4.735930476648027,-8.202871930649474,4294967295,4294967295,0,2,1,4503918,41.59238052368164,17.624170303344727,11.347007751464844,-0.0100934412330389,0.0258536823093891,1.7079650163650513,40.635349859714964,25.398661605110007,-5.186173857685675,7.963779065470482,-0.06474417833166407,-4.9828759931273705,-5.186173857685675
40.5,25.5,923,35691,4504118,1776873495057,2026-04-22T15:58:15.057000+00:00,240000,1500.0,0.0201520286500453,0.0001437500031897,1,-0.5235987901687622,-30.000000834826057,0.0130603611469268,8.016171597706132,-4.897635553698141,-8.48295333051764,4294967295,4294967295,1,3,1,4504118,41.59606170654297,17.654155731201172,11.276321411132812,-0.0237964652478694,0.0416737757623195,1.7009239196777344,40.74965957503672,25.625517629625566,-5.493247523308714,8.23569680449596,-0.07241791316643059,-5.157793057740439,-5.493247523308714
40.5,25.75,909,35690,4504068,1776873495007,2026-04-22T15:58:15.007000+00:00,240000,1500.0,0.0201520286500453,0.0001437500031897,0,-0.5235987901687622,-30.000000834826057,0.0132520282641053,8.16222170764347,-4.969510724453954,-8.60744477388038,4294967295,4294967295,0,3,2,4504068,41.59569549560547,17.64600944519043,11.288987159729004,-0.02221923135221,0.0365158021450042,1.7027682065963743,40.71239290297264,25.76029559583698,-5.53415418678136,8.356559638740391,-0.07582875846359305,-5.235540733425808,-5.53415418678136
40.5,26.0,889,35689,4504018,1776873494957,2026-04-22T15:58:14.957000+00:00,240000,1500.0,0.0193208139389753,0.0001374999992549,0,-0.5235987901687622,-30.000000834826057,0.0136353615671396,8.417983684407469,-5.113260716719606,-8.856427055694105,4294967295,4294967295,0,2,1,4504018,41.59506607055664,17.640104293823242,11.305127143859863,-0.0198261700570583,0.0329947583377361,1.7041479349136353,40.66395037219484,26.006434006858377,-5.669051763978579,8.598284719949142,-0.08265043248440618,-5.391035707015701,-5.669051763978579
40.5,26.25,1541,35733,4506218,1776873497157,2026-04-22T15:58:17.157000+00:00,240000,1500.0,0.0201526675373315,0.0001437500031897,1,0.5585053563117981,31.999999752116263,0.0133484993129968,8.812923323135387,5.3052201641889765,-8.490127094651701,4294967295,4294967295,1,3,1,4506218,41.49779891967773,17.656957626342773,11.34341049194336,-0.033344954252243,0.0114505924284458,1.6169267892837524,40.513960049626846,26.414792894103904,4.904335633932595,8.737154519883038,0.4117598922848039,5.0212259654906735,4.904335633932595
40.5,27.25,1692,35745,4506818,1776873497757,2026-04-22T15:58:17.757000+00:00,240000,1500.0,0.0183961000293493,0.0001312499953201,1,0.6632251143455505,37.99999991908148,0.0152460997924208,9.629022849526642,7.039827205647454,-9.01056795018395,4294967295,4294967295,1,2,0,4506818,41.50497055053711,17.739864349365234,11.455204963684082,-0.0154101457446813,0.0413033105432987,1.5904988050460815,40.71807802228736,27.33668054983979,6.326750545640395,9.341018479853586,0.4940758883035684,6.726597674835178,6.326750545640395
40.75,20.25,410,35658,4502468,1776873493407,2026-04-22T15:58:13.407000+00:00,240000,1500.0,0.0166371967643499,0.0001187500020023,0,-0.6632251143455505,-37.99999991908148,0.0052402229048311,2.95820771912347,-2.4196525190938525,-3.097014003644675,4294967295,4294967295,0,4,3,4502468,41.565189361572266,17.447790145874023,11.257054328918455,-0.0091240582987666,0.0074017653241753,1.7845807075500488,40.915066822979504,20.33367538168909,-2.446564075284273,2.9761455803075343,0.0451750844035238,-2.424290696372515,-2.446564075284273
40.75,20.5,240,35644,4501768,1776873492707,2026-04-22T15:58:12.707000+00:00,240000,1500.0,0.0149416122585535,0.0001062500014086,0,-0.6283185482025146,-36.00000100179127,0.0054499455727636,3.1434621150626447,-2.4025482829187084,-3.306823898080754,4294967295,4294967295,0,1,0,4501768,41.56862258911133,17.447643280029297,11.334304809570312,-0.0095824990421533,0.0176462978124618,1.802588701248169,40.82430821281606,20.50171436271128,-2.4735827706385574,3.186537195360825,0.04598676808936503,-2.4174018515291804,-2.4735827706385574
40.75,20.75,410,35658,4502468,1776873493407,2026-04-22T15:58:13.407000+00:00,240000,1500.0,0.0166371967643499,0.0001187500020023,1,-0.6283185482025146,-36.00000100179127,0.0061402227729558,3.569752403923107,-2.706849358941885,-3.7256583820989775,4294967295,4294967295,1,4,2,4502468,41.565189361572266,17.447790145874023,11.257054328918455,-0.0091240582987666,0.0074017653241753,1.7845807075500488,40.80144874882016,20.93488528391483,-2.7679880415203426,3.5901364504643203,0.03154612213109184,-2.7413163138427463,-2.7679880415203426
40.75,21.75,1615,35739,4506518,1776873497457,2026-04-22T15:58:17.457000+00:00,240000,1500.0,0.0193333327770233,0.0001374999992549,1,0.6632251143455505,37.99999991908148,0.0067750001326203,4.160446980781881,3.128329927080484,-4.004079724561967,4294967295,4294967295,1,2,0,4506518,41.50292205810547,17.698108673095703,11.29555892944336,-0.0299939699470996,-0.0031925702933222,1.60443115234375,40.96359598418303,21.82345065478455,3.069532270701233,4.150923993772982,0.3084552914107971,3.066925622165263,3.069532270701233
40.75,22.25,1506,35730,4506068,1776873497007,2026-04-22T15:58:17.007000+00:00,240000,1500.0,0.0193333327770233,0.0001374999992549,3,0.6632251143455505,37.99999991908148,0.0075083337724208,4.648346729566436,3.466943879407542,-4.437485820648483,4294967295,4294967295,3,4,0,4506068,41.49779891967773,17.656957626342773,11.34341049194336,-0.0289762318134307,0.0086154984310269,1.6201550960540771,40.84749650841066,22.259591013021666,3.3331588220396213,4.600224678836091,0.3245242592435438,3.38373934584231,3.3331588220396213
40.75,25.0,1067,35700,4504568,1776873495507,2026-04-22T15:58:15.507000+00:00,240000,1500.0,0.0201526675373315,0.0001437500031897,0,-0.5585053563117981,-31.999999752116263,0.0125500001013278,7.463483026301872,-4.987865080332427,-7.982252791099992,4294967295,4294967295,0,1,0,4504568,41.57568359375,17.693777084350586,11.479267120361328,-0.0106208203360438,0.0496835187077522,1.6843827962875366,40.86120817429618,25.12298321683153,-5.59993271214348,7.731214222884019,-0.07669976673769127,-5.223530324415568,-5.59993271214348
40.75,25.25,1085,35701,4504618,1776873495557,2026-04-22T15:58:15.557000+00:00,240000,1500.0,0.0193333327770233,0.0001374999992549,0,-0.5585053563117981,-31.999999752116263,0.0131000000983476,7.800653975538048,-5.2064567741307055,-8.332072629814695,4294967295,4294967295,0,1,0,4504618,41.57270050048828,17.695003509521484,11.49560832977295,-0.0121818827465176,0.0479578524827957,1.682963490486145,40.852321871556676,25.462323322497912,-5.837718449985076,8.070032371506622,-0.08707306314798652,-5.458585435063086,-5.837718449985076
40.75,25.5,1150,35705,4504818,1776873495757,2026-04-22T15:58:15.757000+00:00,240000,1500.0,0.0193333327770233,0.0001374999992549,0,-0.5585053563117981,-31.999999752116263,0.0131000000983476,7.854557094295993,-5.2064567741307055,-8.332072629814695,4294967295,4294967295,0,1,0,4504818,41.560054779052734,17.693225860595703,11.501447677612305,-0.0278010535985231,0.039054587483406,1.6771079301834106,40.964407705367,25.52516506561799,-5.764988464846925,8.070032371506622,-0.08707306314798652,-5.458585435063086,-5.764988464846925
40.75,25.75,1099,35702,4504668,1776873495607,2026-04-22T15:58:15.607000+00:00,240000,1500.0,0.0193333327770233,0.0001374999992549,0,-0.5585053563117981,-31.999999752116263,0.0136359995231032,8.137463964992882,-5.4194840882526965,-8.672987599515011,4294967295,4294967295,0,1,0,4504668,41.56880569458008,17.695592880249023,11.51124095916748,-0.0159208327531814,0.0451101437211036,1.681042194366455,40.860317131853,25.80215588426266,-6.058412298926759,8.400225705583926,-0.09718230121865049,-5.687657080109658,-6.058412298926759
40.75,27.0,1864,35759,4507518,1776873498457,2026-04-22T15:58:18.457000+00:00,240000,1500.0,0.0201526675373315,0.0001437500031897,1,0.6283185482025146,36.00000100179127,0.0146583337336778,9.303806372407493,6.461964449387762,-8.894130711839146,4294967295,4294967295,1,2,0,4507518,41.4939079284668,17.790851593017578,11.369322776794434,-0.0307663436979055,0.0138183692470192,1.555880427360535,40.97661382898879,27.080265989517258,6.01077875522813,9.19672285966222,0.4666533382926623,6.155712595953359,6.01077875522813
40.75,27.25,1754,35750,4507068,1776873498007,2026-04-22T15:58:18.007000+00:00,240000,1500.0,0.0201495140790939,0.0001437500031897,1,0.6283185482025146,36.00000100179127,0.0146583337336778,9.529779243864592,6.461964449387762,-8.894130711839146,4294967295,4294967295,1,2,0,4507068,41.50260925292969,17.76668357849121,11.463790893554688,-0.0102067431434988,0.0539592839777469,1.5738897323608398,40.94372017599441,27.2800602364647,5.645669298033655,9.19672285966222,0.4666533382926623,6.155712595953359,5.645669298033655
40.75,27.5,1840,35757,4507418,1776873498357,2026-04-22T15:58:18.357000+00:00,240000,1500.0,0.0193333327770233,0.0001374999992549,1,0.6457718014717102,36.99999875288908,0.0158401671797037,9.962637464784734,7.149637726974045,-9.487890151718185,4294967295,4294967295,1,2,0,4507418,41.4939079284668,17.790851593017578,11.369322776794434,-0.0198764875531196,0.017769580706954,1.5606282949447632,40.96043566587715,27.73919580699509,6.626118551297512,9.823098867055567,0.49928696044861054,6.813004732844319,6.626118551297512
40.75,27.75,1766,35751,4507118,1776873498057,2026-04-22T15:58:18.057000+00:00,240000,1500.0,0.0193333327770233,0.0001374999992549,1,0.5759586691856384,33.000000918308665,0.0152083337306976,10.171017733999854,6.212289308775776,-9.566086316003274,4294967295,4294967295,1,2,0,4507118,41.50260925292969,17.76668357849121,11.463790893554688,-0.0102067431434988,0.0539592839777469,1.5738897323608398,40.95645412773843,27.923027227884276,5.328978116872841,9.85579177783374,0.4548049729918272,5.874021653345842,5.328978116872841
41.0,20.25,841,35686,4503868,1776873494807,2026-04-22T15:58:14.807000+00:00,240000,1500.0,0.0201526675373315,0.0001437500031897,0,-0.6632251143455505,-37.99999991908148,0.0051068332977592,2.845434908832731,-2.3580603874929538,-3.0181796699636783,4294967295,4294967295,0,2,1,4503868,41.59017562866211,17.614160537719727,11.372843742370604,-0.0027155040297657,0.0230972915887832,1.7105655670166016,41.152522245708155,20.425736490240464,-2.425494615074747,2.9003879461847704,0.04809794678011364,-2.359016807337785,-2.425494615074747
41.0,20.5,939,35692,4504168,1776873495107,2026-04-22T15:58:15.107000+00:00,240000,1500.0,0.0201520286500453,0.0001437500031897,0,-0.6457718014717102,-36.99999875288908,0.0052957832813262,2.9419094004678277,-2.390311384501252,-3.17205048851444,4294967295,4294967295,0,2,1,4504168,41.59593963623047,17.658981323242188,11.267939567565918,-0.0236633755266666,0.0448464304208755,1.6997416019439695,41.22776283404016,20.577761336002638,-2.533523174774963,3.0525152314017974,0.04656747164777238,-2.3986564635910543,-2.533523174774963
41.0,21.25,841,35686,4503868,1776873494807,2026-04-22T15:58:14.807000+00:00,240000,1500.0,0.0201526675373315,0.0001437500031897,1,-0.6108652353286743,-34.99999983559887,0.0063526667654514,3.700818113160982,-2.732804962291412,-3.902849983546057,4294967295,4294967295,1,2,0,4503868,41.59017562866211,17.614160537719727,11.372843742370604,-0.0027155040297657,0.0230972915887832,1.7105655670166016,41.05205289801562,21.27564638822659,-2.862111306870044,3.7658620626388375,0.030314395699157254,-2.775806153571376,-2.862111306870044
41.0,21.5,1627,35740,4506568,1776873497507,2026-04-22T15:58:17.507000+00:00,240000,1500.0,0.0193333327770233,0.0001374999992549,2,0.6632251143455505,37.99999991908148,0.0063723330385982,3.9347661550551907,2.9423999645385543,-3.76610022413968,4294967295,4294967295,2,3,0,4506568,41.50292205810547,17.698108673095703,11.29555892944336,-0.0240130629390478,0.0045925467275083,1.6000415086746216,41.0195225002623,21.603068283955313,2.8669768843213124,3.9042169134245643,0.2996319615784093,2.8929659746928884,2.8669768843213124
41.0,22.0,2179,35784,4508768,1776873499707,2026-04-22T15:58:19.707000+00:00,240000,1500.0,0.0201496463268995,0.0001437500031897,1,0.6632251143455505,37.99999991908148,0.0069456663914024,4.215219287927106,3.2071344074406283,-4.104944860071883,4294967295,4294967295,1,2,0,4508768,41.42999267578125,17.800260543823242,11.30697536468506,-0.0569791533052921,-0.0217801202088594,1.5018404722213743,41.229075385874594,22.01068877476713,3.209718991840435,4.255488223239985,0.31219496796954793,3.140656609012544,3.209718991840435
41.0,22.25,1877,35760,4507568,1776873498507,2026-04-22T15:58:18.507000+00:00,240000,1500.0,0.0193333327770233,0.0001374999992549,2,0.6632251143455505,37.99999991908148,0.0073250001296401,4.560385501455243,3.3822902838171345,-4.3291341590220656,4294967295,4294967295,2,3,0,4507568,41.4939079284668,17.790851593017578,11.369322776794434,-0.0397946499288082,0.0153812728822231,1.5508311986923218,41.132871444512425,22.336923367543037,3.2197525496294066,4.487899364919054,0.3205070121835209,3.304535814335895,3.2197525496294066
41.0,22.5,1779,35752,4507168,1776873498107,2026-04-22T15:58:18.107000+00:00,240000,1500.0,0.0193333327770233,0.0001374999992549,2,0.6457718014717102,36.99999875288908,0.0075985002331435,4.858328395548068,3.429668596232612,-4.551324156619141,4294967295,4294967295,2,3,0,4507168,41.50260925292969,17.76668357849121,11.463790893554688,-0.009218861348927,0.0411491096019744,1.5693142414093018,41.1562493216946,22.612649900807483,3.1412407069235297,4.712123185615909,0.32275535597721905,3.341028590358231,3.1412407069235297
41.0,23.5,1790,35753,4507218,1776873498157,2026-04-22T15:58:18.157000+00:00,240000,1500.0,0.0201526675373315,0.0001437500031897,1,0.6283185482025146,36.00000100179127,0.0091318329796195,5.8970067701948725,4.025667660743189,-5.5408559823423325,4294967295,4294967295,1,2,0,4507218,41.50260925292969,17.76668357849121,11.463790893554688,-0.009218861348927,0.0411491096019744,1.5693142414093018,41.12446775387741,23.651553828073496,3.6452810633186306,5.729364513057258,0.3510385667845438,3.8876621611790765,3.6452810633186306
41.0,25.0,1196,35708,4504968,1776873495907,2026-04-22T15:58:15.907000+00:00,240000,1500.0,0.0201526675373315,0.0001437500031897,0,-0.5585053563117981,-31.999999752116263,0.0125500001013278,7.5464563161033515,-4.987865080332427,-7.982252791099992,4294967295,4294967295,0,2,1,4504968,41.54986953735352,17.685672760009766,11.439950942993164,-0.0379217751324176,0.0354503691196441,1.6716567277908323,41.063811007964134,25.2164595739399,-5.487606248044277,7.731214222884019,-0.07669976673769127,-5.223530324415568,-5.487606248044277
41.0,25.25,1260,35712,4505168,1776873496107,2026-04-22T15:58:16.107000+00:00,240000,1500.0,0.0201526675373315,0.0001437500031897,0,-0.5410520434379578,-30.99999858592387,0.0126416673883795,7.722813011458771,-4.883204825946056,-8.127018054272318,4294967295,4294967295,0,2,1,4505168,41.53783416748047,17.674827575683594,11.37279987335205,-0.0353682823479175,0.0309472437947988,1.6625196933746338,41.0827337615732,25.384219538121354,-5.3617906880214985,7.880879536302957,-0.07173310116013909,-5.126132293317272,-5.3617906880214985
41.0,25.5,1182,35707,4504918,1776873495857,2026-04-22T15:58:15.857000+00:00,240000,1500.0,0.0201526675373315,0.0001437500031897,0,-0.5585053563117981,-31.999999752116263,0.0130609991028904,7.847782935125265,-5.190956240125256,-8.307266589788389,4294967295,4294967295,0,2,1,4504918,41.55376434326172,17.688976287841797,11.465601921081545,-0.0353548936545848,0.0364060848951339,1.6739022731781006,41.02371552576568,25.518838690714173,-5.724722089228541,8.046006471239641,-0.08633748335095737,-5.4419174653317715,-5.724722089228541
41.0,25.75,1348,35718,4505468,1776873496407,2026-04-22T15:58:16.407000+00:00,240000,1500.0,0.0193333327770233,0.0001374999992549,0,-0.5410520434379578,-30.99999858592387,0.0131916673853993,8.216374753781118,-5.095658021968761,-8.480599569139425,4294967295,4294967295,0,2,1,4505468,41.51989364624024,17.656078338623047,11.394886016845703,-0.0276679061353206,0.0019771221559494,1.6487737894058228,41.109335961275434,25.862189261702753,-5.36718138959031,8.223752322646323,-0.0818150943839614,-5.355245483583028,-5.36718138959031
41.0,26.0,1374,35720,4505568,1776873496507,2026-04-22T15:58:16.507000+00:00,240000,1500.0,0.0201526675373315,0.0001437500031897,0,-0.5235987901687622,-30.000000834826057,0.0131568331271409,8.35913463027295,-4.933812547191426,-8.545613719204637,4294967295,4294967295,0,2,1,4505568,41.51989364624024,17.656078338623047,11.394886016845703,-0.0260928235948085,-0.0116571681573987,1.6435446739196775,41.121649768880154,26.005721060391068,-5.09615796228969,8.296530802134669,-0.07413469695733474,-5.196925864352383,-5.09615796228969
41.0,26.25,1941,35765,4507818,1776873498757,2026-04-22T15:58:18.757000+00:00,240000,1500.0,0.0193208139389753,0.0001374999992549,1,0.6283185482025146,36.00000100179127,0.0134541476145386,8.631413516977709,5.931112305228584,-8.163475445040342,4294967295,4294967295,1,2,0,4507818,41.48028945922852,17.80211067199707,11.458962440490724,-0.035452876240015,0.0301596242934465,1.5404422283172607,41.09995896940382,26.425140767014437,5.385203673232902,8.441209565287478,0.4414616828106126,5.661520163416876,5.385203673232902
41.0,26.5,1416,35723,4505718,1776873496657,2026-04-22T15:58:16.657000+00:00,240000,1500.0,0.0193333327770233,0.0001374999992549,0,-0.5061454772949219,-28.99999966863366,0.0137318326160311,8.871977865038941,-4.992993364803403,-9.007598594716937,4294967295,4294967295,0,2,1,4505718,41.50340270996094,17.648765563964844,11.462811470031738,-0.0214818883687257,-0.0221768524497747,1.6318289041519165,41.15233548022013,26.51379478207479,-5.080064618041953,8.755104878713052,-0.07694313012432955,-5.2783772201960195,-5.080064618041953
41.0,27.75,1954,35766,4507868,1776873498807,2026-04-22T15:58:18.807000+00:00,240000,1500.0,0.0193208139389753,0.0001374999992549,1,0.6632251143455505,37.99999991908148,0.0158395282924175,9.99546318486088,7.313840504508311,-9.361288980191494,4294967295,4294967295,1,2,0,4507868,41.48028945922852,17.80211067199707,11.458962440490724,-0.0246855821460485,0.0395220853388309,1.5350029468536377,41.15830671606622,27.79238651368507,6.5794381908832715,9.704601734614666,0.5070792239750032,6.982969785176606,6.5794381908832715
41.0,28.25,1779,35752,4507168,1776873498107,2026-04-22T15:58:18.107000+00:00,240000,1500.0,0.0193333327770233,0.0001374999992549,1,0.5585053563117981,31.999999752116263,0.0158401671797037,10.615561034194887,6.295507259311667,-10.07491774189723,4294967295,4294967295,1,3,1,4507168,41.50260925292969,17.76668357849121,11.463790893554688,-0.009218861348927,0.0411491096019744,1.5693142414093018,41.004901055591034,28.370570725241627,5.496354041780076,10.368055990765871,0.4587540913346436,5.932369128715488,5.496354041780076
41.25,20.5,1467,35727,4505918,1776873496857,2026-04-22T15:58:16.857000+00:00,240000,1500.0,0.0193333327770233,0.0001374999992549,0,-0.6632251143455505,-37.99999991908148,0.0053943335078656,3.0992595210978013,-2.4908124898858786,-3.188094613072173,4294967295,4294967295,0,2,1,4505918,41.50340270996094,17.648765563964844,11.462811470031738,-0.0213393829762935,-0.0143531467765569,1.6269426345825195,41.341014588518945,20.743767935067314,-2.4557977808056215,3.0636715497995546,0.04179817901088416,-2.4997043558199747,-2.4557977808056215
41.25,20.75,1627,35740,4506568,1776873497507,2026-04-22T15:58:17.507000+00:00,240000,1500.0,0.0193333327770233,0.0001374999992549,0,-0.6283185482025146,-36.00000100179127,0.0053223334252834,3.1010716324517316,-2.346291877838177,-3.2293936020642198,4294967295,4294967295,0,3,2,4506568,41.50292205810547,17.698108673095703,11.29555892944336,-0.0240130629390478,0.0045925467275083,1.6000415086746216,41.42020390365093,20.798076894952256,-2.3722748445433446,3.111923449389143,0.04865642289068843,-2.357519502634803,-2.3722748445433446
41.25,21.0,1705,35746,4506868,1776873497807,2026-04-22T15:58:17.807000+00:00,240000,1500.0,0.0183961000293493,0.0001312499953201,0,-0.6283185482025146,-36.00000100179127,0.0060715349391102,3.393054405013259,-2.676569086403401,-3.6839811639624864,4294967295,4294967295,0,1,0,4506868,41.50497055053711,17.739864349365234,11.455204963684082,-0.0137412091717123,0.0559029132127761,1.5848803520202637,41.46142884391343,21.1326393662451,-2.9034000859193503,3.549975253532069,0.03298307628505931,-2.7090843601270644,-2.9034000859193503
41.25,21.5,2589,35817,4510418,1776873501357,2026-04-22T15:58:21.357000+00:00,240000,1500.0,0.0175680685788393,0.0001250000059371,3,0.6632251143455505,37.99999991908148,0.0061650020070374,3.8298274756921438,2.846665668132929,-3.643565912184703,4294967295,4294967295,3,4,0,4510418,41.38383102416992,17.857397079467773,11.314204216003418,-0.0419318601489067,0.0109748160466551,1.4325991868972778,41.49993696284026,21.68546420330089,2.7469398547322026,3.7771888194447376,0.2950888784630781,2.8033951264764116,2.7469398547322026
41.25,21.75,1627,35740,4506568,1776873497507,2026-04-22T15:58:17.507000+00:00,240000,1500.0,0.0193333327770233,0.0001374999992549,1,-0.5759586691856384,-33.000000918308665,0.0067223333753645,4.077610832289481,-2.745933939726089,-4.228367318366113,4294967295,4294967295,1,3,1,4506568,41.50292205810547,17.698108673095703,11.29555892944336,-0.0240130629390478,0.0045925467275083,1.6000415086746216,41.42133756274442,21.7749032558189,-2.8233527081380143,4.090360252635847,0.02969135841842846,-2.8046928603764845,-2.8233527081380143
41.25,22.0,1681,35744,4506768,1776873497707,2026-04-22T15:58:17.707000+00:00,240000,1500.0,0.0175705850124359,0.0001250000059371,0,-0.5585053563117981,-31.999999752116263,0.0073710996657609,4.412746294194821,-2.9295657633189283,-4.688285291270345,4294967295,4294967295,0,1,0,4506768,41.50497055053711,17.739864349365234,11.455204963684082,-0.0154101457446813,0.0413033105432987,1.5904988050460815,41.44344196586414,22.152181664586145,-3.1951054715121456,4.540840646542886,0.02097708705984047,-3.0102084671230718,-3.1951054715121456
41.25,22.25,2203,35786,4508868,1776873499807,2026-04-22T15:58:19.807000+00:00,240000,1500.0,0.0193206667900085,0.0001374999992549,1,0.593411922454834,33.99999866940647,0.0069842124357819,4.472938497459443,2.9291414219661047,-4.3426309610012055,4294967295,4294967295,1,2,0,4508868,41.42999267578125,17.800260543823242,11.30697536468506,-0.0524602867662906,-0.0101556610316038,1.4982202053070068,41.3057563263955,22.271473369393732,2.877518441165389,4.47942681791383,0.29900277576771944,2.8517755704717005,2.877518441165389
41.25,25.75,1604,35738,4506468,1776873497407,2026-04-22T15:58:17.407000+00:00,240000,1500.0,0.0201520286500453,0.0001437500031897,0,-0.5061454772949219,-28.99999966863366,0.0127333337441086,8.136636631796836,-4.629931974406582,-8.352618499412293,4294967295,4294967295,0,2,1,4506468,41.50292205810547,17.698108673095703,11.29555892944336,-0.0299939699470996,-0.0031925702933222,1.60443115234375,41.43543780594119,25.83446544708294,-4.854453016996236,8.118484655513392,-0.059714006033294215,-4.884384393943528,-4.854453016996236
41.25,26.25,1506,35730,4506068,1776873497007,2026-04-22T15:58:17.007000+00:00,240000,1500.0,0.0193333327770233,0.0001374999992549,1,-0.4712388813495636,-26.99999904379616,0.0132833337411284,8.60760012436263,-4.522880344364945,-8.876652845219617,4294967295,4294967295,1,4,2,4506068,41.49779891967773,17.656957626342773,11.34341049194336,-0.0289762318134307,0.0086154984310269,1.6201550960540771,41.26674665411951,26.261456144647486,-4.873716331295047,8.647088554229237,-0.05463385742228641,-4.802995466976886,-4.873716331295047
41.25,26.75,2039,35773,4508218,1776873499157,2026-04-22T15:58:19.157000+00:00,240000,1500.0,0.0192741174250841,0.0001374999992549,1,0.5585053563117981,31.999999752116263,0.0134074501693248,8.986066169590977,5.328649559835202,-8.527621965859884,4294967295,4294967295,1,2,0,4508218,41.45689010620117,17.796213150024414,11.453448295593262,-0.0052903005853295,0.0410728603601455,1.5208196640014648,41.466264568651326,26.78227442979105,4.675933648162883,8.775740336066566,0.4128717372114308,5.042782879406534,4.675933648162883
41.25,27.25,2004,35770,4508068,1776873499007,2026-04-22T15:58:19.007000+00:00,240000,1500.0,0.0193207822740077,0.0001374999992549,1,0.6457718014717102,36.99999875288908,0.0147717176005244,9.466797649640043,6.667380984730959,-8.847913810250544,4294967295,4294967295,1,2,0,4508068,41.45689010620117,17.796213150024414,11.453448295593262,-0.0073536154814064,0.047533918172121,1.524792194366455,41.3689580967968,27.262602414202828,5.916768550757722,9.16051205647,0.4764014058960785,6.362897797874314,5.916768550757722
41.25,27.5,2113,35779,4508518,1776873499457,2026-04-22T15:58:19.457000+00:00,240000,1500.0,0.0184467118233442,0.0001312499953201,1,0.6108652353286743,34.99999983559887,0.0154717117547988,9.78379710915208,6.655656942152261,-9.5052632535425,4294967295,4294967295,1,2,0,4508518,41.4376220703125,17.78815460205078,11.368414878845217,-0.0243361536413431,-0.0083496943116188,1.511038899421692,41.392364817051515,27.57184703661146,6.387612432532765,9.816519895254883,0.47584503997620964,6.319318563365413,6.387612432532765
41.25,27.75,1530,35732,4506168,1776873497107,2026-04-22T15:58:17.107000+00:00,240000,1500.0,0.0193333327770233,0.0001374999992549,0,-0.4886921942234039,-28.000000209988556,0.0159360002726316,10.204344126431184,-5.61112425308819,-10.552989789824762,4294967295,4294967295,0,2,1,4506168,41.49779891967773,17.656957626342773,11.34341049194336,-0.033344954252243,0.0114505924284458,1.6169267892837524,41.332371891383026,27.859960760172548,-6.080365992962457,10.268731084033096,-0.10627660942137176,-5.970038263286711,-6.080365992962457
41.5,21.0,2102,35778,4508468,1776873499407,2026-04-22T15:58:19.407000+00:00,240000,1500.0,0.0193206667900085,0.0001374999992549,0,-0.6457718014717102,-36.99999875288908,0.0058467127382755,3.3923225984421728,-2.6389795952353285,-3.502044364815047,4294967295,4294967295,0,2,1,4508468,41.4376220703125,17.78815460205078,11.368414878845217,-0.0243361536413431,-0.0083496943116188,1.511038899421692,41.670194633729196,21.172495396747326,-2.6345832298571588,3.3700736490008425,0.03476689033134428,-2.6627572684330167,-2.6345832298571588
41.5,21.25,1916,35763,4507718,1776873498657,2026-04-22T15:58:18.657000+00:00,240000,1500.0,0.0201526675373315,0.0001437500031897,0,-0.6283185482025146,-36.00000100179127,0.006065166555345,3.4886818938547126,-2.673761654792237,-3.680117065992,4294967295,4294967295,0,3,2,4507718,41.48028945922852,17.80211067199707,11.458962440490724,-0.0416262149810791,0.0213204976171255,1.5457379817962646,41.64717761472414,21.286798563338987,-2.7801172623777695,3.5462517132744162,0.033116303306398504,-2.706095978644171,-2.7801172623777695
41.5,21.75,2602,35818,4510468,1776873501407,2026-04-22T15:58:21.407000+00:00,240000,1500.0,0.0166941676288843,0.0001187500020023,3,0.6632251143455505,37.99999991908148,0.0064816689118742,4.0190878539072346,2.992885378232633,-3.830718607133329,4294967295,4294967295,3,4,0,4510468,41.38383102416992,17.857397079467773,11.314204216003418,-0.0442784093320369,0.0084659615531563,1.4225095510482788,41.54705159932469,21.873169261909254,2.890225933283756,3.9712050891998336,0.30202775325532605,2.9402010983311153,2.890225933283756
41.5,22.25,2089,35777,4508418,1776873499357,2026-04-22T15:58:19.357000+00:00,240000,1500.0,0.0193206667900085,0.0001374999992549,1,-0.5759586691856384,-33.000000918308665,0.0074956663884222,4.531792884068973,-3.0618244570050903,-4.714796041257215,4294967295,4294967295,1,3,1,4508418,41.4376220703125,17.78815460205078,11.368414878845217,-0.0136932460591197,0.0092304544523358,1.5144895315170288,41.72095139693411,22.31108188830847,-3.1853198634997795,4.56091272928847,0.014700734063046922,-3.1434484791605617,-3.1853198634997795
41.5,22.5,2613,35819,4510518,1776873501457,2026-04-22T15:58:21.457000+00:00,240000,1500.0,0.0166941676288843,0.0001187500020023,2,0.6108652353286743,34.99999983559887,0.0072680143639445,4.657967433292926,3.1265713208524386,-4.465206627081388,4294967295,4294967295,2,3,0,4510518,41.38383102416992,17.857397079467773,11.314204216003418,-0.0442784093320369,0.0084659615531563,1.4225095510482788,41.631004216816436,22.50880181593765,2.987025690449658,4.611423010807452,0.3083718365303507,3.0428058943767913,2.987025690449658
41.5,23.0,2502,35810,4510068,1776873501007,2026-04-22T15:58:21.007000+00:00,240000,1500.0,0.0183960981667041,0.0001312499953201,1,0.6632251143455505,37.99999991908148,0.0083335982635617,5.212146193563725,3.8480065443309495,-4.925223791378228,4294967295,4294967295,1,2,0,4510068,41.395294189453125,17.85992431640625,11.33762264251709,-0.0197334680706262,0.0244249757379293,1.4455945491790771,41.63099509010924,23.066738412234017,3.606969025809433,5.105849787386526,0.3426076360885731,3.7402689011043386,3.606969025809433
