packet_index,time_boot_ms,x_m,y_m,z_m,vx_mps,vy_mps,vz_mps
13,3370647,50.18146514892578,23.041507720947266,13.327329635620117,-0.50676429271698,-0.5788685083389282,-0.0156395360827446
28,3370687,50.160919189453125,23.017471313476562,13.327705383300781,-0.5051792860031128,-0.5827310085296631,-0.0007009487017057836
33,3370727,50.140907287597656,22.993959426879883,13.328556060791016,-0.5060573816299438,-0.5850210189819336,0.011888619512319565
45,3370747,50.13086700439453,22.982179641723633,13.330085754394531,-0.5070739984512329,-0.5860236287117004,0.01539621315896511
59,3370787,50.110782623291016,22.958324432373047,13.333318710327148,-0.5086439251899719,-0.584635317325592,0.023250773549079895
64,3370827,50.09055709838867,22.93462371826172,13.336331367492676,-0.5126712322235107,-0.5813228487968445,0.023370176553726196
76,3370847,50.08040237426758,22.922868728637695,13.337435722351074,-0.5124327540397644,-0.5784503221511841,0.02337510511279106
91,3370887,50.05999755859375,22.899580001831055,13.33938217163086,-0.5159475207328796,-0.5717711448669434,0.016419008374214172
96,3370927,50.03950881958008,22.876663208007812,13.340867042541504,-0.5169634819030762,-0.5634393095970154,0.007968605495989323
108,3370947,50.02924346923828,22.865345001220703,13.339825630187988,-0.5178390741348267,-0.5593138933181763,0.0012824948644265532
122,3370987,50.00798797607422,22.84157943725586,13.337431907653809,-0.5193649530410767,-0.549282431602478,-0.009524540975689888
127,3371027,49.98723602294922,22.818906784057617,13.33486270904541,-0.5198439955711365,-0.5380917191505432,-0.021681122481822968
139,3371047,49.97684860229492,22.807777404785156,13.331809043884277,-0.5200273394584656,-0.5336847901344299,-0.026655269786715508
153,3371087,49.95606994628906,22.78587532043457,13.325949668884277,-0.5210874676704407,-0.5247207283973694,-0.033324889838695526
158,3371127,49.935218811035156,22.76442527770996,13.320480346679688,-0.5222909450531006,-0.515433669090271,-0.03650898486375809
170,3371147,49.92475891113281,22.753870010375977,13.31734561920166,-0.5249847173690796,-0.5117059350013733,-0.033354174345731735
184,3371187,49.90404510498047,22.732879638671875,13.311859130859375,-0.5271196961402893,-0.5047327280044556,-0.029297858476638794
190,3371227,49.88317108154297,22.712278366088867,13.307257652282715,-0.5302810072898865,-0.49735549092292786,-0.0172745268791914
203,3371248,49.87214660644531,22.701622009277344,13.30610466003418,-0.5322137475013733,-0.4932018220424652,-0.011239378713071346
216,3371287,49.850982666015625,22.681589126586914,13.304503440856934,-0.5371453762054443,-0.4872356355190277,0.008256600238382816
220,3371307,49.840335845947266,22.67168617248535,13.304067611694336,-0.5391700863838196,-0.4832589328289032,0.018446775153279305
233,3371347,49.81891632080078,22.652109146118164,13.304758071899414,-0.5424017906188965,-0.4772491753101349,0.03867492079734802
249,3371387,49.797157287597656,22.632179260253906,13.307315826416016,-0.5447999238967896,-0.4713410437107086,0.0629480630159378
253,3371407,49.7862434387207,22.622333526611328,13.308904647827148,-0.5474764704704285,-0.4726901948451996,0.07364125549793243
267,3371447,49.76433181762695,22.602846145629883,13.312505722045898,-0.5494141578674316,-0.46814224123954773,0.09785892814397812
280,3371487,49.7423095703125,22.5836124420166,13.316752433776855,-0.5542424917221069,-0.4652462601661682,0.1178041324019432
284,3371507,49.73125076293945,22.5740909576416,13.31917667388916,-0.5535014271736145,-0.4594011902809143,0.12778183817863464
298,3371547,49.70848846435547,22.55472183227539,13.323516845703125,-0.556745707988739,-0.457183837890625,0.14165392518043518
312,3371587,49.686553955078125,22.535329818725586,13.326757431030273,-0.5581328868865967,-0.4571160674095154,0.15274813771247864
316,3371607,49.67554473876953,22.525712966918945,13.328645706176758,-0.5615612268447876,-0.4575091004371643,0.15543287992477417
330,3371647,49.65339279174805,22.50665283203125,13.331202507019043,-0.5637298822402954,-0.45537498593330383,0.15877482295036316
343,3371687,49.631202697753906,22.48775863647461,13.332853317260742,-0.5642943382263184,-0.45530977845191956,0.15800033509731293
357,3371707,49.62006378173828,22.478364944458008,13.333868026733398,-0.5645834803581238,-0.4516538381576538,0.15574835240840912
372,3371747,49.59773635864258,22.459739685058594,13.335029602050781,-0.5662216544151306,-0.45070305466651917,0.15217618644237518
375,3371787,49.57639694213867,22.44109535217285,13.334441184997559,-0.5679478645324707,-0.45072323083877563,0.14093562960624695
389,3371807,49.56565856933594,22.43183135986328,13.334303855895996,-0.5667128562927246,-0.44682347774505615,0.135830357670784
392,3371847,49.54347610473633,22.4129638671875,13.334332466125488,-0.5689677000045776,-0.4468919634819031,0.12221483141183853
409,3371887,49.521697998046875,22.394634246826172,13.3343505859375,-0.5708019733428955,-0.4460039436817169,0.10822800546884537
413,3371907,49.5107307434082,22.38552474975586,13.334357261657715,-0.5730685591697693,-0.4465778172016144,0.099189393222332
427,3371947,49.488670349121094,22.367359161376953,13.335307121276855,-0.5733928680419922,-0.4470222294330597,0.08472983539104462
430,3371967,49.47780990600586,22.358295440673828,13.335718154907227,-0.5733160972595215,-0.4440048336982727,0.07643245905637741
444,3372007,49.45599365234375,22.340261459350586,13.33625602722168,-0.5724178552627563,-0.4442214369773865,0.05966152623295784
457,3372047,49.43412399291992,22.322269439697266,13.338034629821777,-0.5715051889419556,-0.444679856300354,0.04429032653570175
461,3372067,49.42316818237305,22.313278198242188,13.33947467803955,-0.5710921287536621,-0.44656842947006226,0.03588879853487015
475,3372107,49.401329040527344,22.295269012451172,13.341779708862305,-0.5659251809120178,-0.44889354705810547,0.022270333021879196
488,3372147,49.379066467285156,22.27668571472168,13.344939231872559,-0.558612585067749,-0.45489561557769775,0.008295704610645771
492,3372167,49.3684196472168,22.267580032348633,13.346745491027832,-0.5560948252677917,-0.45834794640541077,0.002788384910672903
507,3372207,49.34724426269531,22.24913787841797,13.349655151367188,-0.5501198172569275,-0.46775883436203003,-0.010304799303412437
520,3372247,49.32625961303711,22.230308532714844,13.352742195129395,-0.5406934022903442,-0.47930964827537537,-0.02237006649374962
524,3372267,49.315853118896484,22.220726013183594,13.354451179504395,-0.5382289886474609,-0.4847998023033142,-0.02804267406463623
538,3372307,49.295188903808594,22.201168060302734,13.357043266296387,-0.5304833054542542,-0.4976355731487274,-0.04087886959314346
551,3372347,49.274757385253906,22.181076049804688,13.359582901000977,-0.5227900147438049,-0.5128963589668274,-0.05210026726126671
555,3372367,49.2645263671875,22.171070098876953,13.360981941223145,-0.5206299424171448,-0.5217826962471008,-0.05790242925286293
571,3372407,49.24369430541992,22.150102615356445,13.362909317016602,-0.5144091248512268,-0.5338667631149292,-0.06780505180358887
584,3372447,49.22355270385742,22.129093170166016,13.365076065063477,-0.5089001059532166,-0.546232283115387,-0.07800928503274918
588,3372467,49.21355438232422,22.11839485168457,13.366312026977539,-0.5068941116333008,-0.5530057549476624,-0.0830085352063179
602,3372507,49.19371032714844,22.096630096435547,13.367926597595215,-0.5014514327049255,-0.5624872446060181,-0.09148437529802322
616,3372547,49.17402648925781,22.074430465698242,13.369280815124512,-0.4963163435459137,-0.5735772252082825,-0.09948243200778961
620,3372567,49.16385269165039,22.063169479370117,13.370210647583008,-0.49602970480918884,-0.57725590467453,-0.10291052609682083
634,3372607,49.14359664916992,22.040401458740234,13.371280670166016,-0.4938823878765106,-0.5851081013679504,-0.10845813900232315
638,3372627,49.13349533081055,22.028894424438477,13.371495246887207,-0.495168000459671,-0.5889007449150085,-0.10970684140920639
652,3372667,49.11328887939453,22.005647659301758,13.371100425720215,-0.49737513065338135,-0.5961011052131653,-0.1155669316649437
666,3372707,49.09248733520508,21.981555938720703,13.369869232177734,-0.5005253553390503,-0.600908637046814,-0.11956726759672165
670,3372727,49.08228302001953,21.969736099243164,13.369077682495117,-0.5035200715065002,-0.6022980213165283,-0.12138360738754272
683,3372767,49.06155776977539,21.94600486755371,13.365947723388672,-0.5081647634506226,-0.6052818894386292,-0.12483508884906769
697,3372807,49.040489196777344,21.92221450805664,13.362821578979492,-0.5135781168937683,-0.605843186378479,-0.12921422719955444
701,3372827,49.029930114746094,21.910310745239258,13.361114501953125,-0.5148581862449646,-0.6058592796325684,-0.13006941974163055
715,3372867,49.00875473022461,21.886545181274414,13.354658126831055,-0.5175549387931824,-0.6039336919784546,-0.13381773233413696
729,3372907,48.98759841918945,21.86280632019043,13.34821891784668,-0.517589271068573,-0.6039033532142639,-0.13727985322475433
733,3372927,48.97704315185547,21.850929260253906,13.345001220703125,-0.5169762969017029,-0.603112518787384,-0.13911297917366028
746,3372967,48.95572280883789,21.826833724975586,13.33498477935791,-0.5168604254722595,-0.6050508618354797,-0.1399984061717987
760,3373007,48.93376541137695,21.801767349243164,13.325907707214355,-0.5156464576721191,-0.608098030090332,-0.13902834057807922
764,3373027,48.9230842590332,21.78950309753418,13.321640968322754,-0.5155488848686218,-0.610371470451355,-0.13770213723182678
777,3373067,48.901851654052734,21.764856338500977,13.310134887695312,-0.5127879977226257,-0.6159926652908325,-0.13228003680706024
791,3373107,48.88075637817383,21.739999771118164,13.299689292907715,-0.510942816734314,-0.6218408346176147,-0.12503519654273987
795,3373127,48.87026596069336,21.727497100830078,13.29487133026123,-0.51011061668396,-0.6255210638046265,-0.1191297397017479
808,3373167,48.84918975830078,21.702152252197266,13.28572940826416,-0.5080372095108032,-0.6319782137870789,-0.1092141643166542
823,3373207,48.82809066772461,21.676485061645508,13.27815055847168,-0.5070143938064575,-0.6368892192840576,-0.09788764268159866
827,3373227,48.817604064941406,21.663616180419922,13.2747220993042,-0.5052643418312073,-0.6378908157348633,-0.09075961261987686
840,3373267,48.79624557495117,21.63721466064453,13.272573471069336,-0.5026572942733765,-0.6399388909339905,-0.07841690629720688
853,3373287,48.78589630126953,21.62433433532715,13.271674156188965,-0.5018057823181152,-0.6399879455566406,-0.07098980247974396
858,3373327,48.76528549194336,21.598655700683594,13.270130157470703,-0.5001362562179565,-0.6371940970420837,-0.06034018471837044
872,3373367,48.74456024169922,21.572731018066406,13.275955200195312,-0.4992106556892395,-0.6348661780357361,-0.048815034329891205
886,3373387,48.73411560058594,21.55965805053711,13.27876091003418,-0.49819082021713257,-0.6316972970962524,-0.04401148855686188
891,3373427,48.71331024169922,21.533782958984375,13.283933639526367,-0.4984693229198456,-0.6259132623672485,-0.0347478911280632
904,3373467,48.69257354736328,21.508277893066406,13.294662475585938,-0.500130295753479,-0.6178247928619385,-0.024872325360774994
917,3373487,48.68220901489258,21.49566650390625,13.29957103729248,-0.5014906525611877,-0.6155095100402832,-0.02101578563451767
932,3373527,48.661434173583984,21.470727920532227,13.308568954467773,-0.5055569410324097,-0.607406497001648,-0.012814276851713657
936,3373567,48.63986587524414,21.445621490478516,13.320141792297363,-0.5110973715782166,-0.5978684425354004,-0.0018256357870995998
949,3373587,48.629207611083984,21.433544158935547,13.325528144836426,-0.5133770108222961,-0.5927392840385437,0.0035888883285224438
954,3373627,48.607791900634766,21.40972328186035,13.335518836975098,-0.5194112658500671,-0.5834780931472778,0.013186153024435043
968,3373667,48.58624267578125,21.386369705200195,13.34594440460205,-0.5260728001594543,-0.5733034610748291,0.022513842210173607
981,3373687,48.57539749145508,21.374858856201172,13.350814819335938,-0.5284157395362854,-0.5680745244026184,0.02845178358256817
986,3373727,48.55360412597656,21.35218048095703,13.3600435256958,-0.5337879061698914,-0.5572749972343445,0.0401991605758667
999,3373767,48.531463623046875,21.329181671142578,13.367663383483887,-0.5372676253318787,-0.5464795827865601,0.05160392448306084
1012,3373787,48.520267486572266,21.31749725341797,13.371293067932129,-0.5391194820404053,-0.5432350039482117,0.056765198707580566
1017,3373827,48.497901916503906,21.294570922851562,13.378373146057129,-0.5399895310401917,-0.5339669585227966,0.0678088590502739
1031,3373867,48.475101470947266,21.271657943725586,13.382214546203613,-0.5403314232826233,-0.5249073505401611,0.07797237485647202
1044,3373887,48.46400833129883,21.260643005371094,13.384191513061523,-0.5382088422775269,-0.5207446217536926,0.08280566334724426
1049,3373927,48.441917419433594,21.238943099975586,13.388341903686523,-0.5374799370765686,-0.5138513445854187,0.09264756739139557
1061,3373947,48.43094253540039,21.22823143005371,13.388187408447266,-0.535503625869751,-0.5118387937545776,0.09534357488155365
1075,3373987,48.4088020324707,21.205923080444336,13.387974739074707,-0.5357211232185364,-0.5081946849822998,0.10256164520978928
1080,3374027,48.386775970458984,21.183961868286133,13.388575553894043,-0.53460693359375,-0.5065662860870361,0.1103387326002121
1092,3374047,48.375816345214844,21.173091888427734,13.386977195739746,-0.5342679023742676,-0.5054068565368652,0.11471199244260788
1106,3374087,48.35401153564453,21.151506423950195,13.384730339050293,-0.5326839685440063,-0.5052574872970581,0.12109978497028351
1111,3374127,48.332305908203125,21.130115509033203,13.383647918701172,-0.5313560962677002,-0.5040997266769409,0.12872476875782013
1123,3374147,48.32097244262695,21.118989944458008,13.38195514678955,-0.5305677056312561,-0.5044068694114685,0.13191922008991241
1139,3374187,48.2996940612793,21.097923278808594,13.378642082214355,-0.529529333114624,-0.503637433052063,0.13816137611865997
1143,3374227,48.27851867675781,21.077045440673828,13.376629829406738,-0.5267895460128784,-0.5006532669067383,0.14072442054748535
1156,3374248,48.267982482910156,21.06669044494629,13.374747276306152,-0.524406373500824,-0.49983203411102295,0.14046348631381989
1169,3374287,48.24702835083008,21.04610252380371,13.37190055847168,-0.5221349000930786,-0.49876463413238525,0.1400914490222931
1174,3374327,48.226200103759766,21.025693893432617,13.37002944946289,-0.5187199115753174,-0.4961629807949066,0.13638007640838623
1186,3374347,48.21583938598633,21.015573501586914,13.367895126342773,-0.5179261565208435,-0.4930475950241089,0.13382147252559662
1202,3374387,48.19594955444336,20.9954833984375,13.363456726074219,-0.5151888132095337,-0.48709622025489807,0.12619878351688385
1207,3374427,48.175601959228516,20.97521209716797,13.36001968383789,-0.5124070644378662,-0.4807458221912384,0.11592742055654526
1219,3374447,48.16569137573242,20.965435028076172,13.356563568115234,-0.5127196311950684,-0.4809398651123047,0.1100577563047409
1233,3374487,48.14583206176758,20.946090698242188,13.350386619567871,-0.5133069753646851,-0.4741436541080475,0.09641921520233154
1238,3374527,48.12588119506836,20.92705535888672,13.345005989074707,-0.5158436298370361,-0.46805518865585327,0.08237258344888687
1251,3374547,48.115848541259766,20.917627334594727,13.340137481689453,-0.5155541300773621,-0.4662797152996063,0.0735812559723854
1265,3374587,48.096641540527344,20.898780822753906,13.330473899841309,-0.5173549652099609,-0.46119368076324463,0.0579204224050045
1269,3374607,48.08694839477539,20.889461517333984,13.326017379760742,-0.5198677182197571,-0.4578169882297516,0.049881499260663986
1283,3374647,48.067405700683594,20.870986938476562,13.315128326416016,-0.5210425853729248,-0.4542233645915985,0.03708365187048912
1297,3374687,48.04769515991211,20.852689743041992,13.302923202514648,-0.5220996141433716,-0.4514116942882538,0.02498640865087509
1301,3374707,48.03778076171875,20.843584060668945,13.297347068786621,-0.5225279927253723,-0.4531184732913971,0.02174973115324974
1314,3374747,48.01731491088867,20.824920654296875,13.284912109375,-0.5238184332847595,-0.45557621121406555,0.014545709826052189
1328,3374787,47.998199462890625,20.806764602661133,13.27176570892334,-0.5233428478240967,-0.46107274293899536,0.01229072455316782
1332,3374807,47.98858642578125,20.79761505126953,13.265872955322266,-0.5226011276245117,-0.4619705080986023,0.012932293117046356
1345,3374847,47.969268798828125,20.77919578552246,13.253791809082031,-0.5216802954673767,-0.4668867588043213,0.01565198227763176
1360,3374887,47.949859619140625,20.76058006286621,13.242047309875488,-0.5197808146476746,-0.4730008542537689,0.02022874914109707
1364,3374907,47.94011688232422,20.751184463500977,13.236878395080566,-0.51926589012146,-0.4763459265232086,0.022291848435997963
1377,3374947,47.92054748535156,20.732229232788086,13.227046966552734,-0.5182966589927673,-0.48129525780677795,0.02769244834780693
1391,3374987,47.90081024169922,20.71257209777832,13.218108177185059,-0.5185959339141846,-0.48459741473197937,0.02844361402094364
1395,3375007,47.890377044677734,20.70223045349121,13.214179039001465,-0.519602358341217,-0.48761120438575745,0.02800033614039421
1408,3375047,47.87042236328125,20.682504653930664,13.207093238830566,-0.5231274962425232,-0.4884822964668274,0.025371147319674492
1422,3375087,47.85026550292969,20.662837982177734,13.200884819030762,-0.5256564617156982,-0.4877743422985077,0.019269097596406937
1426,3375107,47.84010314941406,20.65302848815918,13.1980562210083,-0.5262129902839661,-0.4866027534008026,0.014965524896979332
1439,3375147,47.819644927978516,20.633512496948242,13.193601608276367,-0.5292971134185791,-0.48406392335891724,0.0073389410972595215
1453,3375187,47.79930877685547,20.61388397216797,13.19012451171875,-0.5332252383232117,-0.4824114143848419,-0.002464070450514555
1458,3375207,47.78904724121094,20.60413932800293,13.18844985961914,-0.5348107218742371,-0.4792933166027069,-0.006093456409871578
1471,3375247,47.768348693847656,20.58478355407715,13.186925888061523,-0.5386562943458557,-0.47741031646728516,-0.013147000223398209
1475,3375267,47.757904052734375,20.57516098022461,13.18696403503418,-0.5412349104881287,-0.47637444734573364,-0.016457825899124146
1489,3375307,47.73628616333008,20.555543899536133,13.186832427978516,-0.5464547276496887,-0.4751046597957611,-0.020794138312339783
1503,3375347,47.71494674682617,20.536518096923828,13.18878173828125,-0.5499541759490967,-0.47354772686958313,-0.023879891261458397
1506,3375367,47.704002380371094,20.526823043823242,13.190719604492188,-0.5525738000869751,-0.4718684256076813,-0.023659758269786835
1522,3375407,47.682003021240234,20.50753402709961,13.194134712219238,-0.5552797317504883,-0.47119244933128357,-0.02502625435590744
1535,3375447,47.6599006652832,20.488319396972656,13.19918155670166,-0.5561981797218323,-0.4707755148410797,-0.025798726826906204
1539,3375467,47.64884948730469,20.47873878479004,13.202466011047363,-0.5552912950515747,-0.47298985719680786,-0.026483288034796715
1553,3375507,47.62678909301758,20.459564208984375,13.208298683166504,-0.5523961782455444,-0.4739035964012146,-0.027447950094938278
1567,3375547,47.60480499267578,20.440322875976562,13.21491813659668,-0.5497239828109741,-0.4790008068084717,-0.02744697406888008
1572,3375567,47.59425354003906,20.430543899536133,13.218717575073242,-0.5484314560890198,-0.48153820633888245,-0.026347046718001366
1585,3375607,47.57265853881836,20.410398483276367,13.22553539276123,-0.5451273322105408,-0.48860666155815125,-0.02461940608918667
1598,3375647,47.551673889160156,20.3905029296875,13.232831001281738,-0.5415526032447815,-0.49613121151924133,-0.023740239441394806
1603,3375667,47.54119110107422,20.380462646484375,13.23677921295166,-0.5389696955680847,-0.49868181347846985,-0.023211205378174782
1617,3375707,47.52022171020508,20.36016082763672,13.243880271911621,-0.5381715297698975,-0.5080515146255493,-0.021425621584057808
1630,3375747,47.49923324584961,20.339557647705078,13.251676559448242,-0.5370837450027466,-0.5157798528671265,-0.01947181299328804
1634,3375767,47.48919677734375,20.32961082458496,13.256082534790039,-0.5387037396430969,-0.5185994505882263,-0.01773369126021862
1648,3375807,47.46898651123047,20.309518814086914,13.263991355895996,-0.5380569100379944,-0.5235321521759033,-0.017977599054574966
1661,3375847,47.44865798950195,20.289264678955078,13.272489547729492,-0.5378396511077881,-0.5252007842063904,-0.019248120486736298
1666,3375867,47.43843078613281,20.27908706665039,13.277087211608887,-0.5391907691955566,-0.5261873006820679,-0.02136932872235775
1680,3375907,47.41734313964844,20.25813865661621,13.28515625,-0.5371856093406677,-0.5250722765922546,-0.026444438844919205
1684,3375927,47.407047271728516,20.247915267944336,13.288683891296387,-0.5387097597122192,-0.5279121398925781,-0.028195243328809738
1697,3375967,47.38645553588867,20.227210998535156,13.296786308288574,-0.5374993681907654,-0.5289281606674194,-0.03808001056313515
1711,3376007,47.36590576171875,20.20628547668457,13.303354263305664,-0.5346466898918152,-0.5304145216941833,-0.04770240560173988
1715,3376027,47.35561752319336,20.19576644897461,13.306083679199219,-0.5343546867370605,-0.5333841443061829,-0.05225273221731186
1728,3376067,47.3350715637207,20.174625396728516,13.31081485748291,-0.5309190154075623,-0.5371822118759155,-0.06398047506809235
1742,3376107,47.314571380615234,20.15328025817871,13.314188957214355,-0.5279057025909424,-0.5425977110862732,-0.07523979246616364
1756,3376127,47.30432891845703,20.14251708984375,13.315407752990723,-0.5264720320701599,-0.546241044998169,-0.08048845827579498
1770,3376167,47.283416748046875,20.120119094848633,13.316144943237305,-0.5240972638130188,-0.5529420971870422,-0.09258292615413666
1774,3376207,47.26316452026367,20.097896575927734,13.31617259979248,-0.5207216739654541,-0.5593401789665222,-0.1022714152932167
1788,3376227,47.253055572509766,20.086698532104492,13.315828323364258,-0.5190134644508362,-0.5619563460350037,-0.10940318554639816
1791,3376267,47.23292922973633,20.06416893005371,13.313817024230957,-0.5136706233024597,-0.5671368837356567,-0.11834801733493805
1805,3376307,47.21298599243164,20.04145622253418,13.311083793640137,-0.5068376064300537,-0.5721344351768494,-0.12686708569526672
1809,3376327,47.20309829711914,20.030054092407227,13.309494972229004,-0.5030805468559265,-0.5727906823158264,-0.1311107724905014
1822,3376367,47.183258056640625,20.006990432739258,13.306509971618652,-0.49727264046669006,-0.5778194069862366,-0.13580861687660217
1838,3376407,47.163455963134766,19.983640670776367,13.303486824035645,-0.4899398386478424,-0.582667887210846,-0.1355786919593811
1842,3376427,47.153656005859375,19.971908569335938,13.301864624023438,-0.48626402020454407,-0.5849750638008118,-0.13615991175174713
1855,3376467,47.133766174316406,19.94771385192871,13.299724578857422,-0.48012205958366394,-0.5916433334350586,-0.1299978345632553
1869,3376507,47.1146240234375,19.92388916015625,13.297585487365723,-0.4737471044063568,-0.5983783602714539,-0.12101147323846817
1884,3376527,47.10511779785156,19.911884307861328,13.296518325805664,-0.47280415892601013,-0.6011670827865601,-0.11527560651302338
1887,3376567,47.086387634277344,19.887672424316406,13.297272682189941,-0.47161850333213806,-0.6097850203514099,-0.10204607993364334
1900,3376587,47.077125549316406,19.87547492980957,13.297861099243164,-0.4721527397632599,-0.6134997606277466,-0.09397199749946594
1905,3376627,47.05850601196289,19.85084342956543,13.298981666564941,-0.4752281904220581,-0.6231826543807983,-0.07962531596422195
1919,3376667,47.039703369140625,19.82587432861328,13.302349090576172,-0.4792243540287018,-0.6307166814804077,-0.06609755754470825
1932,3376687,47.03020095825195,19.813297271728516,13.30391788482666,-0.48326608538627625,-0.633323609828949,-0.05899127200245857
1937,3376727,47.01102066040039,19.787979125976562,13.306872367858887,-0.4884755611419678,-0.638712465763092,-0.04767024144530296
1950,3376767,46.990478515625,19.761341094970703,13.310905456542969,-0.4929947555065155,-0.6429623961448669,-0.03887888416647911
1963,3376787,46.980098724365234,19.748088836669922,13.312910079956055,-0.496038019657135,-0.643214762210846,-0.03509536013007164
1968,3376827,46.95928192138672,19.721633911132812,13.316536903381348,-0.4990006685256958,-0.6451237797737122,-0.03170185163617134
1982,3376867,46.93846893310547,19.695236206054688,13.319356918334961,-0.500839114189148,-0.6459755897521973,-0.03149653598666191
1995,3376887,46.92808151245117,19.682056427001953,13.320526123046875,-0.5004432201385498,-0.6463950872421265,-0.03430136665701866
2000,3376927,46.90735626220703,19.655746459960938,13.322357177734375,-0.5007540583610535,-0.6458438038825989,-0.03966192901134491
2013,3376967,46.886661529541016,19.629188537597656,13.322099685668945,-0.4997073709964752,-0.645266056060791,-0.04660165682435036
2026,3376987,46.87633514404297,19.61578941345215,13.321830749511719,-0.4991746246814728,-0.6462321877479553,-0.05101541429758072
2031,3377027,46.85576248168945,19.589128494262695,13.3209228515625,-0.49806392192840576,-0.643648087978363,-0.057927206158638
2044,3377067,46.83478927612305,19.562026977539062,13.318412780761719,-0.4977339506149292,-0.6419051289558411,-0.06383192539215088
2058,3377087,46.82460403442383,19.548885345458984,13.31710147857666,-0.49496856331825256,-0.6394814848899841,-0.06569243967533112
2071,3377127,46.80434036254883,19.522764205932617,13.314376831054688,-0.493013471364975,-0.6358901858329773,-0.06893030554056168
2075,3377167,46.78432083129883,19.496917724609375,13.312650680541992,-0.49030181765556335,-0.6315881609916687,-0.06671977043151855
2089,3377187,46.7744026184082,19.484107971191406,13.311878204345703,-0.48857811093330383,-0.6294925808906555,-0.06447325646877289
2094,3377227,46.75468826293945,19.458696365356445,13.310432434082031,-0.48569875955581665,-0.6245529651641846,-0.05607962980866432
2107,3377247,46.744873046875,19.446088790893555,13.310906410217285,-0.48479917645454407,-0.6218847036361694,-0.050414592027664185
2120,3377287,46.7253303527832,19.42108917236328,13.311915397644043,-0.48269954323768616,-0.6164522767066956,-0.03654884174466133
2125,3377327,46.705387115478516,19.395751953125,13.313124656677246,-0.4817620515823364,-0.6105520725250244,-0.01933545619249344
2137,3377347,46.695674896240234,19.383495330810547,13.314698219299316,-0.4814779460430145,-0.6080753803253174,-0.00958249345421791
2153,3377387,46.6765251159668,19.359006881713867,13.318451881408691,-0.48264142870903015,-0.6019294261932373,0.010854112915694714
2158,3377427,46.65729904174805,19.33483123779297,13.322481155395508,-0.48387494683265686,-0.5958700180053711,0.029729103669524193
2170,3377447,46.64765167236328,19.322860717773438,13.32409381866455,-0.4854642152786255,-0.5918271541595459,0.039459794759750366
2184,3377487,46.628273010253906,19.299171447753906,13.327712059020996,-0.48832473158836365,-0.5850034952163696,0.05910015106201172
2199,3377527,46.608760833740234,19.275836944580078,13.331869125366211,-0.4916051924228668,-0.5765283107757568,0.07690858840942383
2202,3377547,46.59895706176758,19.264305114746094,13.332283020019531,-0.4923647940158844,-0.5730767846107483,0.08413110673427582
2216,3377587,46.57947540283203,19.240819931030273,13.33365535736084,-0.49542391300201416,-0.5659664869308472,0.09872647374868393
2230,3377627,46.5593376159668,19.217187881469727,13.335928916931152,-0.4996028542518616,-0.5578833222389221,0.1114845871925354
2244,3377647,46.549461364746094,19.205812454223633,13.334790229797363,-0.5004793405532837,-0.5540794730186462,0.11629065871238708
2259,3377687,46.52964401245117,19.18336296081543,13.333442687988281,-0.5013927817344666,-0.5464721918106079,0.1245482936501503
2262,3377727,46.50981140136719,19.161306381225586,13.33315372467041,-0.500343918800354,-0.5373095870018005,0.13008029758930206
2276,3377747,46.49989700317383,19.15043830871582,13.330886840820312,-0.5006809830665588,-0.533234179019928,0.1314854919910431
2279,3377787,46.48094177246094,19.12807846069336,13.326706886291504,-0.49861618876457214,-0.5255787968635559,0.13121668994426727
2284,3377827,46.461978912353516,19.106189727783203,13.323709487915039,-0.4965153932571411,-0.5177246928215027,0.13039645552635193
2298,3377847,46.45249938964844,19.095409393310547,13.320701599121094,-0.49389949440956116,-0.514187753200531,0.1275021731853485
2311,3377887,46.433528900146484,19.07416343688965,13.315635681152344,-0.4930247366428375,-0.5065439343452454,0.1232854574918747
2315,3377907,46.42355728149414,19.063190460205078,13.31363582611084,-0.49112826585769653,-0.5034474730491638,0.1195167675614357
2328,3377947,46.40456008911133,19.04252815246582,13.309017181396484,-0.4911111295223236,-0.4954487085342407,0.11272355169057846
2342,3377987,46.38581085205078,19.022071838378906,13.303605079650879,-0.49240145087242126,-0.4886007010936737,0.1063680499792099
2346,3378007,46.376373291015625,19.012001037597656,13.301285743713379,-0.49332624673843384,-0.4845771789550781,0.10417422652244568
2359,3378047,46.35736846923828,18.99213218688965,13.296910285949707,-0.4958033859729767,-0.47740650177001953,0.09883314371109009
2373,3378087,46.33815002441406,18.9726505279541,13.293054580688477,-0.5002503395080566,-0.469342976808548,0.09713339805603027
2377,3378107,46.328426361083984,18.963085174560547,13.291498184204102,-0.5043730735778809,-0.4648366868495941,0.0982154980301857
2390,3378147,46.30876159667969,18.94422149658203,13.288936614990234,-0.5087493658065796,-0.4578094482421875,0.09999716281890869
2404,3378187,46.28850555419922,18.92459487915039,13.28671932220459,-0.5132754445075989,-0.44913023710250854,0.10293684154748917
2409,3378207,46.27852249145508,18.91517448425293,13.285907745361328,-0.5177062153816223,-0.4481889307498932,0.1040448397397995
2422,3378247,46.258331298828125,18.896635055541992,13.284647941589355,-0.5225679874420166,-0.44135913252830505,0.10444362461566925
2436,3378287,46.237945556640625,18.878450393676758,13.283880233764648,-0.5255824327468872,-0.43688565492630005,0.10413471609354019
2440,3378307,46.227691650390625,18.869455337524414,13.283730506896973,-0.5249155759811401,-0.4321581721305847,0.10359570384025574
2453,3378347,46.20708084106445,18.85163688659668,13.283324241638184,-0.5270424485206604,-0.42928990721702576,0.10187029838562012
2467,3378387,46.187255859375,18.833349227905273,13.282362937927246,-0.5272168517112732,-0.4307784140110016,0.0985286757349968
2473,3378407,46.17729187011719,18.824256896972656,13.282082557678223,-0.5269721746444702,-0.43230679631233215,0.0964842289686203
2486,3378447,46.15726852416992,18.806137084960938,13.281201362609863,-0.5270382761955261,-0.4336813986301422,0.09222247451543808
2500,3378487,46.13658905029297,18.787578582763672,13.280288696289062,-0.5279395580291748,-0.43657732009887695,0.09125019609928131
2505,3378507,46.12646484375,18.77850914001465,13.279996871948242,-0.5284474492073059,-0.43904775381088257,0.08990679681301117
2520,3378547,46.10606002807617,18.76035499572754,13.27929973602295,-0.5322520732879639,-0.44288766384124756,0.08814235031604767
2523,3378567,46.09587097167969,18.751035690307617,13.27864933013916,-0.5325701236724854,-0.44175463914871216,0.08656619489192963
2537,3378607,46.07537841796875,18.732349395751953,13.27772331237793,-0.5345006585121155,-0.4470185935497284,0.0827660858631134
2549,3378647,46.054664611816406,18.713611602783203,13.277023315429688,-0.538573145866394,-0.45049387216567993,0.07568281143903732
2554,3378667,46.04421615600586,18.704240798950195,13.276697158813477,-0.5412999987602234,-0.45487019419670105,0.0710902214050293
2568,3378707,46.023162841796875,18.685503005981445,13.27609634399414,-0.5441192984580994,-0.4565349221229553,0.05908059701323509
2581,3378747,46.001922607421875,18.666786193847656,13.275531768798828,-0.5470552444458008,-0.4556812345981598,0.041795097291469574
2585,3378767,45.990474700927734,18.656850814819336,13.275057792663574,-0.5490807294845581,-0.45710980892181396,0.03301185742020607
2599,3378807,45.96860885620117,18.637922286987305,13.273710250854492,-0.5508161783218384,-0.45910778641700745,0.011760083958506584
2612,3378847,45.946720123291016,18.619041442871094,13.272686004638672,-0.5505777597427368,-0.4616334140300751,-0.010891868732869625
2617,3378867,45.935768127441406,18.609609603881836,13.272330284118652,-0.5493039488792419,-0.458975613117218,-0.021644296124577522
2631,3378907,45.913841247558594,18.590744018554688,13.27100944519043,-0.5489567518234253,-0.46218207478523254,-0.04235006496310234
2644,3378947,45.89202117919922,18.57179832458496,13.27037525177002,-0.5459074378013611,-0.46576130390167236,-0.061601296067237854
2648,3378967,45.88113784790039,18.562246322631836,13.270475387573242,-0.5450194478034973,-0.4700033366680145,-0.0707629919052124
2662,3379007,45.8594856262207,18.543115615844727,13.269929885864258,-0.5411913990974426,-0.47270819544792175,-0.08504712581634521
2675,3379047,45.837974548339844,18.523862838745117,13.270217895507812,-0.5366212129592896,-0.4786398708820343,-0.09805962443351746
2679,3379067,45.82674026489258,18.51367950439453,13.270747184753418,-0.5355381369590759,-0.4813755750656128,-0.10183500498533249
2693,3379107,45.80542755126953,18.494169235229492,13.271276473999023,-0.5336530804634094,-0.4871197044849396,-0.10848966985940933
2706,3379147,45.78416061401367,18.474464416503906,13.272562980651855,-0.5324357151985168,-0.49298083782196045,-0.10851722210645676
2710,3379167,45.7732048034668,18.46446990966797,13.274045944213867,-0.5311793684959412,-0.49520745873451233,-0.10744781792163849
2725,3379207,45.75130844116211,18.444332122802734,13.276447296142578,-0.5336551666259766,-0.5024231672286987,-0.10166758298873901
2729,3379227,45.740352630615234,18.434186935424805,13.27741813659668,-0.5355214476585388,-0.5056334137916565,-0.09865505993366241
2742,3379267,45.718441009521484,18.41375160217285,13.280261993408203,-0.536794126033783,-0.510917603969574,-0.08808112144470215
2756,3379307,45.696556091308594,18.393169403076172,13.282638549804688,-0.5373737215995789,-0.5144538879394531,-0.0806838646531105
2760,3379327,45.68560791015625,18.382844924926758,13.28366756439209,-0.5379554629325867,-0.5171447992324829,-0.07634735852479935
2773,3379367,45.66279983520508,18.36119270324707,13.28522777557373,-0.5355932712554932,-0.5199002027511597,-0.07022282481193542
2789,3379407,45.64024353027344,18.339582443237305,13.286880493164062,-0.5340123772621155,-0.523300051689148,-0.06628105789422989
2793,3379427,45.6290283203125,18.32875633239746,13.287541389465332,-0.534772515296936,-0.5251216888427734,-0.06624312698841095
2806,3379467,45.60669708251953,18.307111740112305,13.286967277526855,-0.533543586730957,-0.5277289152145386,-0.06885932385921478
2820,3379507,45.58457565307617,18.285449981689453,13.285992622375488,-0.5312264561653137,-0.5315764546394348,-0.07374346256256104
2825,3379527,45.573570251464844,18.27460479736328,13.28532886505127,-0.530123770236969,-0.5310060381889343,-0.07780883461236954
2838,3379567,45.55115509033203,18.252710342407227,13.282414436340332,-0.5301705598831177,-0.5342289805412292,-0.08521481603384018
2852,3379607,45.5284309387207,18.230602264404297,13.27942180633545,-0.5298978090286255,-0.5377803444862366,-0.09534066170454025
2856,3379627,45.51715087890625,18.21954345703125,13.277758598327637,-0.5292074084281921,-0.5398494601249695,-0.09930331259965897
2870,3379667,45.494239807128906,18.196849822998047,13.273961067199707,-0.5266641974449158,-0.543343186378479,-0.10699840635061264
2884,3379707,45.47209167480469,18.1746768951416,13.269969940185547,-0.5241716504096985,-0.545534610748291,-0.1111350953578949
2888,3379727,45.46111297607422,18.16358184814453,13.267937660217285,-0.5225908160209656,-0.5464923977851868,-0.11007886379957199
2901,3379767,45.43893051147461,18.141016006469727,13.267576217651367,-0.5179527401924133,-0.5511378049850464,-0.10817772150039673
2915,3379807,45.41669464111328,18.118104934692383,13.267284393310547,-0.5135533213615417,-0.5552202463150024,-0.09906775504350662
2919,3379827,45.405704498291016,18.106630325317383,13.267095565795898,-0.5122439861297607,-0.5569106340408325,-0.0937185063958168
2933,3379867,45.38401412963867,18.083606719970703,13.273056983947754,-0.5061811208724976,-0.562160849571228,-0.07745476067066193
2946,3379887,45.37330627441406,18.07204818725586,13.275838851928711,-0.504041850566864,-0.5666566491127014,-0.0670098140835762
2951,3379927,45.35161590576172,18.0482120513916,13.281068801879883,-0.49993619322776794,-0.5734085440635681,-0.048278313130140305
2964,3379967,45.33052062988281,18.02448844909668,13.2935791015625,-0.4975162446498871,-0.5798333287239075,-0.027598902583122253
2977,3379987,45.319969177246094,18.012435913085938,13.29959487915039,-0.4982078969478607,-0.5839845538139343,-0.01722167432308197
2982,3380027,45.2989616394043,17.988216400146484,13.310895919799805,-0.49744364619255066,-0.5899421572685242,-0.00024048950581345707
2995,3380067,45.278053283691406,17.963895797729492,13.325782775878906,-0.49933508038520813,-0.5946568250656128,0.014814435504376888
3008,3380087,45.26762008666992,17.95170783996582,13.332701683044434,-0.5007322430610657,-0.5972174406051636,0.02117428556084633
3013,3380127,45.246742248535156,17.927263259887695,13.345502853393555,-0.5029152035713196,-0.600546658039093,0.027914920821785927
3026,3380167,45.22599792480469,17.902759552001953,13.358255386352539,-0.5051630735397339,-0.6007490158081055,0.030504366382956505
3040,3380187,45.2156867980957,17.890493392944336,13.364039421081543,-0.5059070587158203,-0.6019933223724365,0.028555797412991524
3045,3380227,45.1945915222168,17.865436553955078,13.37442398071289,-0.505666196346283,-0.5995768308639526,0.02134065143764019
3058,3380267,45.174068450927734,17.84115219116211,13.382306098937988,-0.5050383806228638,-0.5980336666107178,0.007379990536719561
3071,3380287,45.163856506347656,17.82907485961914,13.385656356811523,-0.5025804042816162,-0.5959022641181946,0.00015304317639674991
3076,3380327,45.14359664916992,17.805078506469727,13.391179084777832,-0.4981118142604828,-0.5932040810585022,-0.017590902745723724
3089,3380367,45.12334060668945,17.78095817565918,13.393994331359863,-0.49365705251693726,-0.5895699858665466,-0.035432953387498856
3104,3380387,45.11319351196289,17.768815994262695,13.394890785217285,-0.4895765483379364,-0.589542806148529,-0.04339186102151871
3109,3380427,45.093162536621094,17.744647979736328,13.395894050598145,-0.4844458997249603,-0.5883391499519348,-0.05629527196288109
3122,3380467,45.07337188720703,17.72054100036621,13.396366119384766,-0.4807741940021515,-0.5911864042282104,-0.06328907608985901
3135,3380487,45.06352615356445,17.70847511291504,13.396390914916992,-0.48164358735084534,-0.5932585597038269,-0.0625019446015358
3141,3380527,45.04336929321289,17.683658599853516,13.396138191223145,-0.4827667772769928,-0.5996280908584595,-0.05987975373864174
3154,3380547,45.03351974487305,17.671472549438477,13.397102355957031,-0.4844161868095398,-0.6027179956436157,-0.05409793555736542
3167,3380587,45.01345443725586,17.646474838256836,13.399374961853027,-0.4883544445037842,-0.6087445020675659,-0.038268037140369415
3172,3380627,44.993263244628906,17.621347427368164,13.40180492401123,-0.49420103430747986,-0.6160711646080017,-0.016666710376739502
3184,3380647,44.98311233520508,17.608728408813477,13.404500961303711,-0.4969099462032318,-0.6182578802108765,-0.004439814481884241
3199,3380687,44.962684631347656,17.583446502685547,13.410059928894043,-0.5031138062477112,-0.6222577095031738,0.022279802709817886
3204,3380727,44.94208526611328,17.558120727539062,13.415908813476562,-0.5077270865440369,-0.6235631108283997,0.047150008380413055
3217,3380747,44.931739807128906,17.54547691345215,13.41899585723877,-0.5100871920585632,-0.6238600015640259,0.05862167477607727
3230,3380787,44.91073989868164,17.51919174194336,13.425564765930176,-0.5129257440567017,-0.6229972243309021,0.07533227652311325
3235,3380827,44.89020538330078,17.493755340576172,13.432059288024902,-0.5120182037353516,-0.6189510822296143,0.08490043878555298
3249,3380847,44.87996292114258,17.481155395507812,13.432585716247559,-0.5111814737319946,-0.6147242188453674,0.08518579602241516
3262,3380887,44.85953140258789,17.45624542236328,13.433805465698242,-0.5091363191604614,-0.6071906685829163,0.08190418779850006
3267,3380927,44.83918762207031,17.431774139404297,13.434982299804688,-0.5079292058944702,-0.5971463918685913,0.07083074003458023
3279,3380947,44.82904815673828,17.41971206665039,13.43144416809082,-0.5070139169692993,-0.5929843187332153,0.06368712335824966
3293,3380987,44.8087272644043,17.39575958251953,13.424346923828125,-0.5033428072929382,-0.5806739330291748,0.045129626989364624
3298,3381027,44.78856658935547,17.372377395629883,13.4176664352417,-0.49952834844589233,-0.568490207195282,0.02675679326057434
3310,3381047,44.778560638427734,17.36090660095215,13.410524368286133,-0.49794501066207886,-0.5619312524795532,0.01700882986187935
3324,3381087,44.75810623168945,17.33782958984375,13.397189140319824,-0.49750980734825134,-0.5501559972763062,0.0003787652822211385
3329,3381127,44.73818588256836,17.315826416015625,13.385048866271973,-0.49830445647239685,-0.5400974750518799,-0.010149537585675716
3343,3381147,44.72819137573242,17.30497932434082,13.3775634765625,-0.5004491209983826,-0.5356826782226562,-0.015142757445573807
3356,3381187,44.70842361450195,17.283235549926758,13.363838195800781,-0.5021193623542786,-0.528049111366272,-0.014764057472348213
3360,3381207,44.69850540161133,17.272502899169922,13.357649803161621,-0.5031200051307678,-0.5251848101615906,-0.013455813750624657
3373,3381247,44.67858123779297,17.25124168395996,13.347615242004395,-0.5058038830757141,-0.521049439907074,-0.004406856372952461
3387,3381287,44.65857696533203,17.230186462402344,13.340219497680664,-0.5071784853935242,-0.5191704034805298,0.009041644632816315
3391,3381307,44.64854431152344,17.21970558166504,13.3371000289917,-0.5081360340118408,-0.5178351998329163,0.01637258008122444
3404,3381347,44.62846374511719,17.19877815246582,13.335075378417969,-0.5071985721588135,-0.518697202205658,0.03431214764714241
3420,3381387,44.60795211791992,17.176788330078125,13.337255477905273,-0.5071656703948975,-0.5185515880584717,0.0539536327123642
3424,3381407,44.597957611083984,17.166088104248047,13.338573455810547,-0.5066043734550476,-0.5197280645370483,0.0627448633313179
3437,3381447,44.577972412109375,17.144744873046875,13.345168113708496,-0.5061185359954834,-0.5193139314651489,0.07973989099264145
3451,3381487,44.558013916015625,17.12351417541504,13.355110168457031,-0.506890058517456,-0.518814742565155,0.09383738040924072
3456,3381507,44.54802322387695,17.112937927246094,13.3599271774292,-0.5047430992126465,-0.51854008436203,0.09795541316270828
3470,3381547,44.52805709838867,17.091873168945312,13.371659278869629,-0.5047637224197388,-0.5165240168571472,0.10741705447435379
3483,3381588,44.50807189941406,17.070510864257812,13.384334564208984,-0.504898190498352,-0.5144053101539612,0.11045482754707336
3487,3381607,44.49808120727539,17.059925079345703,13.390275001525879,-0.5039103031158447,-0.5113116502761841,0.10985416918992996
3501,3381647,44.47815704345703,17.03900718688965,13.402242660522461,-0.5028719305992126,-0.5050740838050842,0.10746268928050995
3515,3381687,44.457767486572266,17.017913818359375,13.413948059082031,-0.502221405506134,-0.4994296133518219,0.10139890760183334
3519,3381707,44.447818756103516,17.00775146484375,13.419272422790527,-0.5019116401672363,-0.49536988139152527,0.09742877632379532
3533,3381747,44.42795181274414,16.987712860107422,13.42855167388916,-0.5019491314888,-0.48765677213668823,0.08850923925638199
3546,3381787,44.4083137512207,16.96771240234375,13.43551254272461,-0.5030249357223511,-0.4810135066509247,0.07957815378904343
3550,3381807,44.39844512939453,16.95785140991211,13.438679695129395,-0.5049164891242981,-0.47768235206604004,0.07527397572994232
3564,3381847,44.378631591796875,16.93841552734375,13.44335651397705,-0.5065884590148926,-0.470359206199646,0.06724381446838379
3569,3381867,44.36867904663086,16.9288387298584,13.444967269897461,-0.5078849196434021,-0.46643319725990295,0.0639968067407608
3582,3381907,44.34867477416992,16.909944534301758,13.447982788085938,-0.5101913809776306,-0.46029287576675415,0.06017068400979042
3595,3381947,44.32807922363281,16.890918731689453,13.449292182922363,-0.5109752416610718,-0.45402875542640686,0.058101315051317215
3599,3381967,44.318363189697266,16.88185691833496,13.448974609375,-0.5114704370498657,-0.44990676641464233,0.05659446492791176
3613,3382007,44.298824310302734,16.863887786865234,13.448572158813477,-0.5123953223228455,-0.4453658163547516,0.056117817759513855
3626,3382047,44.279197692871094,16.8460750579834,13.446235656738281,-0.5119659900665283,-0.44333598017692566,0.05609894171357155
3630,3382067,44.26933288574219,16.837196350097656,13.444189071655273,-0.5140812397003174,-0.446048766374588,0.05547028034925461
3644,3382107,44.249568939208984,16.819461822509766,13.440677642822266,-0.5137571692466736,-0.44680285453796387,0.054608363658189774
3657,3382147,44.22969055175781,16.801700592041016,13.435232162475586,-0.5146447420120239,-0.4475579261779785,0.05195267125964165
3661,3382167,44.219642639160156,16.792682647705078,13.431490898132324,-0.5145140886306763,-0.44630518555641174,0.051567092537879944
3676,3382207,44.19944381713867,16.77462387084961,13.424867630004883,-0.516396701335907,-0.448819637298584,0.04722541943192482
3689,3382247,44.17864227294922,16.75600242614746,13.4172945022583,-0.5171564221382141,-0.4524027407169342,0.04243785887956619
3693,3382267,44.168479919433594,16.746896743774414,13.412954330444336,-0.5187337398529053,-0.45558881759643555,0.03918500244617462
3707,3382307,44.14808654785156,16.728649139404297,13.405104637145996,-0.5195479393005371,-0.4573476314544678,0.033048685640096664
3720,3382347,44.12765884399414,16.710344314575195,13.397594451904297,-0.5185917019844055,-0.45888084173202515,0.024058368057012558
3725,3382367,44.11750411987305,16.701196670532227,13.393837928771973,-0.5184422731399536,-0.46064019203186035,0.02124040387570858
3740,3382407,44.09714889526367,16.682817459106445,13.386962890625,-0.5187624096870422,-0.463685542345047,0.015096590854227543
3753,3382447,44.07676696777344,16.664371490478516,13.381645202636719,-0.519396960735321,-0.465665727853775,0.01312002819031477
3757,3382467,44.06655502319336,16.655126571655273,13.379592895507812,-0.51932692527771,-0.4656444787979126,0.012711397372186184
3771,3382507,44.04607009887695,16.636552810668945,13.375904083251953,-0.5197880864143372,-0.46750620007514954,0.012474769726395607
3786,3382527,44.0352783203125,16.626766204833984,13.37430477142334,-0.5228438973426819,-0.472021222114563,0.014067323878407478
3789,3382567,44.01481246948242,16.607704162597656,13.374166488647461,-0.5248449444770813,-0.47525596618652344,0.018277483060956
3803,3382607,43.994384765625,16.588253021240234,13.37437915802002,-0.5279079675674438,-0.47761270403862,0.02434065379202366
3807,3382627,43.98408889770508,16.578506469726562,13.37460708618164,-0.5292385816574097,-0.4770984351634979,0.02759302593767643
3821,3382667,43.96335983276367,16.5589599609375,13.377029418945312,-0.5322346091270447,-0.48003190755844116,0.03153045475482941
3835,3382707,43.9424934387207,16.53940773010254,13.379456520080566,-0.5343690514564514,-0.4821735620498657,0.034415360540151596
3839,3382727,43.932010650634766,16.52960968017578,13.380636215209961,-0.5361288785934448,-0.4855857789516449,0.033936746418476105
3852,3382767,43.9107780456543,16.509796142578125,13.382181167602539,-0.536916971206665,-0.48553428053855896,0.033052269369363785
3866,3382807,43.888736724853516,16.489280700683594,13.383583068847656,-0.5405058264732361,-0.48977744579315186,0.02728060446679592
3870,3382827,43.8779411315918,16.479244232177734,13.384173393249512,-0.5423933863639832,-0.4896849989891052,0.024320146068930626
3885,3382867,43.85624694824219,16.459135055541992,13.38292121887207,-0.5456206798553467,-0.4942443072795868,0.01579701341688633
3898,3382907,43.834415435791016,16.43889617919922,13.381566047668457,-0.5497944355010986,-0.49814191460609436,0.005361670162528753
3902,3382927,43.82343673706055,16.428749084472656,13.38082218170166,-0.5512079000473022,-0.5013900995254517,0.00012221936776768416
3915,3382967,43.8011474609375,16.408344268798828,13.376851081848145,-0.5538222193717957,-0.5071865320205688,-0.014136647805571556
3929,3383007,43.77860641479492,16.38776397705078,13.372867584228516,-0.5550001859664917,-0.5135025382041931,-0.024782318621873856
3933,3383027,43.76734161376953,16.377384185791016,13.370889663696289,-0.554821789264679,-0.5163945555686951,-0.02982231229543686
3946,3383067,43.74482345581055,16.35647964477539,13.36631965637207,-0.5545889735221863,-0.5232466459274292,-0.03804868832230568
3960,3383107,43.721866607666016,16.33478546142578,13.361842155456543,-0.5523313879966736,-0.5321073532104492,-0.044293709099292755
3964,3383127,43.71071243286133,16.3241024017334,13.359688758850098,-0.5512469410896301,-0.533751368522644,-0.046373866498470306
3977,3383167,43.6883544921875,16.30238914489746,13.358047485351562,-0.5481000542640686,-0.5408732295036316,-0.04696251079440117
3991,3383187,43.67717742919922,16.291370391845703,13.357301712036133,-0.547393798828125,-0.5474247932434082,-0.04636324197053909
3996,3383227,43.65497970581055,16.269155502319336,13.355828285217285,-0.5437325239181519,-0.5539714694023132,-0.04322395846247673
4009,3383267,43.632938385009766,16.246702194213867,13.359883308410645,-0.541333019733429,-0.56190425157547,-0.04114570468664169
4022,3383287,43.62196350097656,16.23538589477539,13.361668586730957,-0.5405323505401611,-0.5634514689445496,-0.03916000947356224
4027,3383327,43.60002899169922,16.21260643005371,13.364776611328125,-0.5410910248756409,-0.5712687373161316,-0.03885302692651749
4040,3383367,43.577842712402344,16.189550399780273,13.373575210571289,-0.5417954325675964,-0.5739101767539978,-0.03804031386971474
4055,3383387,43.566627502441406,16.177946090698242,13.377537727355957,-0.5433152318000793,-0.5767073035240173,-0.03936297073960304
4060,3383427,43.543704986572266,16.154125213623047,13.384376525878906,-0.5431152582168579,-0.5780486464500427,-0.043515726923942566
4073,3383467,43.521400451660156,16.130849838256836,13.395008087158203,-0.5428073406219482,-0.5800543427467346,-0.047628890722990036
4086,3383487,43.510284423828125,16.119213104248047,13.399646759033203,-0.5425887107849121,-0.5797685980796814,-0.048628874123096466
4092,3383527,43.488136291503906,16.095956802368164,13.407703399658203,-0.5403671264648438,-0.5812270641326904,-0.05287221074104309
4105,3383567,43.465858459472656,16.072477340698242,13.417978286743164,-0.5389768481254578,-0.5815863609313965,-0.055485546588897705
4118,3383587,43.45465087890625,16.060638427734375,13.422523498535156,-0.5383889079093933,-0.5818823575973511,-0.05617378279566765
4123,3383627,43.43234634399414,16.0369930267334,13.43049430847168,-0.5372129678726196,-0.5836716294288635,-0.055273085832595825
4138,3383667,43.41020965576172,16.013381958007812,13.43893051147461,-0.5357022881507874,-0.5841090083122253,-0.05117248371243477
4150,3383687,43.39864730834961,16.00098991394043,13.44265365600586,-0.5352625250816345,-0.5853025317192078,-0.04840416461229324
4155,3383727,43.37668228149414,15.977364540100098,13.44942855834961,-0.5343251824378967,-0.5865182280540466,-0.04117169231176376
4168,3383767,43.35447692871094,15.95366382598877,13.455757141113281,-0.534660279750824,-0.587617039680481,-0.03248828649520874
4181,3383787,43.3432502746582,15.941786766052246,13.458770751953125,-0.5354296565055847,-0.5878245234489441,-0.02665173076093197
4186,3383827,43.32082748413086,15.91805362701416,13.464385986328125,-0.5372800827026367,-0.5887360572814941,-0.01617112010717392
4200,3383847,43.30964279174805,15.906203269958496,13.466365814208984,-0.5378102660179138,-0.5885031819343567,-0.011375620029866695
4213,3383887,43.28731155395508,15.882526397705078,13.47011947631836,-0.5384932160377502,-0.5889057517051697,-0.0028993154410272837
4218,3383927,43.26508331298828,15.858965873718262,13.473691940307617,-0.5375427007675171,-0.5858614444732666,0.005723428912460804
4230,3383947,43.2540283203125,15.847249984741211,13.47374439239502,-0.5364051461219788,-0.583405613899231,0.008300255984067917
4244,3383988,43.231353759765625,15.822993278503418,13.474245071411133,-0.5305895805358887,-0.5788218975067139,0.013491228222846985
4249,3384027,43.20956039428711,15.79958724975586,13.474814414978027,-0.524290919303894,-0.5731496810913086,0.014806969091296196
4261,3384047,43.19880294799805,15.787996292114258,13.472829818725586,-0.5204888582229614,-0.5711650252342224,0.013985239900648594
4275,3384087,43.1776008605957,15.765002250671387,13.46922779083252,-0.5120315551757812,-0.5663812756538391,0.010594606399536133
4280,3384127,43.1568603515625,15.742208480834961,13.465977668762207,-0.5010077953338623,-0.5632518529891968,0.006722328718751669
4292,3384147,43.14665603637695,15.730867385864258,13.462479591369629,-0.49760115146636963,-0.5630466938018799,0.004299159627407789
4307,3384187,43.12595748901367,15.707633972167969,13.45602035522461,-0.48788684606552124,-0.5620081424713135,-0.0009295197669416666
4312,3384227,43.10578155517578,15.684564590454102,13.450199127197266,-0.4777008593082428,-0.5604391694068909,-0.006853798404335976
4324,3384247,43.095863342285156,15.673074722290039,13.44716739654541,-0.474356472492218,-0.5608863830566406,-0.007854169234633446
4338,3384287,43.075870513916016,15.649587631225586,13.441582679748535,-0.46650460362434387,-0.5617457032203674,-0.009084994904696941
4343,3384327,43.05660629272461,15.626696586608887,13.436626434326172,-0.46343347430229187,-0.563379168510437,-0.010292683728039265
4355,3384347,43.04705810546875,15.615251541137695,13.436101913452148,-0.4627068340778351,-0.5634192824363708,-0.008168467320501804
4371,3384387,43.02808380126953,15.591876029968262,13.435327529907227,-0.4620901644229889,-0.5644872784614563,-0.00495657604187727
4376,3384427,43.009159088134766,15.568626403808594,13.434762954711914,-0.46310684084892273,-0.5626375675201416,0.0016697829123586416
4389,3384447,42.99971389770508,15.557068824768066,13.437345504760742,-0.46277526021003723,-0.5615683197975159,0.004447380546480417
4402,3384487,42.98085403442383,15.534086227416992,13.442136764526367,-0.4622873365879059,-0.5586186051368713,0.009812298230826855
4407,3384507,42.971473693847656,15.522704124450684,13.444377899169922,-0.46123382449150085,-0.555001974105835,0.011719885282218456
4420,3384547,42.95234680175781,15.499629974365234,13.450434684753418,-0.45796826481819153,-0.5490891933441162,0.014480321668088436
4434,3384587,42.93381881713867,15.477001190185547,13.457480430603027,-0.4539419114589691,-0.5411564111709595,0.015231113880872726
4438,3384607,42.924644470214844,15.465850830078125,13.460673332214355,-0.4501032531261444,-0.5372313857078552,0.013932633213698864
4451,3384647,42.906532287597656,15.443902969360352,13.466425895690918,-0.4437882602214813,-0.5269960761070251,0.010949252173304558
4466,3384687,42.88872528076172,15.422449111938477,13.471327781677246,-0.4361779987812042,-0.5168578028678894,0.004332845099270344
4470,3384707,42.87995147705078,15.411921501159668,13.473457336425781,-0.4324597120285034,-0.5114732384681702,0.001868991763330996
4483,3384747,42.86268615722656,15.391256332397461,13.47604751586914,-0.4242233335971832,-0.500669002532959,-0.006660060025751591
4497,3384787,42.845890045166016,15.370387077331543,13.476941108703613,-0.4151296317577362,-0.4889867901802063,-0.014208110980689526
4501,3384807,42.83761978149414,15.3601655960083,13.477200508117676,-0.4116431176662445,-0.48360854387283325,-0.017565064132213593
4516,3384847,42.820899963378906,15.339692115783691,13.476090431213379,-0.40419235825538635,-0.47222238779067993,-0.022376276552677155
4529,3384887,42.80485534667969,15.320259094238281,13.473650932312012,-0.39919355511665344,-0.4610150158405304,-0.023854423314332962
4533,3384907,42.79690933227539,15.310749053955078,13.472492218017578,-0.39618000388145447,-0.45569470524787903,-0.023983804509043694
4546,3384947,42.78116226196289,15.292108535766602,13.469463348388672,-0.39271804690361023,-0.4453863501548767,-0.020137766376137733
4560,3384987,42.76533508300781,15.273343086242676,13.46626091003418,-0.38967323303222656,-0.43579500913619995,-0.014412122778594494
4564,3385007,42.7574577331543,15.264165878295898,13.464889526367188,-0.3899226188659668,-0.43065762519836426,-0.00957484357059002
4577,3385047,42.74177169799805,15.2462158203125,13.461737632751465,-0.38645994663238525,-0.42047303915023804,0.0026959518436342478
4591,3385087,42.72640609741211,15.229012489318848,13.458666801452637,-0.3759441077709198,-0.40238314867019653,0.018228154629468918
4595,3385107,42.71886444091797,15.220695495605469,13.457497596740723,-0.3726246654987335,-0.39359959959983826,0.023562677204608917
4608,3385147,42.703651428222656,15.204212188720703,13.454534530639648,-0.3649041950702667,-0.37899157404899597,0.03834071010351181
4614,3385167,42.696529388427734,15.196054458618164,13.45284652709961,-0.36158815026283264,-0.37432578206062317,0.04309161379933357
4627,3385207,42.682437896728516,15.180169105529785,13.450291633605957,-0.3560788929462433,-0.363921195268631,0.055043257772922516
4640,3385247,42.66855239868164,15.164875984191895,13.44678020477295,-0.3511592447757721,-0.35223767161369324,0.06425003707408905
4644,3385267,42.66169357299805,15.157458305358887,13.444498062133789,-0.34579354524612427,-0.3454577326774597,0.06815998256206512
4658,3385307,42.6483039855957,15.143143653869629,13.440925598144531,-0.3328363299369812,-0.32937484979629517,0.07705815881490707
4671,3385347,42.635536193847656,15.129715919494629,13.43661117553711,-0.313173770904541,-0.30689531564712524,0.08445437997579575
4675,3385367,42.62977600097656,15.122771263122559,13.43388557434082,-0.304066002368927,-0.2967018485069275,0.08798155933618546
4691,3385407,42.61882019042969,15.109809875488281,13.429388999938965,-0.2831869423389435,-0.2708538770675659,0.08929156512022018
4704,3385447,42.60830307006836,15.097704887390137,13.424739837646484,-0.265733003616333,-0.24813444912433624,0.09313653409481049
4708,3385467,42.60334777832031,15.092190742492676,13.422151565551758,-0.26043036580085754,-0.23736731708049774,0.09624033421278
4722,3385507,42.59372329711914,15.081921577453613,13.418059349060059,-0.24609342217445374,-0.2127954214811325,0.10088551789522171
4736,3385547,42.584503173828125,15.07263469696045,13.414587020874023,-0.23899050056934357,-0.1966770887374878,0.10445772111415863
4740,3385567,42.58012390136719,15.068294525146484,13.412731170654297,-0.23096808791160583,-0.1831199824810028,0.10034263134002686
4754,3385607,42.57159423828125,15.06037425994873,13.409818649291992,-0.22206179797649384,-0.1618417352437973,0.09964071214199066
4767,3385647,42.563480377197266,15.053441047668457,13.407678604125977,-0.2084227055311203,-0.1411118060350418,0.10072299093008041
4772,3385667,42.5595703125,15.050335884094238,13.406844139099121,-0.2058200091123581,-0.13035903871059418,0.09961383044719696
4786,3385707,42.551795959472656,15.044655799865723,13.405752182006836,-0.19408801198005676,-0.11148283630609512,0.09546733647584915
4799,3385747,42.54456329345703,15.039983749389648,13.405289649963379,-0.18546393513679504,-0.09272724390029907,0.09239242970943451
4803,3385767,42.541595458984375,15.037727355957031,13.40497875213623,-0.18151777982711792,-0.08095922321081161,0.0894232839345932
4817,3385807,42.53580093383789,15.033899307250977,13.404803276062012,-0.17014117538928986,-0.06178727000951767,0.08937399089336395
