packet_index,time_boot_ms,roll_rad,pitch_rad,yaw_rad,roll_deg,pitch_deg,yaw_deg,rollspeed_radps,pitchspeed_radps,yawspeed_radps
11,3370647,-0.03356308862566948,0.014070944860577583,-2.2565982341766357,-1.9230233256743996,0.806205754272392,-129.29355487499544,-0.03790467232465744,0.016322579234838486,-0.03504753112792969
26,3370687,-0.03269215673208237,0.014171278104186058,-2.258134126663208,-1.8731226039285211,0.8119544256760156,-129.38155503226187,-0.005922621116042137,0.007941914722323418,-0.03583488613367081
31,3370727,-0.030681803822517395,0.01390930451452732,-2.259845733642578,-1.757937866878603,0.796944444644678,-129.47962288836493,0.02527480199933052,0.0009263660758733749,-0.03833083063364029
43,3370747,-0.029427776113152504,0.01388227753341198,-2.2607951164245605,-1.6860873717395366,0.7953959126937891,-129.5340185149149,0.038695961236953735,-0.0014409590512514114,-0.04036036133766174
55,3370787,-0.026708615943789482,0.013594928197562695,-2.2629120349884033,-1.5302909702149572,0.7789320085037378,-129.65530901419598,0.05913214012980461,-0.0038033723831176758,-0.046038269996643066
62,3370827,-0.023972170427441597,0.013701973482966423,-2.2651894092559814,-1.3735041912607262,0.7850652515741449,-129.78579294809992,0.06952314078807831,-0.0028561241924762726,-0.05204864591360092
74,3370847,-0.022757021710276604,0.013774098828434944,-2.2663886547088623,-1.3038812982864358,0.7891977294654141,-129.85450465115025,0.07036083936691284,-0.0005367696285247803,-0.054667506366968155
89,3370887,-0.020836077630519867,0.014175141230225563,-2.2687947750091553,-1.193819309835733,0.8121757664938064,-129.99236518935777,0.06442223489284515,0.0044000837951898575,-0.058632947504520416
94,3370927,-0.019774165004491806,0.015101848170161247,-2.2710742950439453,-1.1329761981526711,0.8652721629976046,-130.12297206666676,0.04799420014023781,0.013896770775318146,-0.05881434306502342
106,3370947,-0.01971442624926567,0.015685126185417175,-2.272073268890381,-1.1295534196048485,0.8986915315545365,-130.18020905191148,0.03724713623523712,0.018363358452916145,-0.05735325068235397
117,3370987,-0.020619485527276993,0.017483796924352646,-2.2736806869506836,-1.1814094964440547,1.001747773629216,-130.27230732267992,0.009340912103652954,0.031232133507728577,-0.05035977065563202
125,3371027,-0.022704096511006355,0.019556984305381775,-2.274783134460449,-1.3008489077383618,1.1205326607019657,-130.3354729121242,-0.02182343602180481,0.04311933368444443,-0.03950412943959236
137,3371047,-0.024180157110095024,0.020813612267374992,-2.27514386177063,-1.3854209503716943,1.192532139342303,-130.35614106455265,-0.03788742423057556,0.04910742864012718,-0.033008821308612823
148,3371087,-0.02794373594224453,0.02335125021636486,-2.2754108905792236,-1.6010581333186362,1.337928083751657,-130.3714406882935,-0.06869138777256012,0.05904967337846756,-0.01894770935177803
156,3371127,-0.03263022378087044,0.02621450647711754,-2.2752017974853516,-1.8695741072112881,1.5019805831571948,-130.35946053648928,-0.09585487842559814,0.06636925786733627,-0.00490664504468441
168,3371147,-0.03515377640724182,0.02749781869351864,-2.274974822998047,-2.0141630220815228,1.5755089569545573,-130.34645585630957,-0.10776502639055252,0.06865176558494568,0.0015523452311754227
179,3371187,-0.04069438949227333,0.030128398910164833,-2.2742655277252197,-2.3316167677687867,1.726230101038994,-130.305816230748,-0.12709076702594757,0.06841333210468292,0.012353343889117241
188,3371227,-0.046613771468400955,0.032506320625543594,-2.27333664894104,-2.670772372326709,1.862474979342706,-130.25259539673527,-0.140093132853508,0.0650276392698288,0.02061481773853302
201,3371248,-0.04937611520290375,0.033557187765836716,-2.272825002670288,-2.829043009878125,1.922685231310484,-130.22328022481756,-0.14327989518642426,0.061479352414608,0.023479659110307693
214,3371287,-0.05491776764392853,0.03549493849277496,-2.271695375442505,-3.1465563062772155,2.033710169712453,-130.15855735224252,-0.14454346895217896,0.054416224360466,0.028029024600982666
218,3371307,-0.057425323873758316,0.03621971979737282,-2.2710816860198975,-3.290228695138199,2.0752370795358956,-130.1233955383953,-0.14195455610752106,0.049852728843688965,0.029696261510252953
231,3371347,-0.06205672398209572,0.03756452724337578,-2.2697482109069824,-3.5555883745823644,2.152288870449633,-130.04699304233955,-0.131870836019516,0.039480067789554596,0.0324859656393528
247,3371387,-0.06589242070913315,0.03830526024103165,-2.2681689262390137,-3.7753576085337524,2.194729744961388,-129.9565066962152,-0.11642103642225266,0.029060909524559975,0.03625613823533058
251,3371407,-0.06749315559864044,0.03852125629782677,-2.2672882080078125,-3.8670729618218607,2.2071054074072163,-129.90604525862716,-0.10719642788171768,0.02276688814163208,0.03843406215310097
264,3371447,-0.06988612562417984,0.0384204275906086,-2.2653470039367676,-4.0041800447865805,2.201328348029855,-129.79482245818267,-0.08563459664583206,0.009329315274953842,0.04338438808917999
278,3371487,-0.07111441344022751,0.037617769092321396,-2.263184070587158,-4.0745557526734535,2.1553394036876896,-129.67089550588196,-0.05970890074968338,-0.007456464692950249,0.04819617420434952
282,3371507,-0.07129137217998505,0.03700388967990875,-2.262019157409668,-4.084694741609514,2.1201667042264742,-129.6041508973126,-0.045224081724882126,-0.015835914760828018,0.050313178449869156
296,3371547,-0.07080522179603577,0.03533997759222984,-2.2596540451049805,-4.056840376400556,2.024831564121671,-129.46863994417953,-0.016553906723856926,-0.03218929469585419,0.05342758446931839
307,3371587,-0.06925021857023239,0.03356371447443962,-2.2570858001708984,-3.9677452544327942,1.9230591841675422,-129.3214903487008,0.011388812214136124,-0.04313364624977112,0.05706815421581268
314,3371607,-0.06814999133348465,0.032472822815179825,-2.2557458877563477,-3.9047068772618077,1.8605556961859324,-129.24471902242985,0.025330394506454468,-0.04817529767751694,0.05871253460645676
328,3371647,-0.06542714685201645,0.030953198671340942,-2.2529475688934326,-3.7486993802031927,1.7734876462977833,-129.08438716185296,0.04913906008005142,-0.050822995603084564,0.06281124800443649
341,3371687,-0.06188349798321724,0.029458390548825264,-2.2499778270721436,-3.5456632559446897,1.6878414496957606,-128.9142334892496,0.06938061118125916,-0.04742615297436714,0.06710515916347504
355,3371707,-0.059950895607471466,0.029058221727609634,-2.248443365097046,-3.4349332963375008,1.6649134651473798,-128.8263152942532,0.07837112993001938,-0.04343133047223091,0.06958984583616257
370,3371747,-0.05564098432660103,0.028211483731865883,-2.245232582092285,-3.187993569867802,1.6163989516378965,-128.64235097914806,0.09371185302734375,-0.03315567225217819,0.07479305565357208
373,3371787,-0.05099323391914368,0.027910389006137848,-2.241948366165161,-2.921697087290287,1.599147494620031,-128.45417926751423,0.10608018934726715,-0.023666922003030777,0.07897061109542847
387,3371807,-0.048427797853946686,0.027921050786972046,-2.2402215003967285,-2.7747084281438505,1.599758369663924,-128.3552371471974,0.11121094226837158,-0.0174544807523489,0.08062288165092468
390,3371847,-0.04337812960147858,0.028194120153784752,-2.2369935512542725,-2.485383749336226,1.6154040918966017,-128.1702892848518,0.11910329759120941,-0.0065257735550403595,0.08206352591514587
407,3371887,-0.038240768015384674,0.028906937688589096,-2.23378849029541,-2.191034612620411,1.6562455282038104,-127.98665281882685,0.12398312240839005,0.004735821858048439,0.08238174021244049
411,3371907,-0.03563566878437996,0.029421348124742508,-2.232229232788086,-2.0417734214710643,1.6857190751328848,-127.89731394448309,0.12580905854701996,0.009796291589736938,0.0820385068655014
424,3371947,-0.030551932752132416,0.030644215643405914,-2.22910475730896,-1.7504968026646972,1.7557842228559335,-127.71829468633705,0.12677985429763794,0.020186861976981163,0.08104775846004486
428,3371967,-0.028048649430274963,0.031206704676151276,-2.2275514602661133,-1.6070692333967764,1.7880124704546385,-127.62929732145179,0.12633612751960754,0.023724470287561417,0.08055818825960159
442,3372007,-0.023272987455129623,0.032473959028720856,-2.22445011138916,-1.3334439578398378,1.8606207964264592,-127.45160312000473,0.1230073869228363,0.027769265696406364,0.08000659942626953
455,3372047,-0.01885531097650528,0.03348882123827934,-2.221388578414917,-1.0803297403604475,1.9187681178214817,-127.27619020174046,0.1163748949766159,0.028346126899123192,0.07937000691890717
459,3372067,-0.016848213970661163,0.033909328281879425,-2.2198429107666016,-0.9653315528522353,1.9428613966752901,-127.18762996896209,0.11193831264972687,0.026628876104950905,0.07910521328449249
473,3372107,-0.013030040077865124,0.03418859466910362,-2.2166123390197754,-0.7465663033479861,1.958862182023103,-127.00253184245473,0.10111081600189209,0.018783297389745712,0.07940813899040222
486,3372147,-0.009602554142475128,0.03390662372112274,-2.2133266925811768,-0.5501858249096903,1.9427064367584954,-126.81427816855084,0.09038173407316208,0.005470322445034981,0.08129603415727615
490,3372167,-0.007958043366670609,0.03339999541640282,-2.2116918563842773,-0.45596229809230654,1.913678773116176,-126.72060895427329,0.08624155074357986,-0.002235325053334236,0.08226056396961212
505,3372207,-0.004693679045885801,0.03191985562443733,-2.2084853649139404,-0.2689279997182475,1.8288730099471822,-126.53689052597828,0.08068590611219406,-0.020313315093517303,0.08316782861948013
518,3372247,-0.001587736769579351,0.029753150418400764,-2.205338478088379,-0.09097061587463208,1.7047299461922634,-126.3565871922683,0.07722289115190506,-0.038544945418834686,0.08286760002374649
522,3372267,-7.474562880815938e-05,0.02837146446108818,-2.2038533687591553,-0.004282609067758994,1.6255651722257594,-126.27149669558827,0.07601110637187958,-0.04771913215517998,0.08177131414413452
536,3372307,0.002792274346575141,0.025263318791985512,-2.201138496398926,0.1599855353014053,1.447481543274311,-126.1159459674304,0.07318165898323059,-0.06493082642555237,0.07748238742351532
549,3372347,0.005338595248758793,0.021624092012643814,-2.1987669467926025,0.3058789762824727,1.2389692081270445,-125.98006618408216,0.06849510222673416,-0.07989367097616196,0.07078292965888977
553,3372367,0.00667001074180007,0.019667860120534897,-2.197692394256592,0.3821634648120675,1.1268853769603122,-125.91849885890367,0.06603621691465378,-0.08597444742918015,0.06625744700431824
569,3372407,0.00919436290860176,0.015689512714743614,-2.196134328842163,0.5267981899745088,0.8989428611716518,-125.82922828645161,0.06299354135990143,-0.09481146931648254,0.055283647030591965
582,3372447,0.011639812961220741,0.01161094568669796,-2.1949570178985596,0.6669121569996215,0.6652581840034205,-125.76177333820856,0.06186728924512863,-0.10034674406051636,0.043638475239276886
586,3372467,0.012848014943301678,0.009612726978957653,-2.1945300102233887,0.7361370313721998,0.5507686855058156,-125.73730760060157,0.0611213743686676,-0.10139534622430801,0.038148947060108185
600,3372507,0.015220122411847115,0.0056455060839653015,-2.193969488143921,0.8720487778713151,0.3234636718266407,-125.70519205112417,0.06060069799423218,-0.10200227051973343,0.02748386561870575
614,3372547,0.017285481095314026,0.0019589108414947987,-2.1937692165374756,0.9903851136146652,0.11223732366007254,-125.69371733331855,0.057785481214523315,-0.0983525961637497,0.01765555888414383
618,3372567,0.018077725544571877,0.00023291206161957234,-2.19378399848938,1.0357773768998062,0.01334487812849246,-125.69456427677564,0.05419261008501053,-0.09565754234790802,0.013043520972132683
632,3372607,0.019317101687192917,-0.002935068216174841,-2.194159746170044,1.106788399101196,-0.16816702136980952,-125.71609303303951,0.04420354217290878,-0.08833891153335571,0.003776613622903824
636,3372627,0.019756361842155457,-0.004421757534146309,-2.194523572921753,1.131956152088812,-0.2533480447367575,-125.73693877038639,0.03798113018274307,-0.08406813442707062,-0.001100100576877594
650,3372667,0.01994464173913002,-0.006979945115745068,-2.195507287979126,1.1427437955526123,-0.3999213963651453,-125.79330149141734,0.02258974313735962,-0.07436506450176239,-0.011452900245785713
664,3372707,0.019127298146486282,-0.009098638780415058,-2.1969730854034424,1.0959134572820661,-0.5213136014318415,-125.87728549745181,0.0024484675377607346,-0.06335463374853134,-0.02203950844705105
668,3372727,0.018340902402997017,-0.009952199645340443,-2.1978542804718018,1.0508563001530788,-0.570219036549602,-125.92777425579655,-0.009314283728599548,-0.05779184401035309,-0.027692820876836777
681,3372767,0.01576659083366394,-0.011265408247709274,-2.1998705863952637,0.903359112078594,-0.6454603470856096,-126.04330007541814,-0.035684265196323395,-0.04536544159054756,-0.03866368159651756
695,3372807,0.01210640836507082,-0.012062884867191315,-2.2022440433502197,0.6936461043804332,-0.6911523916422909,-126.17928914179309,-0.06470039486885071,-0.03282969444990158,-0.04867181181907654
699,3372827,0.009870260953903198,-0.012252050451934338,-2.203510046005249,0.5655242953514232,-0.7019907812771904,-126.25182575077864,-0.07982712239027023,-0.02626865729689598,-0.052991755306720734
713,3372867,0.004591322038322687,-0.012370760552585125,-2.206105947494507,0.2630633751812924,-0.7087923690300537,-126.40055995014482,-0.1081780195236206,-0.013959378935396671,-0.059697218239307404
727,3372907,-0.0014016302302479744,-0.011951577849686146,-2.2086756229400635,-0.08030749663115876,-0.6847749693090559,-126.54779150789362,-0.13296614587306976,-0.0011638849973678589,-0.06281161308288574
731,3372927,-0.004531715996563435,-0.011554740369319916,-2.2099204063415527,-0.2596482005550067,-0.6620378565314653,-126.6191123432069,-0.1430739462375641,0.005087917670607567,-0.06297469139099121
744,3372967,-0.010998416692018509,-0.010349269025027752,-2.2124013900756836,-0.6301628577788967,-0.5929694361795625,-126.7612622402132,-0.15603472292423248,0.018539777025580406,-0.06148609519004822
758,3373007,-0.01697479747235775,-0.008945688605308533,-2.214779853820801,-0.9725842532554367,-0.5125502019224506,-126.8975381745333,-0.15800851583480835,0.02940562553703785,-0.059165969491004944
762,3373027,-0.019771765917539597,-0.00812824722379446,-2.215972661972046,-1.1328387405956246,-0.4657142607623509,-126.96588104736844,-0.1554550677537918,0.033919841051101685,-0.05823834240436554
775,3373067,-0.02454930730164051,-0.006514537613838911,-2.2183890342712402,-1.4065716983536967,-0.3732555107521957,-127.1043289818446,-0.14209839701652527,0.040169261395931244,-0.057351451367139816
789,3373107,-0.028190309181809425,-0.0049140676856040955,-2.2209558486938477,-1.615185739286573,-0.281555338626735,-127.25139661505332,-0.11928585916757584,0.04275915026664734,-0.05847121775150299
793,3373127,-0.02953055500984192,-0.004172598477452993,-2.2222986221313477,-1.6919761687428512,-0.23907228236076972,-127.32833186586434,-0.1054249033331871,0.042817335575819016,-0.05982793867588043
806,3373167,-0.03118436224758625,-0.00279534631408751,-2.225137710571289,-1.78673234359379,-0.16016154607466535,-127.49099965113737,-0.07406208664178848,0.04063910245895386,-0.06379189342260361
821,3373207,-0.031516529619693756,-0.0016163894906640053,-2.2281641960144043,-1.8057641321075018,-0.09261229586434828,-127.66440449378565,-0.0397457517683506,0.036982640624046326,-0.06875164061784744
825,3373227,-0.03123994544148445,-0.0011068325256928802,-2.2297322750091553,-1.7899170260160144,-0.0634168323500073,-127.754248802128,-0.02296142838895321,0.03466813638806343,-0.07125052064657211
838,3373267,-0.03010373003780842,-0.00018943061877507716,-2.2330100536346436,-1.7248166787676245,-0.010853574966363574,-127.94205168354667,0.007367249578237534,0.029738565906882286,-0.07576075941324234
851,3373287,-0.02927163615822792,0.00017360241326969117,-2.2346110343933105,-1.677141211308995,0.009946685593639221,-128.03378112409993,0.01957688108086586,0.027146359905600548,-0.07725889980792999
856,3373327,-0.027415726333856583,0.0008191264932975173,-2.237684488296509,-1.5708054112156515,0.04693249095329886,-128.20987706128122,0.038199588656425476,0.022132765501737595,-0.07822032272815704
869,3373367,-0.02555292285978794,0.0015913364477455616,-2.2405343055725098,-1.4640746340892108,0.09117686224116135,-128.37315956357952,0.04729897528886795,0.019938087090849876,-0.07578523457050323
884,3373387,-0.02463408373296261,0.0020969854667782784,-2.241899251937866,-1.4114290300706336,0.12014841694666625,-128.45136522957617,0.04883863031864166,0.0205913744866848,-0.07356716692447662
889,3373427,-0.02323230169713497,0.003294035093858838,-2.2443747520446777,-1.3311128356204536,0.18873430844609143,-128.59320093788065,0.045842576771974564,0.024913175031542778,-0.06793807446956635
902,3373467,-0.022439245134592056,0.004925718531012535,-2.246619939804077,-1.2856740416715917,0.28222288289639796,-128.72184072070868,0.03551080450415611,0.03268244117498398,-0.061159804463386536
912,3373487,-0.02231210470199585,0.005840787664055824,-2.2476561069488525,-1.2783894314783615,0.3346524821824737,-128.78120872497445,0.028272945433855057,0.03714805841445923,-0.057939562946558
927,3373527,-0.0225586649030447,0.007971590384840965,-2.2497165203094482,-1.292516290394358,0.456738485058455,-128.89926171458893,0.011198118329048157,0.04602396488189697,-0.05245484784245491
934,3373567,-0.023615071550011635,0.010232128202915192,-2.2516531944274902,-1.3530439327151298,0.5862577614638201,-129.01022496784498,-0.0074773915112018585,0.05372856557369232,-0.04881870001554489
947,3373587,-0.024411026388406754,0.011356540024280548,-2.252607822418213,-1.3986487856381877,0.6506818132626728,-129.06492112271843,-0.01727648824453354,0.056150563061237335,-0.04763420671224594
952,3373627,-0.026529746130108833,0.013686970807611942,-2.2544667720794678,-1.5200424848087648,0.7842056615949281,-129.1714310926356,-0.036113522946834564,0.05918391793966293,-0.04594218358397484
966,3373667,-0.029323425143957138,0.01586759276688099,-2.2562098503112793,-1.6801085016165425,0.909146096574593,-129.27130211867953,-0.0538487508893013,0.05868403986096382,-0.04433193802833557
979,3373687,-0.030961472541093826,0.016991961747407913,-2.2570250034332275,-1.7739617041148645,0.9735676937742128,-129.31800695222407,-0.062345996499061584,0.05829987674951553,-0.04313744604587555
984,3373727,-0.03454408794641495,0.01899030990898609,-2.258561134338379,-1.9792304464583155,1.0880646094303696,-129.40602076986886,-0.07769645005464554,0.05599267780780792,-0.040258318185806274
997,3373767,-0.03841809555888176,0.020886490121483803,-2.2598278522491455,-2.2011947324542165,1.196707732802708,-129.4785983599894,-0.08952672779560089,0.05237369239330292,-0.03586496412754059
1010,3373787,-0.04040013626217842,0.021747376769781113,-2.2603108882904053,-2.3147572995762564,1.246032904389307,-129.5062742865063,-0.093743234872818,0.05020715296268463,-0.03275984525680542
1015,3373827,-0.044498566538095474,0.023425213992595673,-2.261002540588379,-2.5495800570149414,1.3421658959665326,-129.5459030440707,-0.09923595190048218,0.045939601957798004,-0.024412348866462708
1029,3373867,-0.048295702785253525,0.02509353868663311,-2.2612578868865967,-2.767139938213242,1.437753859792332,-129.5605333092729,-0.09963501989841461,0.04301972687244415,-0.014693986624479294
1042,3373887,-0.05007980391383171,0.025951838120818138,-2.261237621307373,-2.869361403105299,1.4869307949296007,-129.559372177114,-0.09790892899036407,0.042398594319820404,-0.00953842792659998
1047,3373927,-0.05323895439505577,0.02783430740237236,-2.2609474658966064,-3.0503673925261605,1.594788339825682,-129.54274749667417,-0.09077534824609756,0.043828681111335754,0.0008636303246021271
1059,3373947,-0.054570697247982025,0.028870508074760437,-2.260679244995117,-3.1266706373955464,1.654158265082137,-129.52737957104165,-0.08509968221187592,0.04525642469525337,0.005568748340010643
1073,3373987,-0.05649128183722496,0.031088998541235924,-2.2601311206817627,-3.2367120285570334,1.7812684057011914,-129.49597436123793,-0.06919988244771957,0.04958640784025192,0.013031968846917152
1078,3374027,-0.057388998568058014,0.03347509354352951,-2.2596025466918945,-3.288147408432049,1.9179815788498724,-129.4656893024581,-0.04787762463092804,0.05503440648317337,0.016789743676781654
1090,3374047,-0.057489506900310516,0.03472154214978218,-2.259356737136841,-3.293906111676016,1.9893978233681142,-129.45160545238951,-0.03544938564300537,0.057432375848293304,0.017237262800335884
1101,3374087,-0.05671605467796326,0.0371822714805603,-2.258986234664917,-3.249590563680504,2.130387228545752,-129.43037722444913,-0.00835512951016426,0.06077129393815994,0.016079574823379517
1109,3374127,-0.054667163640260696,0.039564333856105804,-2.258713722229004,-3.132197754537968,2.2668693492014165,-129.41476341200647,0.021354446187615395,0.061368923634290695,0.013248909264802933
1121,3374147,-0.053255755454301834,0.040594108402729034,-2.2585999965667725,-3.051330022312309,2.3258710845729254,-129.4082474115383,0.03624803572893143,0.059866249561309814,0.011640546843409538
1137,3374187,-0.04955511912703514,0.042444583028554916,-2.258359909057617,-2.839299179247134,2.4318954707287985,-129.39449141054988,0.0661265179514885,0.0540846586227417,0.009145641699433327
1141,3374227,-0.0449741892516613,0.04389319196343422,-2.2580413818359375,-2.576831231142823,2.514894648862324,-129.37624114508762,0.09320861101150513,0.04568891227245331,0.008323466405272484
1154,3374247,-0.042436543852090836,0.044524744153022766,-2.257840394973755,-2.4314348598466458,2.5510799238679938,-129.36472544614696,0.10488009452819824,0.04116668552160263,0.00876070186495781
1167,3374287,-0.03717995434999466,0.04547286778688431,-2.2573132514953613,-2.13025446674376,2.605403406544867,-129.33452234963715,0.12260221689939499,0.032231852412223816,0.010744145140051842
1172,3374327,-0.03192123398184776,0.04617737978696823,-2.25661563873291,-1.8289519840094604,2.645768970765996,-129.29455208261425,0.13127151131629944,0.023526744917035103,0.013737587258219719
1184,3374347,-0.02940092794597149,0.04634825885295868,-2.256134271621704,-1.6845490850724028,2.6555596200543863,-129.26697177874576,0.13234257698059082,0.01929372362792492,0.016012225300073624
1200,3374387,-0.024721985682845116,0.0466352179646492,-2.2549843788146973,-1.4164654408098716,2.6720011660470764,-129.2010877740118,0.1276598572731018,0.011713797226548195,0.021946437656879425
1205,3374427,-0.020510345697402954,0.04673823341727257,-2.2534990310668945,-1.1751562448154964,2.6779035167070253,-129.11598361695343,0.11597605794668198,0.005428483709692955,0.02917620912194252
1217,3374447,-0.01876181550323963,0.046789269894361496,-2.2526726722717285,-1.0749728443387476,2.6808276914454368,-129.06863674562692,0.10838385671377182,0.003314059227705002,0.03283295780420303
1231,3374487,-0.016016483306884766,0.04695942625403404,-2.250877857208252,-0.9176768961262332,2.6905769327119837,-128.9658014174832,0.08923232555389404,0.0014329049736261368,0.03962891548871994
1236,3374527,-0.014508171007037163,0.047043342143297195,-2.248957872390747,-0.8312569671572948,2.6953849590008496,-128.85579439071097,0.06396941095590591,0.0012069139629602432,0.04503612592816353
1249,3374547,-0.014208626933395863,0.047106578946113586,-2.2479937076568604,-0.8140943559594924,2.69900816091213,-128.8005518207039,0.049348946660757065,0.0013939235359430313,0.04687119275331497
1260,3374587,-0.014605799689888954,0.04728264734148979,-2.246065378189087,-0.8368506786441237,2.709096136872827,-128.6900666806898,0.017633922398090363,0.0020636655390262604,0.04873839393258095
1267,3374607,-0.015246117487549782,0.047454968094825745,-2.245086669921875,-0.8735381859972009,2.7189693887614923,-128.63399082760398,0.0019412394613027573,0.002919621765613556,0.04917243868112564
1280,3374647,-0.017078349366784096,0.04773665592074394,-2.2431130409240723,-0.9785173397666507,2.7351089123268206,-128.52091021570524,-0.02717055007815361,0.00504256971180439,0.04969443380832672
1295,3374687,-0.019687261432409286,0.04794580116868019,-2.2410333156585693,-1.1279969902477318,2.747092052338785,-128.4017507354452,-0.050843242555856705,0.0052129533141851425,0.050288550555706024
1299,3374707,-0.021117286756634712,0.04792596399784088,-2.2399706840515137,-1.2099314059226758,2.7459554661722128,-128.3408664291837,-0.06024733930826187,0.00434977188706398,0.05108143016695976
1312,3374747,-0.024231363087892532,0.04773356765508652,-2.237823486328125,-1.3883548367853322,2.734931967738635,-128.21784106185345,-0.07417390495538712,-0.00022267363965511322,0.05267808958888054
1326,3374787,-0.027269141748547554,0.047133877873420715,-2.2356951236724854,-1.5624067331357687,2.700572274232063,-128.09589486441203,-0.08054982125759125,-0.007194098085165024,0.053694695234298706
1330,3374807,-0.028594087809324265,0.04656447470188141,-2.234670639038086,-1.638320550500758,2.667947875661497,-128.03719621868495,-0.08054304122924805,-0.012571142986416817,0.053712934255599976
1343,3374847,-0.03110542520880699,0.044869564473629,-2.2325947284698486,-1.782209584424478,2.5708366729290786,-127.91825530447835,-0.07534205913543701,-0.027244796976447105,0.052948709577322006
1358,3374887,-0.03296666592359543,0.04238669574260712,-2.230522394180298,-1.8888508220397682,2.4285787735565227,-127.79951929594684,-0.06440161913633347,-0.04526209086179733,0.051856935024261475
1362,3374907,-0.033672600984573364,0.04090513288974762,-2.229520797729492,-1.9292979216441142,2.3436914750043116,-127.74213204654039,-0.057150088250637054,-0.054917413741350174,0.05117055028676987
1375,3374947,-0.03450527414679527,0.03735119849443436,-2.227646589279175,-1.9770065795532417,2.1400660334864834,-127.63474781240946,-0.040437035262584686,-0.07404626905918121,0.04879048839211464
1389,3374987,-0.034950319677591324,0.0334341786801815,-2.2258968353271484,-2.0025058101590147,1.9156373298606773,-127.534494295772,-0.024064091965556145,-0.09005258977413177,0.0448998287320137
1393,3375007,-0.03501898795366287,0.0315399095416069,-2.225147247314453,-2.0064402125643537,1.8071037029584704,-127.49154606627097,-0.01743532344698906,-0.09456273913383484,0.04254789650440216
1406,3375047,-0.035050466656684875,0.02779153548181057,-2.223726272583008,-2.0082438093920603,1.5923376892958225,-127.41013021136442,-0.007354820147156715,-0.09803617745637894,0.037903547286987305
1420,3375087,-0.03508011996746063,0.02460479736328125,-2.2224438190460205,-2.009942818948101,1.4097510446906318,-127.33665103627342,-0.0019540395587682724,-0.09331922233104706,0.033636413514614105
1424,3375107,-0.035104550421237946,0.023217476904392242,-2.221835136413574,-2.0113425808411307,1.3302634375641391,-127.30177609037133,-0.0008399579674005508,-0.0883445292711258,0.03182058408856392
1437,3375147,-0.035212162882089615,0.020988713949918747,-2.2206058502197266,-2.017508320670948,1.2025647267376998,-127.23134317965017,-0.0011069104075431824,-0.07381084561347961,0.029680348932743073
1449,3375187,-0.03551540896296501,0.0192858949303627,-2.2192487716674805,-2.034883041258991,1.1050003836425335,-127.15358830613874,-0.0037384629249572754,-0.058192938566207886,0.030269363895058632
1456,3375207,-0.03577142581343651,0.018656693398952484,-2.21850848197937,-2.0495517262752396,1.06894979142956,-127.11117283139296,-0.006042921915650368,-0.05047246068716049,0.03171601891517639
1469,3375247,-0.03655918315052986,0.017662283033132553,-2.216787815093994,-2.094686896971153,1.0119742743640177,-127.012585880913,-0.0127352774143219,-0.03671586513519287,0.03657667338848114
1473,3375267,-0.03707006573677063,0.01727083884179592,-2.215766668319702,-2.1239583129894775,0.9895461742855172,-126.95407848048266,-0.016639918088912964,-0.030509501695632935,0.039951346814632416
1487,3375307,-0.03831128031015396,0.016764076426625252,-2.2136173248291016,-2.1950746695144736,0.9605108266803815,-126.83093016974733,-0.02432488650083542,-0.020846467465162277,0.04719702526926994
1501,3375347,-0.039835501462221146,0.016378922387957573,-2.2111563682556152,-2.2824061085724914,0.9384431258023049,-126.6899277445216,-0.03237223997712135,-0.014485925436019897,0.05488131567835808
1504,3375367,-0.0405975840985775,0.01603737659752369,-2.2098214626312256,-2.3260702272759133,0.9188739934999837,-126.61344328619579,-0.03568744286894798,-0.01345028169453144,0.058857306838035583
1520,3375407,-0.04235374182462692,0.015247773379087448,-2.206843614578247,-2.426690653137837,0.8736330615936406,-126.44282516072887,-0.04112522304058075,-0.01634729467332363,0.06699363142251968
1533,3375447,-0.04421272128820419,0.01427070889621973,-2.203436851501465,-2.5332023306023084,0.8176513904131881,-126.24763201462825,-0.04561658948659897,-0.021886732429265976,0.07622762024402618
1537,3375467,-0.04509768635034561,0.01377152930945158,-2.2015538215637207,-2.5839070936795445,0.7890505068722886,-126.13974234649872,-0.046785347163677216,-0.024803224951028824,0.08113918453454971
1551,3375507,-0.04658566787838936,0.012863649055361748,-2.197556734085083,-2.6691621552298783,0.7370328000096764,-125.91072610362819,-0.045082125812768936,-0.028019670397043228,0.09130896627902985
1565,3375547,-0.04757179319858551,0.012142395600676537,-2.1931731700897217,-2.7256629741481047,0.6957080210969836,-125.65956638746849,-0.037458278238773346,-0.026776183396577835,0.10081848502159119
1569,3375567,-0.047708287835121155,0.011884688399732113,-2.191012144088745,-2.7334835407477693,0.6809424861327383,-125.5357487181945,-0.031124932691454887,-0.024769850075244904,0.10453705489635468
1583,3375607,-0.04722755774855614,0.011534489691257477,-2.1867687702178955,-2.705939735702635,0.6608775781462094,-125.29262130449872,-0.012805251404643059,-0.019572410732507706,0.10858923196792603
1596,3375647,-0.04551775008440018,0.011215198785066605,-2.1827030181884766,-2.607974972767377,0.6425835567845649,-125.05967087266627,0.012547846883535385,-0.015652600675821304,0.10768380761146545
1601,3375667,-0.04422150179743767,0.011140376329421997,-2.180776596069336,-2.5337054167233624,0.6382965458633241,-124.94929501567886,0.027180958539247513,-0.013566924259066582,0.10563264787197113
1615,3375707,-0.04061924293637276,0.010922489687800407,-2.1772942543029785,-2.32731118727074,0.6258125608861275,-124.74977152964445,0.05872742831707001,-0.01036437414586544,0.09847518801689148
1628,3375747,-0.035861168056726456,0.010750463232398033,-2.174316167831421,-2.0546935780597897,0.615956171026976,-124.57913974379919,0.09035369753837585,-0.008219975978136063,0.08822295069694519
1632,3375767,-0.03318974748253822,0.010455959476530552,-2.173039197921753,-1.9016324538543892,0.5990823487650182,-124.50597475741002,0.10509413480758667,-0.008822320029139519,0.08196444064378738
1646,3375807,-0.02749537117779255,0.009789361618459225,-2.1708388328552246,-1.5753687246331605,0.5608891048650705,-124.37990312570992,0.12873530387878418,-0.013035590760409832,0.06861358880996704
1659,3375847,-0.021602684631943703,0.008840709924697876,-2.1689975261688232,-1.2377426555624984,0.5065353665846082,-124.2744040237899,0.14192217588424683,-0.018796753138303757,0.05573839694261551
1664,3375867,-0.018940238282084465,0.008349228650331497,-2.1681761741638184,-1.0851957165355526,0.4783755638537034,-124.22734402040851,0.14363615214824677,-0.02180430293083191,0.050444137305021286
1678,3375907,-0.013995261862874031,0.007266337983310223,-2.166649103164673,-0.8018694379230803,0.41633049895927776,-124.13984929714066,0.13852180540561676,-0.026119941845536232,0.04262246936559677
1682,3375927,-0.011757027357816696,0.006643291562795639,-2.165949821472168,-0.6736280472227423,0.380632568623059,-124.09978340746936,0.13204218447208405,-0.02786814048886299,0.04021911695599556
1695,3375967,-0.007971440441906452,0.005530134309083223,-2.164499044418335,-0.4567298939611396,0.3168533560509642,-124.0166600052703,0.11513624340295792,-0.030008427798748016,0.03733981400728226
1709,3376007,-0.005141667556017637,0.004501663148403168,-2.163146734237671,-0.2945958506191554,0.25792629919307586,-123.93917833932568,0.09371382743120193,-0.029412653297185898,0.03611491620540619
1713,3376027,-0.004065302200615406,0.003974643535912037,-2.1625239849090576,-0.23292465854050867,0.22773029967671396,-123.90349743110153,0.08187384903430939,-0.028605438768863678,0.035383597016334534
1726,3376067,-0.0025980104692280293,0.0033243640791624784,-2.1613872051239014,-0.14885503501756872,0.19047203130090432,-123.83836474717629,0.05781064182519913,-0.024462644010782242,0.03307991102337837
1740,3376107,-0.0017360066995024681,0.0028506056405603886,-2.160614252090454,-0.09946585708792717,0.16332767226029682,-123.79407780059793,0.036780864000320435,-0.0184495709836483,0.028279999271035194
1754,3376127,-0.0014362389920279384,0.002684785518795252,-2.1603384017944336,-0.08229043261532436,0.15382687912480908,-123.77827274285852,0.027655955404043198,-0.015024702064692974,0.024666864424943924
1768,3376167,-0.0011115699307993054,0.0027882889844477177,-2.1601457595825195,-0.06368826566844918,0.15975719087167264,-123.76723515715977,0.014534149318933487,-0.007254522293806076,0.016039280220866203
1772,3376207,-0.0007226972957141697,0.003339949995279312,-2.1604132652282715,-0.04140750490993993,0.1913650385142438,-123.78256210165729,0.008607916533946991,0.0028115585446357727,0.005839500576257706
1786,3376227,-0.0005084355361759663,0.003789493814110756,-2.1606807708740234,-0.029131210377353955,0.21712200203947923,-123.7978890461548,0.008074773475527763,0.008298497647047043,0.0004905369132757187
1789,3376267,-0.0001684322633082047,0.0051038144156336784,-2.1614372730255127,-0.009650457821396324,0.29242702543383836,-123.8412334266277,0.007767559960484505,0.021001668646931648,-0.00939071737229824
1803,3376307,0.00022741757857147604,0.006771400570869446,-2.1623694896698,0.013030067439230367,0.38797267410329556,-123.89464550593719,0.008469559252262115,0.03227817267179489,-0.017006490379571915
1807,3376327,0.00039312371518462896,0.007668415084481239,-2.1628596782684326,0.022524329706582275,0.43936781989523166,-123.92273124380428,0.009050844237208366,0.03722459077835083,-0.01965400204062462
1820,3376367,0.0007511764415539801,0.009483672678470612,-2.1638801097869873,0.043039239770698616,0.543374418759895,-123.98119766309959,0.009266166016459465,0.04398210346698761,-0.022883031517267227
1836,3376407,0.0011944544967263937,0.01124980766326189,-2.164947986602783,0.06843720148284517,0.6445664994388371,-124.04238249768457,0.009636519476771355,0.04620150849223137,-0.024424884468317032
1840,3376427,0.0014703873312100768,0.012010450474917889,-2.1655454635620117,0.08424698832784211,0.6881481222636903,-124.07661540580467,0.01084190234541893,0.04498869180679321,-0.025073885917663574
1853,3376467,0.0020359402988106012,0.01321348175406456,-2.166714906692505,0.11665078646245115,0.7570767371810193,-124.1436195615625,0.012872416526079178,0.03961959108710289,-0.026278754696249962
1867,3376507,0.002550327917560935,0.013689270243048668,-2.1680309772491455,0.1461230260506297,0.7843374095407153,-124.21902484999944,0.013573653995990753,0.028214041143655777,-0.028171846643090248
1881,3376527,0.00283370865508914,0.013609861955046654,-2.1687769889831543,0.1623595463063004,0.7797876497798406,-124.26176817382537,0.014258830808103085,0.019971653819084167,-0.029827099293470383
1885,3376567,0.0035024271346628666,0.012786232866346836,-2.170488119125366,0.20067429286828029,0.7325971791131349,-124.35980870917174,0.01538226380944252,0.0008530858904123306,-0.034669455140829086
1898,3376587,0.0038237101398408413,0.012030099518597126,-2.1715307235717773,0.21908245309425803,0.6892739295379787,-124.41954554365267,0.016222234815359116,-0.010077186860144138,-0.03815250098705292
1903,3376627,0.004491670988500118,0.00983869656920433,-2.1739284992218018,0.2573537906024113,0.5637157893252508,-124.55692796861831,0.017398692667484283,-0.03331742808222771,-0.0473996102809906
1917,3376667,0.005052376538515091,0.006692073307931423,-2.1769280433654785,0.28947985216783073,0.38342755673662227,-124.72878918851417,0.016704000532627106,-0.05735022574663162,-0.059626609086990356
1930,3376687,0.005133782979100943,0.0047881812788546085,-2.1786439418792725,0.2941440976385825,0.2743425788219222,-124.82710293142733,0.015220316126942635,-0.06919476389884949,-0.06651955842971802
1935,3376727,0.0049226293340325356,0.0004051124560646713,-2.1825127601623535,0.28204588494735944,0.023211233960684655,-125.04876989075093,0.007148761302232742,-0.09146055579185486,-0.08074108511209488
1948,3376767,0.004176120739430189,-0.004409183282405138,-2.186673164367676,0.23927409310640244,-0.2526275931814534,-125.28714349278437,-0.005187876522541046,-0.10945568978786469,-0.09326045215129852
1961,3376787,0.0035476419143378735,-0.00686463201418519,-2.188821792602539,0.20326490891527207,-0.39331444232320084,-125.41025082238468,-0.012298226356506348,-0.11591679602861404,-0.0981825739145279
1966,3376827,0.0018598277820274234,-0.011681811884045601,-2.193117141723633,0.10656028253134818,-0.6693185180215816,-125.65635619855858,-0.02767402119934559,-0.12285549938678741,-0.10461816191673279
1980,3376867,-0.00043192945304326713,-0.015920395031571388,-2.197317123413086,-0.02474773470677328,-0.9121714434900855,-125.89699742339647,-0.043735675513744354,-0.11912762373685837,-0.10623393952846527
1993,3376887,-0.0018031756626442075,-0.017728956416249275,-2.199373960494995,-0.10331435519021863,-1.0157943778224645,-126.01484550733588,-0.05170260742306709,-0.11339593678712845,-0.10573771595954895
1998,3376927,-0.005022101104259491,-0.020446332171559334,-2.2033262252807617,-0.2877451975620591,-1.1714885399529054,-126.24129359907847,-0.06793146580457687,-0.09442062675952911,-0.1027715876698494
2011,3376967,-0.008742330595850945,-0.021795956417918205,-2.2070720195770264,-0.5008986462503493,-1.2488163131977932,-126.45591180317861,-0.08341220766305923,-0.065658338367939,-0.09795732796192169
2024,3376987,-0.01070326752960682,-0.021871432662010193,-2.2088606357574463,-0.6132520564458857,-1.2531407834377633,-126.55839196148548,-0.089537613093853,-0.048897214233875275,-0.0954107940196991
2029,3377027,-0.014784839004278183,-0.020812878385186195,-2.212423801422119,-0.8471088757255424,-1.1924900909902252,-126.76254631577717,-0.09826292097568512,-0.009951849468052387,-0.09002647548913956
2042,3377067,-0.018810013309121132,-0.01824032887816429,-2.2157533168792725,-1.0777343751975483,-1.0450938616494094,-126.95331349929562,-0.10249851644039154,0.029928136616945267,-0.08520667254924774
2055,3377087,-0.02076045423746109,-0.016401270404458046,-2.2173798084259033,-1.1894864085810062,-0.9397235728282707,-127.04650460033128,-0.10292598605155945,0.04952671006321907,-0.08297142386436462
2069,3377127,-0.024461187422275543,-0.011965112760663033,-2.2205376625061035,-1.4015228011748821,-0.6855504625841169,-127.22743631144492,-0.10014232993125916,0.08556344360113144,-0.07886364310979843
2073,3377167,-0.02788461185991764,-0.006502471398562193,-2.22354793548584,-1.5976705729337215,-0.37256416754214344,-127.39991224836608,-0.09425174444913864,0.11652212589979172,-0.0747869610786438
2087,3377187,-0.029420115053653717,-0.0034673591144382954,-2.225003242492676,-1.6856484253636574,-0.19866504331353294,-127.48329519775359,-0.09006533771753311,0.12953978776931763,-0.07276508212089539
2092,3377227,-0.03213731199502945,0.0029613350052386522,-2.2278318405151367,-1.8413323422103431,0.1696719975245263,-127.64536192637965,-0.07974694669246674,0.1507612019777298,-0.0685715526342392
2104,3377247,-0.033273059874773026,0.006281342823058367,-2.229194164276123,-1.9064059023105817,0.3598944334360343,-127.72341732821457,-0.07356216013431549,0.15846745669841766,-0.06655135005712509
2118,3377287,-0.035237301141023636,0.013093685731291771,-2.2318902015686035,-2.0189486368121745,0.7502129306736853,-127.87788888648357,-0.059981562197208405,0.1678537279367447,-0.06259314715862274
2123,3377327,-0.03663661703467369,0.019530734047293663,-2.23439621925354,-2.0991235317238996,1.1190286317023876,-128.02147312321557,-0.0462721511721611,0.16922211647033691,-0.05923205986618996
2135,3377347,-0.037188995629549026,0.022534897550940514,-2.2356133460998535,-2.130772493903623,1.2911545214285864,-128.09120935464142,-0.03977794200181961,0.16692708432674408,-0.057779423892498016
2151,3377387,-0.03810838982462883,0.02811303921043873,-2.2380497455596924,-2.1834499009905235,1.6107584960439354,-128.23080476089814,-0.028670193627476692,0.15685205161571503,-0.05588144063949585
2156,3377427,-0.03873747959733009,0.0328049473464489,-2.2404589653015137,-2.21949408990115,1.8795850301004111,-128.36884288402408,-0.020136302337050438,0.14032015204429626,-0.0554339662194252
2168,3377447,-0.03897114470601082,0.034797996282577515,-2.2416508197784424,-2.2328821144480213,1.9937783225036196,-128.43713111534586,-0.01671457290649414,0.13015170395374298,-0.05544494464993477
2182,3377487,-0.03924545645713806,0.03813144564628601,-2.2440736293792725,-2.2485990200584554,2.184770902264686,-128.5759478800372,-0.010001111775636673,0.1078295111656189,-0.056113697588443756
2197,3377527,-0.03936896473169327,0.040376968681812286,-2.246490716934204,-2.2556755229254115,2.313429894999747,-128.7144367956484,-0.004328809678554535,0.08315057307481766,-0.05752389878034592
2200,3377547,-0.039389755576848984,0.04118068143725395,-2.247704267501831,-2.256866750605344,2.3594792438273844,-128.7839681213991,-0.0022667404264211655,0.07050000131130219,-0.05822598934173584
2214,3377587,-0.0394122451543808,0.04204254597425461,-2.2501416206359863,-2.2581553084809496,2.4088604443095187,-128.9236181691692,0.0008345954120159149,0.045152075588703156,-0.059295184910297394
2228,3377627,-0.039334800094366074,0.04208749532699585,-2.252445936203003,-2.2537180333979685,2.4114358525134367,-129.05564572582554,0.0029068924486637115,0.02210230752825737,-0.059288643300533295
2242,3377647,-0.03930489718914032,0.04183990880846977,-2.253570079803467,-2.252004723133353,2.397250189937555,-129.12005440969878,0.0034020300954580307,0.011497355997562408,-0.059065401554107666
2257,3377687,-0.03921198099851608,0.04095130041241646,-2.2556777000427246,-2.246681017562151,2.3463366792038105,-129.24081215422459,0.004204070195555687,-0.00715947151184082,-0.05761224031448364
2260,3377727,-0.03903920575976372,0.0398019403219223,-2.257500648498535,-2.2367817255772753,2.280483196877721,-129.34525940701243,0.004956493154168129,-0.0201873816549778,-0.05377320200204849
2274,3377747,-0.03899809718132019,0.03918611630797386,-2.2582874298095703,-2.2344263775306787,2.24519907995567,-129.39033865553452,0.005200555548071861,-0.02468648925423622,-0.050913430750370026
2277,3377787,-0.038996875286102295,0.038220833986997604,-2.2596001625061035,-2.234356368091686,2.189892476925138,-129.46555269867468,0.003977198153734207,-0.027724651619791985,-0.04338856786489487
2282,3377827,-0.03910820558667183,0.037643082439899445,-2.2605648040771484,-2.2407351244462435,2.1567897516692596,-129.52082258943844,0.001056702807545662,-0.02338084764778614,-0.03448367863893509
2296,3377847,-0.03921298682689667,0.03766554594039917,-2.260896682739258,-2.246738647283273,2.158076815440984,-129.53983783608774,-0.00042706727981567383,-0.01843860372900963,-0.02983231656253338
2307,3377887,-0.03942854329943657,0.03830766677856445,-2.261435031890869,-2.259089123406537,2.1948676294052576,-129.57068297037952,-0.003625694662332535,-0.0025531165301799774,-0.020335176959633827
2313,3377907,-0.039596568793058395,0.03904770314693451,-2.261575222015381,-2.26871627504167,2.2372685899990503,-129.57871527284345,-0.00492442212998867,0.0072237104177474976,-0.01622270606458187
2326,3377947,-0.03991681709885597,0.041203342378139496,-2.2617926597595215,-2.2870651513600864,2.3607776200999218,-129.59117353788957,-0.006812563166022301,0.030438989400863647,-0.00892825610935688
2340,3377987,-0.04042110964655876,0.044158659875392914,-2.2618799209594727,-2.3159589859833556,2.5301048398137076,-129.596173236362,-0.009679960086941719,0.05403190106153488,-0.0033694710582494736
2344,3378007,-0.040886156260967255,0.04590664058923721,-2.2618532180786133,-2.3426041942658102,2.630256757387251,-129.59464327398794,-0.0120339784771204,0.06495285779237747,-0.0010366197675466537
2357,3378047,-0.04191238433122635,0.04945778474211693,-2.261725902557373,-2.4014027315095112,2.8337223297898184,-129.58734863195437,-0.01863214187324047,0.08192741870880127,0.003196241334080696
2371,3378087,-0.04331381991505623,0.05292198434472084,-2.2614712715148926,-2.4816990757224158,3.03220634640992,-129.5727593478872,-0.02733318693935871,0.0891367644071579,0.006734911352396011
2375,3378107,-0.04416513442993164,0.05441364273428917,-2.261301279067993,-2.5304758044630042,3.1176720766074664,-129.56301949813079,-0.03170439600944519,0.0885804072022438,0.008449161425232887
2388,3378147,-0.04591292142868042,0.05681201070547104,-2.2608466148376465,-2.630616622979146,3.255088439075541,-129.53696915663636,-0.03925396874547005,0.0776161253452301,0.011232031509280205
2402,3378187,-0.04777848348021507,0.05809938162565231,-2.2601826190948486,-2.737505454951849,3.3288493594698014,-129.49892500295937,-0.04466955363750458,0.057121969759464264,0.014251470565795898
2407,3378207,-0.04877837002277374,0.05837018042802811,-2.259725332260132,-2.7947947338323886,3.3443649879431314,-129.4727243973032,-0.04707103222608566,0.044664423912763596,0.016333894804120064
2420,3378247,-0.050980135798454285,0.05828435719013214,-2.2585909366607666,-2.920946620255232,3.3394476786275455,-129.40772831716137,-0.05237556993961334,0.01939433068037033,0.021842770278453827
2434,3378287,-0.053138263523578644,0.05714002251625061,-2.2571001052856445,-3.0445982305550268,3.273882131463654,-129.32230997140118,-0.05579296499490738,-0.006399156525731087,0.028498565778136253
2438,3378307,-0.05406130477786064,0.05632438510656357,-2.2562415599823,-3.0974845987418473,3.227149550275604,-129.27311894899876,-0.055742811411619186,-0.018913188949227333,0.03213175758719444
2451,3378347,-0.055750202387571335,0.0544256716966629,-2.2542402744293213,-3.1942513038080027,3.118361285383403,-129.15845373321258,-0.05268719792366028,-0.03868446499109268,0.03980167582631111
2465,3378387,-0.0568200945854187,0.052258189767599106,-2.251868963241577,-3.2555516112786327,2.9941737186771733,-129.02258761024268,-0.04376586526632309,-0.05156904458999634,0.0481383241713047
2471,3378407,-0.05707138404250145,0.051229607313871384,-2.250561475753784,-3.269949436605608,2.9352402851973642,-128.94767409542598,-0.036964841187000275,-0.055215299129486084,0.05225507169961929
2484,3378447,-0.05685801059007645,0.04904762655496597,-2.247767210006714,-3.25772403832152,2.8102219967333317,-128.78757446128088,-0.019005965441465378,-0.05847834423184395,0.059861499816179276
2498,3378487,-0.05557563155889511,0.04690895974636078,-2.244962215423584,-3.184249132098754,2.687685414815541,-128.6268601101105,0.0034422557801008224,-0.05844259262084961,0.06514331698417664
2503,3378507,-0.05447150766849518,0.045755498111248016,-2.2436037063598633,-3.1209874931192725,2.621596931293321,-128.54902327432902,0.016325797885656357,-0.05876718834042549,0.0663217157125473
2518,3378547,-0.051467835903167725,0.04328618943691254,-2.2409472465515137,-2.9488897779234002,2.480115965938854,-128.39681933886445,0.044709011912345886,-0.06092018261551857,0.06634096801280975
2521,3378567,-0.04949279874563217,0.04198675602674484,-2.239684820175171,-2.8357284844150983,2.4056639157779527,-128.32448763555402,0.05950210988521576,-0.06286804378032684,0.06524312496185303
2535,3378607,-0.04494602233171463,0.038967061787843704,-2.2373809814453125,-2.5752173855079956,2.2326481804689484,-128.19248739965437,0.088089719414711,-0.06978266686201096,0.060775287449359894
2547,3378647,-0.039929572492837906,0.03568454086780548,-2.235297203063965,-2.2877959816012776,2.0445735855873584,-128.07309569296254,0.11093072593212128,-0.0774267315864563,0.05506410822272301
2552,3378667,-0.037332162261009216,0.03398449346423149,-2.2342772483825684,-2.138975337653397,1.9471680443903947,-128.0146565944239,0.11871198564767838,-0.08087895810604095,0.05231504142284393
2566,3378707,-0.03227364644408226,0.030418286100029945,-2.2323954105377197,-1.8491437307433105,1.7428394135531726,-127.90683522818608,0.12687882781028748,-0.08674547076225281,0.047786831855773926
2579,3378747,-0.02743278443813324,0.02668757177889347,-2.2304584980010986,-1.5717827685971981,1.5290852283830385,-127.79585831455172,0.1258023977279663,-0.0912313461303711,0.04544587433338165
2583,3378767,-0.025383492931723595,0.0247998908162117,-2.229489803314209,-1.4543670142879186,1.4209290761541808,-127.74035619735619,0.12139758467674255,-0.09263642132282257,0.04516444355249405
2597,3378807,-0.02196843922138214,0.021179715171456337,-2.2274179458618164,-1.258698849874861,1.213508290613647,-127.62164750958136,0.10597773641347885,-0.0939343273639679,0.04687466472387314
2610,3378847,-0.019745711237192154,0.017874429002404213,-2.225092649459839,-1.1313459173751537,1.0241293430439957,-127.4884178396311,0.08243279159069061,-0.09084084630012512,0.051341213285923004
2615,3378867,-0.01902238465845585,0.01637684367597103,-2.223857879638672,-1.0899023572039261,0.9383240243786528,-127.41767074020811,0.06881076842546463,-0.08778323978185654,0.05422462522983551
2629,3378907,-0.01819288544356823,0.01395696122199297,-2.221296787261963,-1.0423755530814502,0.7996749728479492,-127.27093095607955,0.042008016258478165,-0.07709526270627975,0.06003130227327347
2642,3378947,-0.017740292474627495,0.012130710296332836,-2.2185707092285156,-1.0164438861238505,0.6950385024757637,-127.1147381901397,0.021226247772574425,-0.06285444647073746,0.06506437063217163
2646,3378967,-0.01768944226205349,0.011599501594901085,-2.2171645164489746,-1.013530383556017,0.6646024858430993,-127.03416927869023,0.013920783996582031,-0.05407930165529251,0.06723500788211823
2660,3379007,-0.017658524215221405,0.0110603217035532,-2.214423894882202,-1.0117589099617508,0.6337097536705432,-126.87714322967165,0.0036313198506832123,-0.033978164196014404,0.07008794695138931
2673,3379047,-0.017510129138827324,0.01145182829350233,-2.21173357963562,-1.0032564983838483,0.6561414289261873,-126.72299952048279,-0.00028822384774684906,-0.011872012168169022,0.07026298344135284
2677,3379067,-0.017238445580005646,0.011800946667790413,-2.2105438709259033,-0.987690177100272,0.676144438323363,-126.65483423256606,0.0008556339889764786,-0.0017662271857261658,0.06912164390087128
2691,3379107,-0.016589075326919556,0.013014500960707664,-2.2083446979522705,-0.950484002257097,0.7456759775175044,-126.52883090275768,0.0072650182992219925,0.015740809962153435,0.06444929540157318
2704,3379147,-0.015508590266108513,0.014301031827926636,-2.2064616680145264,-0.8885767684456881,0.8193887664224572,-126.42094123462815,0.016101736575365067,0.028047636151313782,0.057617202401161194
2708,3379167,-0.014770210720598698,0.014903945848345757,-2.2056097984313965,-0.8462707368091877,0.8539331952017372,-126.37213270281924,0.02134973183274269,0.030710887163877487,0.0537569597363472
2723,3379207,-0.013115362264215946,0.015810005366802216,-2.204185724258423,-0.751454904524717,0.905846581596948,-126.29053926299427,0.0324055440723896,0.030330443754792213,0.04581000283360481
2727,3379227,-0.012142128311097622,0.016016855835914612,-2.2035536766052246,-0.6956927065322039,0.9176982404673895,-126.25432560001485,0.03757861256599426,0.026828506961464882,0.042010802775621414
2740,3379267,-0.010284059680998325,0.015801670029759407,-2.2024619579315186,-0.5892332159818597,0.905369001963576,-126.19177472759588,0.044600240886211395,0.013519372791051865,0.03481390327215195
2754,3379307,-0.008527560159564018,0.014680882915854454,-2.201549768447876,-0.4885932066869251,0.8411526306041739,-126.13951012006694,0.04692213609814644,-0.0065781306475400925,0.028891166672110558
2758,3379327,-0.007806403562426567,0.013784278184175491,-2.2010626792907715,-0.44727397730293295,0.7897809635875097,-126.11160196711828,0.04526553303003311,-0.01764792576432228,0.026729289442300797
2771,3379367,-0.0069194757379591465,0.011566302739083767,-2.2000832557678223,-0.39645675622822985,0.6627003315201037,-126.05548513289745,0.03657398372888565,-0.03840457648038864,0.024772126227617264
2787,3379407,-0.006673116236925125,0.00880653690546751,-2.1990413665771484,-0.3823413965760316,0.5045773968094888,-125.99578927955153,0.02239209972321987,-0.0565648153424263,0.025457898154854774
2791,3379427,-0.006799965165555477,0.007311520632356405,-2.198493480682373,-0.38960930482230693,0.4189192740568448,-125.96439773012615,0.014165915548801422,-0.06371951103210449,0.02619803324341774
2804,3379467,-0.007870454341173172,0.004439117852598429,-2.1973278522491455,-0.45094381659963967,0.25434271771506706,-125.89761214042177,-0.0053493790328502655,-0.07195242494344711,0.028253357857465744
2818,3379507,-0.00966296624392271,0.0016815295675769448,-2.1961781978607178,-0.5536471833541529,0.09634454734861729,-125.83174179606617,-0.026483863592147827,-0.07319101691246033,0.029804445803165436
2823,3379527,-0.010823847725987434,0.00040158111369237304,-2.1956193447113037,-0.6201607927913535,0.02300890294673625,-125.79972186923715,-0.03627931326627731,-0.07213936746120453,0.029935916885733604
2836,3379567,-0.013617130927741528,-0.0014537571696564555,-2.194615125656128,-0.7802041312366527,-0.08329415025819889,-125.74218435566897,-0.054596446454524994,-0.06304259598255157,0.028934624046087265
2850,3379607,-0.016873732209205627,-0.0025140908546745777,-2.1937966346740723,-0.9667936402214411,-0.1440467952852913,-125.69528827682765,-0.07042793184518814,-0.04644608497619629,0.025726018473505974
2854,3379627,-0.018601996824145317,-0.0025627375580370426,-2.193448543548584,-1.0658159085392878,-0.1468340460751854,-125.67534412445121,-0.07627678662538528,-0.035405226051807404,0.02372414618730545
2868,3379667,-0.021813485771417618,-0.001999101834371686,-2.1928818225860596,-1.2498206711709023,-0.11454009792635854,-125.64287340513698,-0.08224056661128998,-0.010393125005066395,0.019642705097794533
2882,3379707,-0.024781644344329834,-0.0004738624847959727,-2.1924989223480225,-1.4198836303243456,-0.027150320448391378,-125.6209348375229,-0.08120667189359665,0.01532403752207756,0.015624171122908592
2886,3379727,-0.026002731174230576,0.0005722083151340485,-2.1923680305480957,-1.4898467520966672,0.032785121459472766,-125.61343528981422,-0.07791753113269806,0.027682598680257797,0.013722896575927734
2899,3379767,-0.027672454714775085,0.0030601173639297485,-2.1922130584716797,-1.5855148639235086,0.17533180976787358,-125.60455604389321,-0.06371471285820007,0.04817427694797516,0.00995488092303276
2913,3379807,-0.02814594842493534,0.005758809391409159,-2.192211151123047,-1.612644055141682,0.32995547314804696,-125.60444676086648,-0.04038716107606888,0.06286239624023438,0.006445948034524918
2917,3379827,-0.027931341901421547,0.007157927379012108,-2.192233085632324,-1.6003480070883664,0.41011902887853297,-125.60570351567377,-0.026103800162672997,0.06688708066940308,0.004930857568979263
2931,3379867,-0.026419220492243767,0.009613526985049248,-2.1923327445983887,-1.5137098322311051,0.5508145224784488,-125.6114135538199,0.005914701148867607,0.06895709037780762,0.0023949630558490753
2944,3379887,-0.02511887066066265,0.01064295880496502,-2.1924362182617188,-1.4392052749909598,0.6097966210560939,-125.61734215801947,0.0232540313154459,0.0659872442483902,0.001097898930311203
2949,3379927,-0.02188163809478283,0.01204653549939394,-2.192711353302002,-1.2537255116637398,0.6902156418697942,-125.63310623462385,0.05555810034275055,0.05368421971797943,-0.0019523724913597107
2962,3379967,-0.017706414684653282,0.012454892508685589,-2.1932270526885986,-1.0145028317390976,0.7136127750367902,-125.66265363297333,0.08376306295394897,0.034468553960323334,-0.006063492968678474
2975,3379987,-0.015389296226203442,0.012333082035183907,-2.1936004161834717,-0.8817417234380622,0.7066335490046537,-125.68404578545382,0.09539994597434998,0.02316812425851822,-0.008901662193238735
2980,3380027,-0.01052435114979744,0.011344045400619507,-2.194629669189453,-0.6030009029970486,0.6499659240602909,-125.7430176387477,0.11356516927480698,-0.0011693891137838364,-0.01642855443060398
2993,3380067,-0.005657372530549765,0.009513418190181255,-2.196059465408325,-0.3241435691337479,0.5450787110403719,-125.82493892765284,0.12250884622335434,-0.024978578090667725,-0.025527972728013992
3006,3380087,-0.0034009513910859823,0.008286925032734871,-2.1969351768493652,-0.19486016103837306,0.47480582951701966,-125.87511349729576,0.12337668240070343,-0.03625502064824104,-0.030645612627267838
3011,3380127,0.0007238643011078238,0.005421575158834457,-2.19903302192688,0.041474369393665306,0.31063337491418336,-125.99531116630963,0.11772190779447556,-0.056694407016038895,-0.04154022037982941
3024,3380167,0.003936853725463152,0.0022277808748185635,-2.201531410217285,0.22556510302939348,0.12764244180706608,-126.13845827093476,0.10227297246456146,-0.0719502717256546,-0.052252307534217834
3038,3380187,0.005162655375897884,0.0005368770216591656,-2.2029805183410645,0.2957983641194743,0.030760787458623876,-126.22148605048544,0.09114731103181839,-0.07724981755018234,-0.05766516923904419
3043,3380227,0.006790106650441885,-0.0023484346456825733,-2.205918073654175,0.38904445351403216,-0.13455539365991231,-126.38979557201289,0.06625553965568542,-0.07963501662015915,-0.06652963161468506
3056,3380267,0.00718404958024621,-0.004443009849637747,-2.2089247703552246,0.41161572076083847,-0.2545657127192974,-126.56206660325896,0.037963371723890305,-0.07167991995811462,-0.07231339812278748
3067,3380287,0.006926635280251503,-0.0050904471427202225,-2.210435152053833,0.3968669677848273,-0.2916611371122978,-126.64860510004301,0.023138253018260002,-0.06303595751523972,-0.07398019731044769
3074,3380327,0.005590230226516724,-0.005327416118234396,-2.213334083557129,0.32029659848587044,-0.30523845928479887,-126.81470164027938,-0.007079346105456352,-0.03793063014745712,-0.07467992603778839
3087,3380367,0.003327070502564311,-0.004137925338000059,-2.216010808944702,0.19062709793940477,-0.23708565780764804,-126.96806670790285,-0.03484981507062912,-0.005425279960036278,-0.07194583117961884
3102,3380387,0.0019027849193662405,-0.0030860386323183775,-2.217294454574585,0.10902154520082624,-0.17681698904616788,-127.04161418488555,-0.04736437648534775,0.012107424437999725,-0.06972156465053558
3107,3380427,-0.0013342687161639333,-0.00020890793530270457,-2.2196996212005615,-0.07644796617253215,-0.011969542999637027,-127.17942008157972,-0.06815943866968155,0.045295462012290955,-0.06468880921602249
3120,3380467,-0.004900604486465454,0.0034983819350600243,-2.2220749855041504,-0.2807839541373467,0.20044252000374943,-127.3155184309814,-0.08203954249620438,0.07356832176446915,-0.05971892923116684
3131,3380487,-0.006634179037064314,0.005406460724771023,-2.2232871055603027,-0.38011045935794974,0.3097673816326198,-127.38496779446209,-0.08590815216302872,0.08370079100131989,-0.05837664380669594
3139,3380527,-0.009972021915018559,0.009201530367136002,-2.225830316543579,-0.5713547689425282,0.5272088550983558,-127.53068305021515,-0.0878617912530899,0.09557274729013443,-0.058570049703121185
3152,3380547,-0.011472972109913826,0.01087123341858387,-2.227219820022583,-0.6573528803693655,0.6228757929864336,-127.61029573518081,-0.08606602251529694,0.09672342985868454,-0.060062143951654434
3165,3380587,-0.014223507605493069,0.013291136361658573,-2.2302188873291016,-0.8149469556669804,0.7615260184559008,-127.78212963431999,-0.07855497300624847,0.08655661344528198,-0.06579446792602539
3170,3380627,-0.016574354842305183,0.014250232838094234,-2.233541965484619,-0.9496405806163061,0.8164781987015326,-127.97252798762327,-0.06823699176311493,0.06111796945333481,-0.07365105301141739
3182,3380647,-0.01755356788635254,0.014060980640351772,-2.2353200912475586,-1.0057453552843776,0.8056348465073142,-128.07440708928317,-0.06268110871315002,0.043736137449741364,-0.07793109118938446
