packet_index,time_boot_ms,lat_deg,lon_deg,alt_m,relative_alt_m,heading_deg,vx_mps,vy_mps,vz_mps
12,3370647,63.441006,10.3489503,19.64,12.782,230.71,-0.5,-0.57,-0.01
27,3370687,63.4410059,10.3489498,19.64,12.782,230.62,-0.5,-0.58,0.0
32,3370727,63.4410057,10.3489493,19.64,12.781,230.53,-0.5,-0.58,0.01
44,3370747,63.4410056,10.3489491,19.63,12.779,230.47,-0.5,-0.58,0.01
56,3370787,63.4410054,10.3489486,19.63,12.776,230.35,-0.5,-0.58,0.02
63,3370827,63.4410052,10.3489481,19.63,12.773,230.22,-0.51,-0.58,0.02
75,3370847,63.4410051,10.3489479,19.63,12.772,230.15,-0.51,-0.57,0.02
90,3370887,63.4410049,10.3489474,19.63,12.77,230.01,-0.51,-0.57,0.01
95,3370927,63.4410048,10.348947,19.62,12.769,229.88,-0.51,-0.56,0.0
107,3370947,63.4410047,10.3489467,19.63,12.77,229.82,-0.51,-0.55,0.0
121,3370987,63.4410045,10.3489463,19.63,12.772,229.73,-0.51,-0.54,0.0
126,3371027,63.4410043,10.3489458,19.63,12.775,229.67,-0.51,-0.53,-0.02
138,3371047,63.4410042,10.3489456,19.63,12.778,229.65,-0.52,-0.53,-0.02
152,3371087,63.441004,10.3489451,19.64,12.784,229.63,-0.52,-0.52,-0.03
157,3371127,63.4410038,10.3489447,19.64,12.789,229.65,-0.52,-0.51,-0.03
169,3371147,63.4410037,10.3489445,19.65,12.792,229.66,-0.52,-0.51,-0.03
183,3371187,63.4410035,10.3489441,19.65,12.798,229.7,-0.52,-0.5,-0.02
189,3371227,63.4410034,10.3489437,19.66,12.802,229.75,-0.53,-0.49,-0.01
202,3371248,63.4410033,10.3489435,19.66,12.803,229.78,-0.53,-0.49,-0.01
215,3371287,63.4410031,10.348943,19.66,12.805,229.85,-0.53,-0.48,0.0
219,3371307,63.441003,10.3489429,19.66,12.805,229.88,-0.53,-0.48,0.01
232,3371347,63.4410028,10.3489425,19.66,12.805,229.96,-0.54,-0.47,0.03
248,3371387,63.4410026,10.3489421,19.66,12.802,230.05,-0.54,-0.47,0.06
252,3371407,63.4410025,10.3489419,19.66,12.801,230.1,-0.54,-0.47,0.07
266,3371447,63.4410023,10.3489415,19.65,12.797,230.21,-0.54,-0.46,0.09
279,3371487,63.4410021,10.3489411,19.65,12.793,230.33,-0.55,-0.46,0.11
283,3371507,63.441002,10.3489409,19.65,12.79,230.4,-0.55,-0.45,0.12
297,3371547,63.4410018,10.3489405,19.64,12.786,230.54,-0.55,-0.45,0.14
311,3371587,63.4410016,10.3489401,19.64,12.783,230.68,-0.55,-0.45,0.15
315,3371607,63.4410015,10.3489399,19.64,12.781,230.76,-0.56,-0.45,0.15
329,3371647,63.4410013,10.3489395,19.63,12.778,230.92,-0.56,-0.45,0.15
342,3371687,63.4410011,10.3489392,19.63,12.777,231.09,-0.56,-0.45,0.15
356,3371707,63.441001,10.348939,19.63,12.776,231.18,-0.56,-0.45,0.15
371,3371747,63.4410008,10.3489386,19.63,12.774,231.36,-0.56,-0.45,0.15
374,3371787,63.4410006,10.3489382,19.63,12.775,231.55,-0.56,-0.45,0.14
388,3371807,63.4410005,10.348938,19.63,12.775,231.65,-0.56,-0.44,0.13
391,3371847,63.4410003,10.3489377,19.63,12.775,231.83,-0.56,-0.44,0.12
408,3371887,63.4410001,10.3489373,19.63,12.775,232.02,-0.57,-0.44,0.1
412,3371907,63.441,10.3489371,19.63,12.775,232.11,-0.57,-0.44,0.09
426,3371947,63.4409998,10.3489367,19.63,12.774,232.29,-0.57,-0.44,0.08
429,3371967,63.4409997,10.3489366,19.63,12.774,232.38,-0.57,-0.44,0.07
443,3372007,63.4409995,10.3489362,19.63,12.773,232.55,-0.57,-0.44,0.05
456,3372047,63.4409993,10.3489358,19.63,12.771,232.73,-0.57,-0.44,0.04
460,3372067,63.4409992,10.3489356,19.63,12.77,232.82,-0.57,-0.44,0.03
474,3372107,63.440999,10.3489353,19.62,12.768,233.0,-0.56,-0.44,0.02
487,3372147,63.4409988,10.3489349,19.62,12.765,233.19,-0.55,-0.45,0.0
491,3372167,63.4409987,10.3489347,19.62,12.763,233.28,-0.55,-0.45,0.0
506,3372207,63.4409985,10.3489344,19.62,12.76,233.47,-0.55,-0.46,-0.01
519,3372247,63.4409984,10.348934,19.61,12.757,233.65,-0.54,-0.47,-0.02
523,3372267,63.4409983,10.3489338,19.61,12.755,233.73,-0.53,-0.48,-0.02
537,3372307,63.4409981,10.3489334,19.61,12.752,233.89,-0.53,-0.49,-0.04
550,3372347,63.4409979,10.348933,19.61,12.75,234.02,-0.52,-0.51,-0.05
554,3372367,63.4409978,10.3489328,19.6,12.749,234.09,-0.52,-0.52,-0.05
570,3372407,63.4409976,10.3489324,19.6,12.747,234.18,-0.51,-0.53,-0.06
583,3372447,63.4409974,10.3489319,19.6,12.744,234.24,-0.5,-0.54,-0.07
587,3372467,63.4409973,10.3489317,19.6,12.743,234.27,-0.5,-0.55,-0.08
601,3372507,63.4409972,10.3489313,19.6,12.742,234.3,-0.5,-0.56,-0.09
615,3372547,63.440997,10.3489309,19.6,12.74,234.31,-0.49,-0.57,-0.09
619,3372567,63.4409969,10.3489306,19.59,12.739,234.31,-0.49,-0.57,-0.1
633,3372607,63.4409967,10.3489302,19.59,12.738,234.29,-0.49,-0.58,-0.1
637,3372627,63.4409966,10.3489299,19.59,12.738,234.27,-0.49,-0.58,-0.1
651,3372667,63.4409964,10.3489295,19.59,12.738,234.21,-0.49,-0.59,-0.11
665,3372707,63.4409963,10.348929,19.6,12.74,234.13,-0.5,-0.6,-0.11
669,3372727,63.4409962,10.3489287,19.6,12.74,234.08,-0.5,-0.6,-0.12
682,3372767,63.440996,10.3489283,19.6,12.744,233.96,-0.5,-0.6,-0.12
696,3372807,63.4409958,10.3489278,19.6,12.747,233.83,-0.51,-0.6,-0.12
700,3372827,63.4409957,10.3489276,19.6,12.748,233.75,-0.51,-0.6,-0.13
714,3372867,63.4409955,10.3489271,19.61,12.755,233.6,-0.51,-0.6,-0.13
728,3372907,63.4409953,10.3489266,19.62,12.761,233.46,-0.51,-0.6,-0.13
732,3372927,63.4409952,10.3489264,19.62,12.764,233.39,-0.51,-0.6,-0.13
745,3372967,63.440995,10.3489259,19.63,12.775,233.24,-0.51,-0.6,-0.13
759,3373007,63.4409948,10.3489254,19.64,12.784,233.11,-0.51,-0.6,-0.13
763,3373027,63.4409947,10.3489251,19.64,12.788,233.04,-0.51,-0.61,-0.13
776,3373067,63.4409945,10.3489246,19.65,12.799,232.9,-0.51,-0.61,-0.13
790,3373107,63.4409944,10.3489241,19.67,12.81,232.75,-0.51,-0.62,-0.12
794,3373127,63.4409943,10.3489239,19.67,12.815,232.68,-0.51,-0.62,-0.11
807,3373167,63.4409941,10.3489234,19.68,12.824,232.51,-0.5,-0.63,-0.1
822,3373207,63.4409939,10.3489229,19.69,12.831,232.34,-0.5,-0.63,-0.09
826,3373227,63.4409938,10.3489226,19.69,12.835,232.25,-0.5,-0.63,-0.09
839,3373267,63.4409936,10.3489221,19.69,12.837,232.06,-0.5,-0.63,-0.07
852,3373287,63.4409935,10.3489218,19.69,12.838,231.97,-0.5,-0.63,-0.07
857,3373327,63.4409933,10.3489213,19.69,12.839,231.8,-0.5,-0.63,-0.06
871,3373367,63.4409931,10.3489208,19.69,12.834,231.63,-0.49,-0.63,-0.04
885,3373387,63.440993,10.3489205,19.69,12.831,231.55,-0.49,-0.63,-0.04
890,3373427,63.4409929,10.34892,19.68,12.826,231.41,-0.49,-0.62,-0.03
903,3373467,63.4409927,10.3489195,19.67,12.815,231.28,-0.5,-0.61,-0.02
916,3373487,63.4409926,10.3489192,19.67,12.81,231.22,-0.5,-0.61,-0.02
931,3373527,63.4409924,10.3489187,19.66,12.801,231.11,-0.5,-0.6,-0.01
935,3373567,63.4409922,10.3489182,19.64,12.789,230.99,-0.51,-0.59,0.0
948,3373587,63.4409921,10.348918,19.64,12.784,230.94,-0.51,-0.59,0.0
953,3373627,63.4409919,10.3489175,19.63,12.774,230.83,-0.51,-0.58,0.01
967,3373667,63.4409917,10.348917,19.62,12.764,230.73,-0.52,-0.57,0.02
980,3373687,63.4409916,10.3489168,19.61,12.759,230.69,-0.52,-0.56,0.02
985,3373727,63.4409914,10.3489163,19.6,12.749,230.6,-0.53,-0.55,0.04
998,3373767,63.4409912,10.3489159,19.6,12.742,230.53,-0.53,-0.54,0.05
1011,3373787,63.4409911,10.3489156,19.59,12.738,230.5,-0.53,-0.54,0.05
1016,3373827,63.4409909,10.3489152,19.59,12.731,230.46,-0.53,-0.53,0.06
1030,3373867,63.4409907,10.3489147,19.58,12.727,230.44,-0.54,-0.52,0.07
1043,3373887,63.4409906,10.3489145,19.58,12.725,230.45,-0.53,-0.52,0.08
1048,3373927,63.4409904,10.3489141,19.58,12.721,230.46,-0.53,-0.51,0.09
1060,3373947,63.4409903,10.3489138,19.58,12.721,230.48,-0.53,-0.51,0.09
1074,3373987,63.4409901,10.3489134,19.58,12.722,230.51,-0.53,-0.5,0.1
1079,3374027,63.4409899,10.348913,19.58,12.721,230.54,-0.53,-0.5,0.11
1091,3374047,63.4409898,10.3489127,19.58,12.723,230.55,-0.53,-0.5,0.11
1105,3374087,63.4409896,10.3489123,19.58,12.725,230.57,-0.53,-0.5,0.12
1110,3374127,63.4409894,10.3489119,19.58,12.726,230.59,-0.53,-0.5,0.12
1122,3374147,63.4409893,10.3489117,19.58,12.728,230.6,-0.53,-0.5,0.13
1138,3374187,63.4409891,10.3489112,19.59,12.731,230.61,-0.52,-0.5,0.13
1142,3374227,63.4409889,10.3489108,19.59,12.733,230.63,-0.52,-0.5,0.14
1155,3374247,63.4409889,10.3489106,19.59,12.735,230.64,-0.52,-0.49,0.14
1168,3374287,63.4409887,10.3489102,19.59,12.738,230.67,-0.52,-0.49,0.14
1173,3374327,63.4409885,10.3489098,19.59,12.739,230.71,-0.51,-0.49,0.13
1185,3374347,63.4409884,10.3489096,19.6,12.742,230.74,-0.51,-0.49,0.13
1201,3374387,63.4409882,10.3489092,19.6,12.746,230.8,-0.51,-0.48,0.12
1206,3374427,63.440988,10.3489088,19.6,12.749,230.89,-0.51,-0.48,0.11
1218,3374447,63.4409879,10.3489086,19.61,12.753,230.94,-0.51,-0.48,0.11
1232,3374487,63.4409878,10.3489082,19.61,12.759,231.04,-0.51,-0.47,0.09
1237,3374527,63.4409876,10.3489078,19.62,12.764,231.15,-0.51,-0.46,0.08
1250,3374547,63.4409875,10.3489076,19.62,12.769,231.2,-0.51,-0.46,0.07
1264,3374587,63.4409873,10.3489072,19.63,12.779,231.31,-0.51,-0.46,0.05
1268,3374607,63.4409872,10.348907,19.64,12.783,231.37,-0.51,-0.45,0.04
1281,3374647,63.440987,10.3489067,19.65,12.794,231.48,-0.52,-0.45,0.03
1296,3374687,63.4409869,10.3489063,19.66,12.807,231.6,-0.52,-0.45,0.02
1300,3374707,63.4409868,10.3489061,19.67,12.812,231.66,-0.52,-0.45,0.02
1313,3374747,63.4409866,10.3489057,19.68,12.825,231.79,-0.52,-0.45,0.01
1327,3374787,63.4409864,10.3489054,19.69,12.838,231.91,-0.52,-0.46,0.01
1331,3374807,63.4409863,10.3489052,19.7,12.844,231.97,-0.52,-0.46,0.01
1344,3374847,63.4409862,10.3489048,19.71,12.856,232.09,-0.52,-0.46,0.01
1359,3374887,63.440986,10.3489045,19.72,12.867,232.21,-0.51,-0.47,0.02
1363,3374907,63.4409859,10.3489043,19.73,12.873,232.26,-0.51,-0.47,0.02
1376,3374947,63.4409857,10.3489039,19.74,12.882,232.37,-0.51,-0.48,0.02
1390,3374987,63.4409856,10.3489035,19.75,12.891,232.47,-0.51,-0.48,0.02
1394,3375007,63.4409855,10.3489033,19.75,12.895,232.51,-0.51,-0.48,0.02
1407,3375047,63.4409853,10.3489029,19.76,12.902,232.59,-0.52,-0.48,0.02
1421,3375087,63.4409851,10.3489025,19.76,12.909,232.67,-0.52,-0.48,0.01
1425,3375107,63.440985,10.3489023,19.77,12.911,232.7,-0.52,-0.48,0.01
1438,3375147,63.4409848,10.3489019,19.77,12.916,232.77,-0.52,-0.48,0.0
1452,3375187,63.4409846,10.3489015,19.77,12.919,232.85,-0.53,-0.48,0.0
1457,3375207,63.4409845,10.3489013,19.78,12.921,232.89,-0.53,-0.47,0.0
1470,3375247,63.4409844,10.3489009,19.78,12.923,232.99,-0.53,-0.47,-0.01
1474,3375267,63.4409843,10.3489007,19.78,12.923,233.05,-0.54,-0.47,-0.01
1488,3375307,63.4409841,10.3489003,19.78,12.923,233.17,-0.54,-0.47,-0.02
1502,3375347,63.4409839,10.3489,19.78,12.921,233.32,-0.54,-0.47,-0.02
1505,3375367,63.4409838,10.3488998,19.77,12.919,233.39,-0.55,-0.47,-0.02
1521,3375407,63.4409836,10.3488994,19.77,12.915,233.56,-0.55,-0.47,-0.02
1534,3375447,63.4409834,10.348899,19.77,12.91,233.76,-0.55,-0.47,-0.02
1538,3375467,63.4409833,10.3488988,19.76,12.907,233.87,-0.55,-0.47,-0.02
1552,3375507,63.4409831,10.3488984,19.76,12.901,234.09,-0.55,-0.47,-0.02
1566,3375547,63.4409829,10.348898,19.75,12.895,234.35,-0.54,-0.47,-0.02
1571,3375567,63.4409828,10.3488978,19.75,12.891,234.47,-0.54,-0.48,-0.02
1584,3375607,63.4409826,10.3488974,19.74,12.884,234.71,-0.54,-0.48,-0.02
1597,3375647,63.4409824,10.348897,19.73,12.877,234.95,-0.54,-0.49,-0.02
1602,3375667,63.4409823,10.3488968,19.73,12.873,235.06,-0.53,-0.49,-0.02
1616,3375707,63.4409821,10.3488964,19.72,12.866,235.26,-0.53,-0.5,-0.02
1629,3375747,63.4409819,10.348896,19.71,12.858,235.43,-0.53,-0.51,-0.01
1633,3375767,63.4409819,10.3488958,19.71,12.853,235.5,-0.53,-0.51,-0.01
1647,3375807,63.4409817,10.3488954,19.7,12.846,235.63,-0.53,-0.52,-0.01
1660,3375847,63.4409815,10.348895,19.69,12.837,235.73,-0.53,-0.52,-0.01
1665,3375867,63.4409814,10.3488948,19.69,12.832,235.78,-0.53,-0.52,-0.02
1679,3375907,63.4409812,10.3488944,19.68,12.824,235.87,-0.53,-0.52,-0.02
1683,3375927,63.4409811,10.3488942,19.68,12.821,235.91,-0.53,-0.52,-0.02
1696,3375967,63.4409809,10.3488937,19.67,12.813,235.99,-0.53,-0.52,-0.03
1710,3376007,63.4409807,10.3488933,19.66,12.806,236.07,-0.53,-0.53,-0.04
1714,3376027,63.4409807,10.3488931,19.66,12.803,236.1,-0.53,-0.53,-0.05
1727,3376067,63.4409805,10.3488927,19.65,12.799,236.17,-0.53,-0.53,-0.06
1741,3376107,63.4409803,10.3488923,19.65,12.795,236.21,-0.52,-0.54,-0.07
1755,3376127,63.4409802,10.348892,19.65,12.794,236.23,-0.52,-0.54,-0.08
1769,3376167,63.44098,10.3488916,19.65,12.793,236.24,-0.52,-0.55,-0.09
1773,3376207,63.4409798,10.3488911,19.65,12.793,236.22,-0.52,-0.55,-0.1
1787,3376227,63.4409797,10.3488909,19.65,12.794,236.21,-0.51,-0.56,-0.1
1790,3376267,63.4409796,10.3488905,19.65,12.796,236.16,-0.51,-0.56,-0.11
1804,3376307,63.4409794,10.34889,19.65,12.798,236.11,-0.5,-0.57,-0.12
1808,3376327,63.4409793,10.3488898,19.66,12.8,236.08,-0.5,-0.57,-0.13
1821,3376367,63.4409791,10.3488893,19.66,12.803,236.02,-0.49,-0.57,-0.13
1837,3376407,63.4409789,10.3488888,19.66,12.806,235.96,-0.48,-0.58,-0.13
1841,3376427,63.4409788,10.3488886,19.66,12.808,235.93,-0.48,-0.58,-0.13
1854,3376467,63.4409787,10.3488881,19.67,12.81,235.86,-0.48,-0.59,-0.12
1868,3376507,63.4409785,10.3488876,19.67,12.812,235.79,-0.47,-0.59,-0.12
1883,3376527,63.4409784,10.3488874,19.67,12.813,235.74,-0.47,-0.6,-0.11
1886,3376567,63.4409782,10.3488869,19.67,12.812,235.65,-0.47,-0.6,-0.1
1899,3376587,63.4409782,10.3488867,19.67,12.812,235.59,-0.47,-0.61,-0.09
1904,3376627,63.440978,10.3488862,19.67,12.811,235.45,-0.47,-0.62,-0.07
1918,3376667,63.4409778,10.3488857,19.66,12.807,235.28,-0.47,-0.63,-0.06
1931,3376687,63.4409777,10.3488854,19.66,12.806,235.18,-0.48,-0.63,-0.05
1936,3376727,63.4409776,10.3488849,19.66,12.803,234.96,-0.48,-0.63,-0.04
1949,3376767,63.4409774,10.3488844,19.65,12.799,234.72,-0.49,-0.64,-0.03
1962,3376787,63.4409773,10.3488841,19.65,12.797,234.59,-0.49,-0.64,-0.03
1967,3376827,63.4409771,10.3488836,19.65,12.793,234.35,-0.49,-0.64,-0.03
1981,3376867,63.4409769,10.348883,19.65,12.79,234.11,-0.5,-0.64,-0.03
1994,3376887,63.4409768,10.3488828,19.64,12.789,233.99,-0.5,-0.64,-0.03
1999,3376927,63.4409766,10.3488823,19.64,12.787,233.76,-0.5,-0.64,-0.03
2012,3376967,63.4409764,10.3488817,19.64,12.787,233.55,-0.49,-0.64,-0.04
2025,3376987,63.4409763,10.3488815,19.64,12.788,233.45,-0.49,-0.64,-0.05
2030,3377027,63.4409762,10.3488809,19.64,12.789,233.24,-0.49,-0.64,-0.05
2043,3377067,63.440976,10.3488804,19.65,12.791,233.05,-0.49,-0.64,-0.06
2057,3377087,63.4409759,10.3488801,19.65,12.792,232.96,-0.49,-0.63,-0.06
2070,3377127,63.4409757,10.3488796,19.65,12.795,232.78,-0.49,-0.63,-0.06
2074,3377167,63.4409755,10.3488791,19.65,12.797,232.61,-0.49,-0.63,-0.06
2088,3377187,63.4409754,10.3488788,19.65,12.798,232.52,-0.48,-0.62,-0.06
2093,3377227,63.4409753,10.3488783,19.65,12.799,232.36,-0.48,-0.62,-0.05
2105,3377247,63.4409752,10.348878,19.65,12.799,232.28,-0.48,-0.62,-0.05
2119,3377287,63.440975,10.3488775,19.65,12.798,232.13,-0.48,-0.61,-0.03
2124,3377327,63.4409748,10.348877,19.65,12.796,231.98,-0.48,-0.61,-0.01
2136,3377347,63.4409747,10.3488768,19.65,12.795,231.91,-0.48,-0.6,0.0
2152,3377387,63.4409746,10.3488763,19.65,12.791,231.77,-0.48,-0.6,0.01
2157,3377427,63.4409744,10.3488758,19.64,12.787,231.64,-0.48,-0.59,0.02
2169,3377447,63.4409743,10.3488756,19.64,12.785,231.57,-0.48,-0.59,0.03
2183,3377487,63.4409741,10.3488751,19.64,12.782,231.43,-0.48,-0.58,0.05
2198,3377527,63.4409739,10.3488746,19.63,12.778,231.29,-0.49,-0.57,0.07
2201,3377547,63.4409739,10.3488744,19.63,12.777,231.22,-0.49,-0.57,0.08
2215,3377587,63.4409737,10.3488739,19.63,12.776,231.08,-0.49,-0.56,0.09
2229,3377627,63.4409735,10.3488734,19.63,12.774,230.95,-0.49,-0.55,0.11
2243,3377647,63.4409734,10.3488732,19.63,12.775,230.88,-0.5,-0.55,0.11
2258,3377687,63.4409732,10.3488728,19.63,12.776,230.76,-0.5,-0.54,0.12
2261,3377727,63.4409731,10.3488723,19.63,12.776,230.66,-0.5,-0.53,0.13
2275,3377747,63.440973,10.3488721,19.63,12.779,230.61,-0.5,-0.53,0.13
2278,3377787,63.4409728,10.3488717,19.64,12.783,230.54,-0.49,-0.52,0.13
2283,3377827,63.4409726,10.3488712,19.64,12.786,230.48,-0.49,-0.51,0.13
2297,3377847,63.4409725,10.348871,19.64,12.789,230.47,-0.49,-0.51,0.12
2310,3377887,63.4409724,10.3488706,19.65,12.794,230.43,-0.49,-0.5,0.12
2314,3377907,63.4409723,10.3488704,19.65,12.796,230.43,-0.49,-0.5,0.11
2327,3377947,63.4409721,10.3488699,19.66,12.8,230.41,-0.49,-0.49,0.11
2341,3377987,63.4409719,10.3488695,19.66,12.806,230.41,-0.49,-0.48,0.1
2345,3378007,63.4409719,10.3488693,19.66,12.808,230.41,-0.49,-0.48,0.1
2358,3378047,63.4409717,10.3488689,19.67,12.813,230.42,-0.49,-0.47,0.09
2372,3378087,63.4409715,10.3488685,19.67,12.816,230.43,-0.5,-0.46,0.09
2376,3378107,63.4409714,10.3488683,19.67,12.818,230.44,-0.5,-0.46,0.09
2389,3378147,63.4409713,10.348868,19.68,12.821,230.47,-0.5,-0.45,0.09
2403,3378187,63.4409711,10.3488676,19.68,12.823,230.51,-0.51,-0.44,0.1
2408,3378207,63.440971,10.3488674,19.68,12.824,230.53,-0.51,-0.44,0.1
2421,3378247,63.4409708,10.348867,19.68,12.825,230.6,-0.52,-0.44,0.1
2435,3378287,63.4409706,10.3488666,19.68,12.826,230.68,-0.52,-0.43,0.1
2439,3378307,63.4409705,10.3488665,19.68,12.826,230.73,-0.52,-0.43,0.1
2452,3378347,63.4409703,10.3488661,19.68,12.826,230.85,-0.52,-0.42,0.1
2466,3378387,63.4409702,10.3488657,19.68,12.827,230.98,-0.52,-0.43,0.09
2472,3378407,63.4409701,10.3488656,19.68,12.827,231.06,-0.52,-0.43,0.09
2485,3378447,63.4409699,10.3488652,19.68,12.828,231.22,-0.52,-0.43,0.09
2499,3378487,63.4409697,10.3488648,19.68,12.829,231.38,-0.52,-0.43,0.09
2504,3378507,63.4409696,10.3488646,19.69,12.83,231.46,-0.52,-0.43,0.08
2519,3378547,63.4409694,10.3488643,19.69,12.83,231.61,-0.53,-0.44,0.08
2522,3378567,63.4409693,10.3488641,19.69,12.831,231.68,-0.53,-0.44,0.08
2536,3378607,63.4409692,10.3488637,19.69,12.832,231.81,-0.53,-0.44,0.08
2548,3378647,63.440969,10.3488633,19.69,12.832,231.93,-0.53,-0.45,0.07
2553,3378667,63.4409689,10.3488631,19.69,12.833,231.99,-0.54,-0.45,0.07
2567,3378707,63.4409687,10.3488628,19.69,12.833,232.1,-0.54,-0.45,0.05
2580,3378747,63.4409685,10.3488624,19.69,12.834,232.21,-0.54,-0.45,0.04
2584,3378767,63.4409684,10.3488622,19.69,12.834,232.26,-0.54,-0.45,0.03
2598,3378807,63.4409682,10.3488618,19.69,12.836,232.38,-0.55,-0.45,0.01
2611,3378847,63.440968,10.3488614,19.69,12.837,232.52,-0.55,-0.46,-0.01
2616,3378867,63.4409679,10.3488612,19.69,12.837,232.59,-0.54,-0.45,-0.02
2630,3378907,63.4409677,10.3488609,19.69,12.838,232.73,-0.54,-0.46,-0.04
2643,3378947,63.4409675,10.3488605,19.69,12.839,232.89,-0.54,-0.46,-0.06
2647,3378967,63.4409674,10.3488603,19.69,12.839,232.97,-0.54,-0.47,-0.07
2661,3379007,63.4409672,10.3488599,19.7,12.84,233.13,-0.54,-0.47,-0.08
2674,3379047,63.440967,10.3488595,19.69,12.839,233.28,-0.53,-0.47,-0.09
2678,3379067,63.4409669,10.3488593,19.69,12.839,233.35,-0.53,-0.48,-0.1
2692,3379107,63.4409667,10.3488589,19.69,12.838,233.48,-0.53,-0.48,-0.1
2705,3379147,63.4409665,10.3488585,19.69,12.837,233.58,-0.53,-0.49,-0.1
2709,3379167,63.4409664,10.3488583,19.69,12.835,233.63,-0.53,-0.49,-0.1
2724,3379207,63.4409662,10.3488579,19.69,12.833,233.71,-0.53,-0.5,-0.1
2728,3379227,63.4409661,10.3488577,19.69,12.832,233.75,-0.53,-0.5,-0.09
2741,3379267,63.4409659,10.3488573,19.68,12.829,233.81,-0.53,-0.51,-0.08
2755,3379307,63.4409658,10.3488569,19.68,12.827,233.87,-0.53,-0.51,-0.08
2759,3379327,63.4409657,10.3488567,19.68,12.826,233.89,-0.53,-0.51,-0.07
2772,3379367,63.4409654,10.3488562,19.68,12.824,233.95,-0.53,-0.51,-0.07
2788,3379407,63.4409652,10.3488558,19.68,12.823,234.01,-0.53,-0.52,-0.06
2792,3379427,63.4409651,10.3488556,19.68,12.822,234.04,-0.53,-0.52,-0.06
2805,3379467,63.4409649,10.3488552,19.68,12.823,234.11,-0.53,-0.52,-0.06
2819,3379507,63.4409647,10.3488547,19.68,12.824,234.17,-0.53,-0.53,-0.07
2824,3379527,63.4409646,10.3488545,19.68,12.824,234.21,-0.53,-0.53,-0.07
2837,3379567,63.4409644,10.3488541,19.68,12.827,234.26,-0.53,-0.53,-0.08
2851,3379607,63.4409642,10.3488536,19.69,12.83,234.31,-0.52,-0.53,-0.09
2855,3379627,63.4409641,10.3488534,19.69,12.832,234.33,-0.52,-0.53,-0.09
2869,3379667,63.4409639,10.3488529,19.69,12.836,234.36,-0.52,-0.54,-0.1
2883,3379707,63.4409637,10.3488525,19.7,12.84,234.38,-0.52,-0.54,-0.11
2887,3379727,63.4409636,10.3488523,19.7,12.842,234.39,-0.52,-0.54,-0.11
2900,3379767,63.4409634,10.3488518,19.7,12.842,234.4,-0.51,-0.55,-0.1
2914,3379807,63.4409632,10.3488514,19.7,12.842,234.4,-0.51,-0.55,-0.09
2918,3379827,63.4409631,10.3488511,19.7,12.842,234.4,-0.51,-0.55,-0.09
2932,3379867,63.4409629,10.3488507,19.69,12.836,234.39,-0.5,-0.56,-0.07
2945,3379887,63.4409628,10.3488504,19.69,12.834,234.39,-0.5,-0.56,-0.06
2950,3379927,63.4409627,10.34885,19.68,12.828,234.37,-0.49,-0.57,-0.04
2963,3379967,63.4409625,10.3488495,19.67,12.816,234.34,-0.49,-0.57,-0.02
2976,3379987,63.4409624,10.3488492,19.67,12.81,234.32,-0.49,-0.58,-0.01
2981,3380027,63.4409622,10.3488488,19.65,12.799,234.26,-0.49,-0.58,0.0
2994,3380067,63.440962,10.3488483,19.64,12.784,234.18,-0.49,-0.59,0.01
3007,3380087,63.4409619,10.348848,19.63,12.777,234.13,-0.5,-0.59,0.02
3012,3380127,63.4409617,10.3488475,19.62,12.764,234.01,-0.5,-0.6,0.02
3025,3380167,63.4409615,10.348847,19.61,12.751,233.87,-0.5,-0.6,0.03
3039,3380187,63.4409614,10.3488468,19.6,12.745,233.78,-0.5,-0.6,0.02
3044,3380227,63.4409612,10.3488463,19.59,12.735,233.62,-0.5,-0.59,0.02
3057,3380267,63.4409611,10.3488458,19.58,12.727,233.44,-0.5,-0.59,0.0
3070,3380287,63.440961,10.3488456,19.58,12.724,233.36,-0.5,-0.59,0.0
3075,3380327,63.4409608,10.3488451,19.57,12.718,233.19,-0.49,-0.59,-0.01
3088,3380367,63.4409606,10.3488446,19.57,12.716,233.04,-0.49,-0.58,-0.03
3103,3380387,63.4409605,10.3488443,19.57,12.715,232.96,-0.48,-0.58,-0.04
3108,3380427,63.4409603,10.3488439,19.57,12.714,232.83,-0.48,-0.58,-0.05
3121,3380467,63.4409602,10.3488434,19.57,12.713,232.69,-0.48,-0.59,-0.06
3134,3380487,63.4409601,10.3488431,19.57,12.713,232.62,-0.48,-0.59,-0.06
3140,3380527,63.4409599,10.3488426,19.57,12.713,232.47,-0.48,-0.59,-0.05
3153,3380547,63.4409598,10.3488424,19.57,12.712,232.39,-0.48,-0.6,-0.05
3166,3380587,63.4409596,10.3488419,19.57,12.71,232.22,-0.48,-0.6,-0.03
3171,3380627,63.4409594,10.3488414,19.56,12.708,232.03,-0.49,-0.61,-0.01
3183,3380647,63.4409593,10.3488411,19.56,12.705,231.93,-0.49,-0.61,0.0
3198,3380687,63.4409592,10.3488406,19.55,12.699,231.72,-0.5,-0.62,0.02
3203,3380727,63.440959,10.3488401,19.55,12.694,231.49,-0.5,-0.62,0.04
3215,3380747,63.4409589,10.3488399,19.55,12.691,231.38,-0.51,-0.62,0.05
3229,3380787,63.4409587,10.3488393,19.54,12.684,231.15,-0.51,-0.62,0.07
3234,3380827,63.4409585,10.3488388,19.53,12.677,230.93,-0.51,-0.61,0.08
3248,3380847,63.4409584,10.3488386,19.53,12.677,230.83,-0.51,-0.61,0.08
3261,3380887,63.4409582,10.3488381,19.53,12.676,230.63,-0.5,-0.6,0.08
3266,3380927,63.440958,10.3488376,19.53,12.675,230.46,-0.5,-0.59,0.07
3278,3380947,63.440958,10.3488373,19.53,12.678,230.38,-0.5,-0.59,0.06
3292,3380987,63.4409578,10.3488369,19.54,12.685,230.24,-0.5,-0.58,0.04
3297,3381027,63.4409576,10.3488364,19.55,12.692,230.13,-0.49,-0.56,0.02
3309,3381047,63.4409575,10.3488362,19.55,12.699,230.09,-0.49,-0.56,0.01
3323,3381087,63.4409573,10.3488357,19.57,12.712,230.02,-0.49,-0.55,0.0
3328,3381127,63.4409571,10.3488352,19.58,12.724,229.97,-0.49,-0.54,-0.01
3342,3381147,63.4409571,10.348835,19.59,12.732,229.96,-0.5,-0.53,-0.01
3355,3381187,63.4409569,10.3488346,19.6,12.746,229.93,-0.5,-0.52,-0.01
3359,3381207,63.4409568,10.3488344,19.61,12.752,229.92,-0.5,-0.52,-0.01
3372,3381247,63.4409566,10.3488339,19.62,12.762,229.9,-0.5,-0.52,0.0
3386,3381287,63.4409564,10.3488335,19.62,12.769,229.9,-0.5,-0.51,0.0
3390,3381307,63.4409563,10.3488333,19.63,12.772,229.9,-0.5,-0.51,0.01
3403,3381347,63.4409562,10.3488329,19.63,12.774,229.91,-0.5,-0.51,0.03
3419,3381387,63.440956,10.3488325,19.63,12.772,229.92,-0.5,-0.51,0.05
3423,3381407,63.4409559,10.3488322,19.63,12.771,229.94,-0.5,-0.51,0.06
3436,3381447,63.4409557,10.3488318,19.62,12.764,229.97,-0.5,-0.51,0.07
3450,3381487,63.4409555,10.3488314,19.61,12.754,230.0,-0.5,-0.51,0.09
3455,3381507,63.4409554,10.3488312,19.61,12.75,230.02,-0.5,-0.51,0.09
3469,3381547,63.4409553,10.3488307,19.59,12.738,230.05,-0.5,-0.51,0.1
3482,3381588,63.4409551,10.3488303,19.58,12.725,230.09,-0.5,-0.51,0.11
3486,3381607,63.440955,10.3488301,19.57,12.719,230.11,-0.5,-0.51,0.1
3500,3381647,63.4409548,10.3488297,19.56,12.707,230.14,-0.5,-0.5,0.1
3514,3381687,63.4409546,10.3488293,19.55,12.696,230.18,-0.5,-0.49,0.1
3518,3381707,63.4409545,10.3488291,19.55,12.69,230.2,-0.5,-0.49,0.09
3532,3381747,63.4409544,10.3488287,19.54,12.681,230.24,-0.5,-0.48,0.08
3545,3381787,63.4409542,10.3488283,19.53,12.674,230.28,-0.5,-0.48,0.07
3549,3381807,63.4409541,10.3488281,19.53,12.671,230.3,-0.5,-0.47,0.07
3563,3381847,63.4409539,10.3488277,19.52,12.666,230.33,-0.5,-0.47,0.06
3568,3381867,63.4409538,10.3488275,19.52,12.665,230.34,-0.5,-0.46,0.06
3581,3381907,63.4409536,10.3488271,19.52,12.662,230.37,-0.51,-0.46,0.06
3594,3381947,63.4409535,10.3488267,19.52,12.66,230.4,-0.51,-0.45,0.05
3598,3381967,63.4409534,10.3488265,19.52,12.661,230.42,-0.51,-0.44,0.05
3612,3382007,63.4409532,10.3488262,19.52,12.661,230.47,-0.51,-0.44,0.05
3625,3382047,63.440953,10.3488258,19.52,12.663,230.53,-0.51,-0.44,0.05
3629,3382067,63.4409529,10.3488256,19.52,12.665,230.56,-0.51,-0.44,0.05
3643,3382107,63.4409528,10.3488253,19.52,12.669,230.62,-0.51,-0.44,0.05
3656,3382147,63.4409526,10.3488249,19.53,12.674,230.68,-0.51,-0.44,0.05
3660,3382167,63.4409525,10.3488247,19.53,12.678,230.71,-0.51,-0.44,0.05
3675,3382207,63.4409523,10.3488244,19.54,12.685,230.76,-0.51,-0.44,0.04
3688,3382247,63.4409521,10.348824,19.55,12.692,230.81,-0.51,-0.45,0.04
3692,3382267,63.440952,10.3488238,19.55,12.697,230.83,-0.51,-0.45,0.03
3706,3382307,63.4409518,10.3488234,19.56,12.704,230.86,-0.51,-0.45,0.03
3719,3382347,63.4409517,10.3488231,19.57,12.712,230.89,-0.51,-0.45,0.02
3724,3382367,63.4409516,10.3488229,19.57,12.716,230.91,-0.51,-0.46,0.02
3739,3382407,63.4409514,10.3488225,19.58,12.723,230.95,-0.51,-0.46,0.01
3752,3382447,63.4409512,10.3488222,19.58,12.728,231.0,-0.51,-0.46,0.01
3756,3382467,63.4409511,10.348822,19.59,12.73,231.03,-0.51,-0.46,0.01
3770,3382507,63.4409509,10.3488216,19.59,12.734,231.09,-0.51,-0.46,0.01
3785,3382527,63.4409508,10.3488214,19.59,12.735,231.12,-0.52,-0.47,0.01
3788,3382567,63.4409506,10.348821,19.59,12.735,231.19,-0.52,-0.47,0.01
3802,3382607,63.4409505,10.3488206,19.59,12.735,231.28,-0.52,-0.47,0.02
3806,3382627,63.4409504,10.3488204,19.59,12.735,231.32,-0.52,-0.47,0.02
3820,3382667,63.4409502,10.34882,19.59,12.732,231.42,-0.53,-0.48,0.03
3834,3382707,63.44095,10.3488196,19.59,12.73,231.53,-0.53,-0.48,0.03
3838,3382727,63.4409499,10.3488194,19.58,12.729,231.59,-0.53,-0.48,0.03
3851,3382767,63.4409497,10.3488191,19.58,12.727,231.71,-0.53,-0.48,0.03
3865,3382807,63.4409495,10.3488186,19.58,12.726,231.84,-0.54,-0.48,0.02
3869,3382827,63.4409494,10.3488184,19.58,12.725,231.9,-0.54,-0.48,0.02
3884,3382867,63.4409492,10.348818,19.58,12.727,232.02,-0.54,-0.49,0.01
3897,3382907,63.440949,10.3488176,19.58,12.728,232.14,-0.54,-0.49,0.0
3901,3382927,63.4409489,10.3488174,19.58,12.729,232.19,-0.55,-0.5,0.0
3914,3382967,63.4409487,10.348817,19.59,12.733,232.29,-0.55,-0.5,-0.01
3928,3383007,63.4409485,10.3488166,19.59,12.737,232.38,-0.55,-0.51,-0.02
3932,3383027,63.4409484,10.3488164,19.59,12.739,232.42,-0.55,-0.51,-0.02
3945,3383067,63.4409482,10.348816,19.6,12.743,232.49,-0.55,-0.52,-0.03
3959,3383107,63.440948,10.3488155,19.6,12.748,232.57,-0.55,-0.53,-0.04
3963,3383127,63.4409479,10.3488153,19.61,12.75,232.6,-0.55,-0.53,-0.04
3976,3383167,63.4409477,10.3488149,19.61,12.751,232.67,-0.54,-0.54,-0.04
3990,3383187,63.4409476,10.3488147,19.61,12.752,232.71,-0.54,-0.54,-0.04
3995,3383227,63.4409474,10.3488142,19.61,12.754,232.78,-0.54,-0.55,-0.04
4008,3383267,63.4409472,10.3488138,19.61,12.75,232.84,-0.54,-0.56,-0.04
4021,3383287,63.4409471,10.3488135,19.6,12.748,232.86,-0.54,-0.56,-0.03
4026,3383327,63.4409469,10.3488131,19.6,12.745,232.91,-0.54,-0.57,-0.03
4039,3383367,63.4409467,10.3488126,19.59,12.736,232.93,-0.54,-0.57,-0.03
4054,3383387,63.4409466,10.3488124,19.59,12.732,232.94,-0.54,-0.57,-0.03
4059,3383427,63.4409464,10.3488119,19.58,12.725,232.95,-0.54,-0.57,-0.04
4072,3383467,63.4409462,10.3488114,19.57,12.714,232.95,-0.54,-0.58,-0.04
4085,3383487,63.4409461,10.3488112,19.57,12.71,232.95,-0.54,-0.57,-0.04
4091,3383527,63.4409459,10.3488107,19.56,12.702,232.95,-0.54,-0.58,-0.05
4104,3383567,63.4409457,10.3488103,19.55,12.692,232.95,-0.53,-0.58,-0.05
4117,3383587,63.4409456,10.34881,19.54,12.687,232.95,-0.53,-0.58,-0.05
4122,3383627,63.4409454,10.3488096,19.53,12.679,232.95,-0.53,-0.58,-0.05
4137,3383667,63.4409452,10.3488091,19.53,12.671,232.95,-0.53,-0.58,-0.05
4149,3383687,63.4409451,10.3488088,19.52,12.667,232.94,-0.53,-0.58,-0.04
4154,3383727,63.4409449,10.3488084,19.52,12.66,232.93,-0.53,-0.58,-0.04
4167,3383767,63.4409447,10.3488079,19.51,12.654,232.9,-0.53,-0.58,-0.03
4180,3383787,63.4409446,10.3488076,19.51,12.651,232.87,-0.53,-0.58,-0.02
4185,3383827,63.4409444,10.3488072,19.5,12.645,232.81,-0.53,-0.58,-0.01
4199,3383847,63.4409443,10.3488069,19.5,12.643,232.77,-0.53,-0.58,-0.01
4212,3383887,63.4409441,10.3488064,19.49,12.639,232.67,-0.53,-0.58,0.0
4217,3383927,63.4409439,10.348806,19.49,12.636,232.56,-0.53,-0.58,0.0
4229,3383947,63.4409438,10.3488057,19.49,12.636,232.5,-0.53,-0.58,0.0
4243,3383988,63.4409436,10.3488053,19.49,12.635,232.37,-0.53,-0.57,0.01
4248,3384027,63.4409434,10.3488048,19.49,12.635,232.25,-0.52,-0.57,0.01
4260,3384047,63.4409433,10.3488045,19.49,12.637,232.19,-0.52,-0.57,0.01
4274,3384087,63.4409431,10.3488041,19.5,12.64,232.07,-0.51,-0.56,0.01
4279,3384127,63.4409429,10.3488036,19.5,12.644,231.97,-0.5,-0.56,0.0
4291,3384147,63.4409428,10.3488034,19.5,12.647,231.92,-0.49,-0.56,0.0
4306,3384187,63.4409427,10.3488029,19.51,12.653,231.84,-0.48,-0.56,0.0
4311,3384227,63.4409425,10.3488025,19.51,12.659,231.76,-0.47,-0.56,0.0
4323,3384247,63.4409424,10.3488022,19.52,12.662,231.73,-0.47,-0.56,0.0
4337,3384287,63.4409422,10.3488018,19.52,12.668,231.66,-0.46,-0.56,0.0
4342,3384327,63.440942,10.3488013,19.53,12.673,231.59,-0.46,-0.56,-0.01
4354,3384347,63.440942,10.3488011,19.53,12.673,231.55,-0.46,-0.56,0.0
4370,3384387,63.4409418,10.3488006,19.53,12.674,231.46,-0.46,-0.56,0.0
4375,3384427,63.4409416,10.3488001,19.53,12.675,231.36,-0.46,-0.56,0.0
4388,3384447,63.4409415,10.3487999,19.53,12.672,231.31,-0.46,-0.56,0.0
4401,3384487,63.4409414,10.3487994,19.52,12.667,231.2,-0.46,-0.55,0.0
4406,3384507,63.4409413,10.3487992,19.52,12.665,231.14,-0.46,-0.55,0.01
4419,3384547,63.4409411,10.3487988,19.51,12.659,231.02,-0.45,-0.54,0.01
4433,3384587,63.4409409,10.3487983,19.51,12.652,230.92,-0.45,-0.54,0.01
4437,3384607,63.4409409,10.3487981,19.5,12.649,230.87,-0.45,-0.53,0.01
4450,3384647,63.4409407,10.3487976,19.5,12.643,230.78,-0.44,-0.52,0.01
4465,3384687,63.4409405,10.3487972,19.49,12.638,230.71,-0.43,-0.51,0.0
4469,3384707,63.4409404,10.348797,19.49,12.636,230.68,-0.43,-0.51,0.0
4482,3384747,63.4409403,10.3487966,19.49,12.633,230.62,-0.42,-0.5,0.0
4496,3384787,63.4409401,10.3487962,19.49,12.633,230.57,-0.41,-0.48,-0.01
4500,3384807,63.4409401,10.348796,19.49,12.632,230.54,-0.41,-0.48,-0.01
4515,3384847,63.4409399,10.3487955,19.49,12.633,230.5,-0.4,-0.47,-0.02
4528,3384887,63.4409398,10.3487952,19.49,12.636,230.45,-0.39,-0.46,-0.02
4532,3384907,63.4409397,10.348795,19.49,12.637,230.42,-0.39,-0.45,-0.02
4545,3384947,63.4409396,10.3487946,19.5,12.64,230.36,-0.39,-0.44,-0.02
4559,3384987,63.4409394,10.3487942,19.5,12.643,230.29,-0.38,-0.43,-0.01
4563,3385007,63.4409393,10.348794,19.5,12.645,230.26,-0.38,-0.43,0.0
4576,3385047,63.4409392,10.3487937,19.5,12.648,230.17,-0.38,-0.42,0.0
4590,3385087,63.4409391,10.3487933,19.51,12.651,230.1,-0.37,-0.4,0.01
4594,3385107,63.440939,10.3487932,19.51,12.652,230.08,-0.37,-0.39,0.02
4607,3385147,63.4409389,10.3487928,19.51,12.655,230.04,-0.36,-0.37,0.03
4613,3385167,63.4409388,10.3487927,19.51,12.657,230.03,-0.36,-0.37,0.04
4626,3385207,63.4409387,10.3487923,19.51,12.659,230.02,-0.35,-0.36,0.05
4639,3385247,63.4409386,10.348792,19.52,12.663,230.03,-0.35,-0.35,0.06
4643,3385267,63.4409385,10.3487919,19.52,12.665,230.04,-0.34,-0.34,0.06
4657,3385307,63.4409384,10.3487916,19.52,12.669,230.09,-0.33,-0.32,0.07
4670,3385347,63.4409383,10.3487913,19.53,12.673,230.17,-0.31,-0.3,0.08
4674,3385367,63.4409382,10.3487912,19.53,12.676,230.24,-0.3,-0.29,0.08
4690,3385407,63.4409381,10.3487909,19.54,12.68,230.4,-0.28,-0.27,0.08
4703,3385447,63.440938,10.3487907,19.54,12.685,230.6,-0.26,-0.24,0.09
4707,3385467,63.440938,10.3487906,19.54,12.687,230.71,-0.26,-0.23,0.09
4721,3385507,63.4409379,10.3487904,19.55,12.691,230.91,-0.24,-0.21,0.1
4735,3385547,63.4409378,10.3487902,19.55,12.695,231.13,-0.23,-0.19,0.1
4739,3385567,63.4409378,10.3487901,19.55,12.697,231.24,-0.23,-0.18,0.1
4753,3385607,63.4409377,10.3487899,19.56,12.7,231.48,-0.22,-0.16,0.09
4766,3385647,63.4409376,10.3487898,19.56,12.702,231.74,-0.2,-0.14,0.1
4771,3385667,63.4409376,10.3487897,19.56,12.703,231.87,-0.2,-0.13,0.09
4785,3385707,63.4409375,10.3487896,19.56,12.704,232.16,-0.19,-0.11,0.09
4798,3385747,63.4409374,10.3487895,19.56,12.704,232.45,-0.18,-0.09,0.09
4802,3385767,63.4409374,10.3487895,19.56,12.705,232.6,-0.18,-0.08,0.08
4816,3385807,63.4409374,10.3487894,19.56,12.705,232.91,-0.17,-0.06,0.08
4820,3385827,63.4409373,10.3487894,19.56,12.705,233.07,-0.16,-0.05,0.08
4834,3385867,63.4409373,10.3487893,19.56,12.702,233.39,-0.16,-0.03,0.08
4848,3385907,63.4409372,10.3487893,19.56,12.7,233.72,-0.15,-0.02,0.07
4852,3385927,63.4409372,10.3487893,19.55,12.699,233.88,-0.15,-0.01,0.07
4865,3385967,63.4409372,10.3487892,19.55,12.694,234.24,-0.14,0.0,0.07
4879,3386007,63.4409371,10.3487892,19.54,12.689,234.58,-0.14,0.0,0.07
4883,3386027,63.4409371,10.3487892,19.54,12.687,234.75,-0.14,0.0,0.07
4896,3386067,63.4409371,10.3487892,19.54,12.681,235.07,-0.14,0.0,0.06
4910,3386107,63.440937,10.3487892,19.53,12.675,235.38,-0.14,0.01,0.06
4914,3386127,63.440937,10.3487893,19.53,12.672,235.54,-0.13,0.01,0.06
4927,3386167,63.440937,10.3487893,19.52,12.666,235.87,-0.13,0.01,0.06
4942,3386207,63.440937,10.3487893,19.52,12.66,236.2,-0.12,0.01,0.06
4958,3386227,63.4409369,10.3487893,19.51,12.658,236.37,-0.12,0.01,0.06
4961,3386267,63.4409369,10.3487893,19.51,12.654,236.72,-0.11,0.01,0.05
4975,3386307,63.4409369,10.3487893,19.51,12.651,237.07,-0.11,0.01,0.05
4979,3386327,63.4409369,10.3487893,19.51,12.65,237.25,-0.1,0.01,0.04
4992,3386367,63.4409369,10.3487893,19.51,12.65,237.64,-0.09,0.01,0.03
5008,3386407,63.4409369,10.3487893,19.51,12.65,238.06,-0.08,0.02,0.02
5012,3386427,63.4409369,10.3487893,19.51,12.651,238.28,-0.07,0.03,0.02
5025,3386467,63.4409369,10.3487894,19.51,12.654,238.76,-0.06,0.03,0.0
5038,3386487,63.4409369,10.3487894,19.51,12.656,239.02,-0.05,0.04,0.0
5044,3386527,63.4409369,10.3487894,19.52,12.66,239.58,-0.04,0.04,-0.02
5057,3386567,63.4409369,10.3487894,19.52,12.666,240.19,-0.03,0.05,-0.03
5070,3386587,63.4409369,10.3487894,19.52,12.669,240.5,-0.03,0.05,-0.04
5075,3386627,63.4409369,10.3487894,19.53,12.675,241.14,-0.03,0.05,-0.06
5089,3386667,63.4409369,10.3487895,19.54,12.681,241.8,-0.02,0.05,-0.08
5102,3386687,63.4409369,10.3487895,19.54,12.684,242.14,-0.02,0.05,-0.09
5107,3386727,63.4409369,10.3487895,19.55,12.691,242.82,-0.02,0.05,-0.1
5120,3386767,63.4409369,10.3487896,19.55,12.694,243.52,-0.02,0.05,-0.11
5133,3386787,63.4409369,10.3487896,19.55,12.696,243.87,-0.02,0.05,-0.11
5138,3386827,63.4409369,10.3487896,19.56,12.7,244.6,-0.02,0.05,-0.11
5152,3386867,63.4409369,10.3487896,19.55,12.699,245.31,-0.02,0.04,-0.11
5165,3386887,63.4409369,10.3487897,19.55,12.698,245.67,-0.02,0.04,-0.11
5170,3386927,63.4409369,10.3487897,19.55,12.698,246.39,-0.01,0.04,-0.1
5183,3386967,63.4409369,10.3487897,19.55,12.693,247.12,-0.01,0.04,-0.09
5196,3386987,63.4409369,10.3487897,19.55,12.691,247.49,-0.01,0.04,-0.09
5201,3387027,63.4409369,10.3487898,19.54,12.686,248.23,0.0,0.03,-0.07
5215,3387067,63.440937,10.3487898,19.53,12.678,248.97,0.0,0.03,-0.06
5227,3387087,63.440937,10.3487898,19.53,12.675,249.34,0.0,0.03,-0.05
5232,3387127,63.440937,10.3487898,19.52,12.668,250.12,0.0,0.02,-0.04
5244,3387147,63.440937,10.3487898,19.52,12.665,250.5,0.0,0.03,-0.03
5259,3387187,63.440937,10.3487898,19.51,12.658,251.27,0.0,0.02,-0.02
5264,3387227,63.440937,10.3487899,19.51,12.652,252.03,0.01,0.02,-0.01
5276,3387247,63.440937,10.3487899,19.51,12.651,252.42,0.01,0.02,-0.01
5290,3387287,63.4409371,10.3487899,19.5,12.648,253.18,0.01,0.01,0.0
5295,3387327,63.4409371,10.3487899,19.5,12.645,253.95,0.01,0.01,0.0
5307,3387347,63.4409371,10.3487899,19.5,12.647,254.34,0.01,0.01,0.0
5323,3387387,63.4409371,10.3487899,19.5,12.649,255.1,0.01,0.0,0.0
5328,3387427,63.4409371,10.3487899,19.51,12.65,255.87,0.01,0.0,0.0
5340,3387447,63.4409371,10.3487899,19.51,12.654,256.24,0.01,0.0,0.0
5354,3387487,63.4409371,10.3487899,19.52,12.66,256.99,0.01,-0.01,0.0
5360,3387527,63.4409371,10.3487899,19.52,12.665,257.73,0.01,-0.01,0.0
5372,3387547,63.4409371,10.3487899,19.52,12.669,258.1,0.02,-0.01,0.0
5386,3387587,63.4409371,10.3487899,19.53,12.677,258.84,0.02,-0.01,0.0
5391,3387627,63.4409371,10.3487899,19.54,12.685,259.61,0.02,-0.02,0.0
5403,3387647,63.4409371,10.3487899,19.55,12.69,259.99,0.02,-0.02,-0.01
5418,3387687,63.4409372,10.3487899,19.55,12.699,260.79,0.02,-0.02,-0.02
5423,3387727,63.4409372,10.3487899,19.56,12.707,261.63,0.03,-0.01,-0.03
5435,3387747,63.4409372,10.3487899,19.57,12.712,262.05,0.03,-0.02,-0.04
5449,3387787,63.4409372,10.3487898,19.58,12.721,262.89,0.03,-0.02,-0.05
5453,3387807,63.4409372,10.3487898,19.58,12.726,263.31,0.03,-0.02,-0.06
5468,3387847,63.4409373,10.3487898,19.59,12.734,264.15,0.03,-0.02,-0.06
5481,3387887,63.4409373,10.3487898,19.6,12.742,264.98,0.02,-0.02,-0.07
5485,3387907,63.4409373,10.3487898,19.6,12.746,265.39,0.02,-0.02,-0.07
5498,3387947,63.4409373,10.3487898,19.61,12.753,266.19,0.02,-0.02,-0.07
5512,3387987,63.4409374,10.3487898,19.61,12.758,266.99,0.02,-0.02,-0.07
5516,3388007,63.4409374,10.3487897,19.62,12.761,267.37,0.02,-0.02,-0.07
5529,3388047,63.4409374,10.3487897,19.62,12.765,268.11,0.02,-0.02,-0.06
5543,3388087,63.4409374,10.3487897,19.62,12.768,268.85,0.02,-0.02,-0.05
5547,3388107,63.4409375,10.3487897,19.62,12.769,269.21,0.02,-0.02,-0.05
5560,3388147,63.4409375,10.3487897,19.63,12.772,269.95,0.02,-0.02,-0.03
5575,3388187,63.4409375,10.3487897,19.63,12.773,270.7,0.02,-0.01,-0.02
5579,3388207,63.4409375,10.3487897,19.63,12.773,271.09,0.02,-0.01,-0.01
5592,3388247,63.4409375,10.3487896,19.63,12.774,271.88,0.02,0.0,0.0
5606,3388287,63.4409376,10.3487896,19.63,12.776,272.7,0.02,0.0,0.01
5610,3388307,63.4409376,10.3487896,19.63,12.776,273.11,0.01,0.0,0.02
5623,3388347,63.4409376,10.3487896,19.63,12.779,273.94,0.01,0.0,0.03
5639,3388387,63.4409376,10.3487896,19.64,12.783,274.78,0.0,0.0,0.05
5643,3388407,63.4409376,10.3487896,19.64,12.784,275.19,0.0,0.0,0.05
5656,3388447,63.4409376,10.3487896,19.65,12.79,276.01,0.0,0.0,0.06
5660,3388467,63.4409376,10.3487896,19.65,12.794,276.42,0.0,0.0,0.07
5675,3388507,63.4409377,10.3487896,19.66,12.8,277.22,-0.01,0.0,0.07
5688,3388547,63.4409377,10.3487896,19.66,12.809,278.0,-0.02,0.0,0.08
5692,3388567,63.4409377,10.3487896,19.67,12.815,278.4,-0.02,-0.01,0.08
5706,3388607,63.4409377,10.3487896,19.68,12.825,279.14,-0.03,-0.01,0.08
5719,3388647,63.4409377,10.3487896,19.69,12.837,279.86,-0.03,-0.01,0.08
5724,3388667,63.4409377,10.3487896,19.7,12.844,280.21,-0.04,-0.02,0.07
5738,3388707,63.4409377,10.3487896,19.71,12.857,280.9,-0.04,-0.02,0.07
5751,3388747,63.4409377,10.3487896,19.73,12.87,281.57,-0.04,-0.02,0.06
5755,3388767,63.4409377,10.3487896,19.73,12.878,281.9,-0.04,-0.02,0.06
5769,3388807,63.4409377,10.3487896,19.75,12.891,282.56,-0.04,-0.02,0.05
5784,3388847,63.4409377,10.3487896,19.76,12.903,283.25,-0.04,-0.01,0.04
5787,3388867,63.4409377,10.3487896,19.76,12.909,283.59,-0.04,-0.01,0.04
5801,3388907,63.4409377,10.3487896,19.77,12.919,284.27,-0.04,-0.01,0.03
5814,3388947,63.4409377,10.3487896,19.78,12.928,284.97,-0.04,0.0,0.02
5818,3388967,63.4409377,10.3487896,19.79,12.932,285.33,-0.04,0.0,0.02
5832,3389007,63.4409377,10.3487896,19.79,12.939,286.07,-0.04,0.0,0.02
5845,3389047,63.4409376,10.3487896,19.8,12.944,286.81,-0.05,0.01,0.02
5850,3389067,63.4409376,10.3487896,19.8,12.946,287.19,-0.05,0.01,0.02
5863,3389107,63.4409376,10.3487897,19.8,12.949,287.95,-0.05,0.02,0.02
5867,3389127,63.4409376,10.3487897,19.81,12.951,288.33,-0.05,0.02,0.02
5881,3389167,63.4409376,10.3487897,19.81,12.953,289.13,-0.06,0.02,0.02
5895,3389207,63.4409376,10.3487897,19.81,12.955,289.92,-0.06,0.03,0.02
5899,3389227,63.4409376,10.3487897,19.81,12.956,290.31,-0.06,0.03,0.02
5912,3389267,63.4409376,10.3487898,19.82,12.961,291.09,-0.07,0.03,0.02
5926,3389307,63.4409375,10.3487899,19.82,12.965,291.88,-0.07,0.04,0.01
5930,3389327,63.4409375,10.3487899,19.82,12.967,292.27,-0.08,0.04,0.01
5943,3389367,63.4409375,10.34879,19.83,12.975,293.05,-0.08,0.04,0.0
5959,3389407,63.4409375,10.3487901,19.84,12.983,293.81,-0.08,0.04,0.0
5963,3389427,63.4409375,10.3487901,19.84,12.987,294.22,-0.09,0.04,0.0
5976,3389467,63.4409374,10.3487902,19.85,12.999,294.98,-0.09,0.05,-0.02
5990,3389507,63.4409374,10.3487903,19.86,13.009,295.74,-0.09,0.05,-0.03
5995,3389527,63.4409374,10.3487903,19.87,13.014,296.12,-0.09,0.05,-0.04
6008,3389567,63.4409374,10.3487904,19.88,13.027,296.89,-0.09,0.06,-0.05
6022,3389607,63.4409373,10.3487905,19.89,13.038,297.65,-0.09,0.06,-0.07
6026,3389627,63.4409373,10.3487905,19.9,13.044,298.03,-0.09,0.06,-0.07
6040,3389667,63.4409373,10.3487906,19.91,13.053,298.81,-0.09,0.06,-0.08
6054,3389707,63.4409372,10.3487907,19.92,13.063,299.58,-0.09,0.06,-0.09
6058,3389727,63.4409372,10.3487908,19.92,13.067,299.99,-0.09,0.06,-0.09
6071,3389767,63.4409372,10.3487909,19.93,13.073,300.77,-0.09,0.06,-0.1
6084,3389787,63.4409372,10.3487909,19.93,13.076,301.15,-0.09,0.06,-0.09
6089,3389827,63.4409371,10.348791,19.94,13.081,301.91,-0.09,0.05,-0.09
6103,3389867,63.4409371,10.3487911,19.94,13.083,302.67,-0.09,0.05,-0.09
6116,3389887,63.4409371,10.3487911,19.94,13.084,303.04,-0.09,0.04,-0.09
6121,3389927,63.4409371,10.3487912,19.94,13.086,303.77,-0.09,0.04,-0.09
6134,3389967,63.440937,10.3487913,19.94,13.088,304.49,-0.09,0.03,-0.08
6147,3389987,63.440937,10.3487913,19.94,13.089,304.85,-0.09,0.03,-0.08
6152,3390027,63.440937,10.3487914,19.95,13.09,305.58,-0.1,0.02,-0.08
6165,3390067,63.4409369,10.3487914,19.95,13.095,306.3,-0.1,0.01,-0.09
6178,3390087,63.4409369,10.3487914,19.95,13.097,306.66,-0.1,0.0,-0.09
6183,3390127,63.4409369,10.3487915,19.96,13.101,307.39,-0.11,0.0,-0.09
6196,3390167,63.4409368,10.3487915,19.96,13.109,308.14,-0.11,0.0,-0.1
6210,3390187,63.4409368,10.3487915,19.97,13.113,308.51,-0.11,-0.01,-0.11
6215,3390227,63.4409368,10.3487916,19.98,13.12,309.26,-0.11,-0.01,-0.11
6228,3390267,63.4409367,10.3487916,19.99,13.131,310.01,-0.11,-0.02,-0.12
6241,3390287,63.4409367,10.3487916,19.99,13.136,310.38,-0.11,-0.02,-0.13
6246,3390327,63.4409367,10.3487916,20.0,13.145,311.15,-0.11,-0.03,-0.13
6259,3390367,63.4409366,10.3487916,20.01,13.154,311.9,-0.1,-0.04,-0.13
6274,3390387,63.4409366,10.3487916,20.01,13.158,312.27,-0.1,-0.04,-0.13
6279,3390427,63.4409366,10.3487917,20.02,13.166,313.01,-0.1,-0.04,-0.13
6292,3390447,63.4409365,10.3487917,20.02,13.169,313.38,-0.1,-0.04,-0.13
6305,3390487,63.4409365,10.3487918,20.03,13.174,314.12,-0.1,-0.04,-0.13
6311,3390527,63.4409365,10.3487918,20.03,13.179,314.85,-0.09,-0.05,-0.12
6323,3390547,63.4409364,10.3487917,20.03,13.179,315.22,-0.09,-0.05,-0.12
6337,3390587,63.4409364,10.3487918,20.03,13.179,315.98,-0.09,-0.05,-0.11
6342,3390627,63.4409363,10.3487918,20.03,13.179,316.71,-0.09,-0.05,-0.1
6354,3390647,63.4409363,10.3487918,20.03,13.177,317.08,-0.09,-0.05,-0.1
6369,3390687,63.4409363,10.3487918,20.03,13.173,317.82,-0.09,-0.05,-0.09
6374,3390727,63.4409362,10.3487918,20.03,13.171,318.54,-0.09,-0.06,-0.08
6386,3390747,63.4409362,10.3487917,20.02,13.169,318.9,-0.09,-0.06,-0.07
6400,3390787,63.4409362,10.3487918,20.02,13.165,319.61,-0.09,-0.07,-0.07
6405,3390827,63.4409361,10.3487918,20.02,13.162,320.32,-0.09,-0.07,-0.06
6419,3390847,63.4409361,10.3487918,20.02,13.162,320.67,-0.09,-0.08,-0.06
6432,3390887,63.4409361,10.3487917,20.02,13.163,321.4,-0.1,-0.08,-0.06
6437,3390927,63.440936,10.3487917,20.02,13.165,322.1,-0.1,-0.09,-0.06
6449,3390947,63.440936,10.3487917,20.02,13.169,322.45,-0.1,-0.09,-0.06
6463,3390987,63.4409359,10.3487917,20.03,13.178,323.16,-0.1,-0.09,-0.06
6468,3391027,63.4409359,10.3487917,20.04,13.186,323.87,-0.11,-0.09,-0.07
6480,3391047,63.4409359,10.3487917,20.05,13.194,324.23,-0.11,-0.09,-0.07
6494,3391087,63.4409358,10.3487916,20.07,13.21,324.95,-0.11,-0.09,-0.07
6498,3391107,63.4409358,10.3487916,20.07,13.218,325.31,-0.11,-0.09,-0.08
6511,3391147,63.4409357,10.3487916,20.09,13.235,326.04,-0.12,-0.09,-0.08
6526,3391187,63.4409357,10.3487916,20.11,13.255,326.79,-0.12,-0.08,-0.08
6530,3391207,63.4409357,10.3487916,20.12,13.264,327.15,-0.12,-0.08,-0.08
6543,3391247,63.4409356,10.3487916,20.14,13.282,327.87,-0.12,-0.08,-0.07
6557,3391287,63.4409356,10.3487916,20.15,13.299,328.57,-0.11,-0.07,-0.07
6561,3391307,63.4409355,10.3487916,20.16,13.307,328.92,-0.11,-0.07,-0.06
6574,3391347,63.4409355,10.3487915,20.18,13.321,329.61,-0.11,-0.07,-0.05
6590,3391387,63.4409354,10.3487915,20.19,13.333,330.29,-0.11,-0.07,-0.04
6594,3391407,63.4409354,10.3487915,20.19,13.338,330.63,-0.11,-0.07,-0.03
6607,3391447,63.4409354,10.3487915,20.2,13.345,331.3,-0.11,-0.06,-0.02
6621,3391487,63.4409353,10.3487915,20.21,13.35,331.98,-0.11,-0.06,-0.01
6626,3391507,63.4409353,10.3487915,20.21,13.352,332.32,-0.11,-0.06,0.0
6639,3391547,63.4409352,10.3487915,20.21,13.353,332.99,-0.11,-0.05,0.0
6653,3391587,63.4409352,10.3487915,20.21,13.352,333.67,-0.12,-0.05,0.01
6657,3391607,63.4409351,10.3487915,20.21,13.351,334.0,-0.12,-0.05,0.02
6670,3391647,63.4409351,10.3487915,20.2,13.349,334.68,-0.12,-0.05,0.03
6685,3391687,63.440935,10.3487915,20.2,13.345,335.35,-0.12,-0.06,0.03
6689,3391707,63.440935,10.3487915,20.2,13.343,335.68,-0.12,-0.06,0.03
6702,3391747,63.4409349,10.3487915,20.2,13.34,336.37,-0.12,-0.06,0.03
6706,3391767,63.4409349,10.3487915,20.19,13.339,336.7,-0.12,-0.06,0.03
6720,3391807,63.4409349,10.3487915,20.19,13.337,337.36,-0.12,-0.06,0.02
6734,3391847,63.4409348,10.3487915,20.19,13.336,338.02,-0.13,-0.06,0.02
6738,3391867,63.4409348,10.3487915,20.19,13.336,338.35,-0.13,-0.06,0.01
6752,3391907,63.4409347,10.3487915,20.19,13.336,339.02,-0.13,-0.06,0.01
6765,3391947,63.4409347,10.3487915,20.19,13.338,339.72,-0.13,-0.06,0.0
6769,3391967,63.4409346,10.3487915,20.2,13.34,340.07,-0.13,-0.05,0.0
6783,3392007,63.4409346,10.3487915,20.2,13.343,340.78,-0.13,-0.05,-0.01
6796,3392047,63.4409345,10.3487915,20.2,13.347,341.52,-0.13,-0.05,-0.02
6800,3392067,63.4409345,10.3487915,20.21,13.35,341.88,-0.13,-0.05,-0.03
6814,3392107,63.4409344,10.3487915,20.21,13.355,342.6,-0.13,-0.04,-0.04
6827,3392147,63.4409344,10.3487915,20.22,13.36,343.33,-0.13,-0.04,-0.05
6833,3392167,63.4409344,10.3487916,20.22,13.363,343.68,-0.13,-0.04,-0.05
6846,3392207,63.4409343,10.3487916,20.22,13.368,344.38,-0.13,-0.04,-0.05
6859,3392247,63.4409342,10.3487916,20.23,13.373,345.06,-0.13,-0.03,-0.05
6863,3392267,63.4409342,10.3487916,20.23,13.375,345.39,-0.13,-0.03,-0.06
6877,3392307,63.4409342,10.3487916,20.24,13.38,346.03,-0.13,-0.03,-0.05
6890,3392347,63.4409341,10.3487916,20.24,13.383,346.67,-0.13,-0.03,-0.05
6894,3392367,63.4409341,10.3487917,20.24,13.384,346.98,-0.13,-0.02,-0.05
6910,3392407,63.440934,10.3487917,20.24,13.386,347.58,-0.13,-0.02,-0.05
6914,3392427,63.440934,10.3487917,20.24,13.387,347.88,-0.13,-0.02,-0.05
6927,3392467,63.4409339,10.3487918,20.24,13.388,348.48,-0.13,-0.01,-0.05
6942,3392507,63.4409339,10.3487918,20.24,13.388,349.07,-0.13,-0.01,-0.06
6946,3392527,63.4409338,10.3487918,20.24,13.388,349.37,-0.13,-0.01,-0.06
6959,3392567,63.4409338,10.3487918,20.24,13.387,349.98,-0.13,-0.01,-0.07
6973,3392607,63.4409337,10.3487918,20.24,13.387,350.61,-0.14,-0.01,-0.08
6977,3392627,63.4409337,10.3487918,20.24,13.387,350.92,-0.14,-0.01,-0.08
6991,3392667,63.4409336,10.3487918,20.24,13.387,351.55,-0.14,-0.02,-0.09
7005,3392707,63.4409335,10.3487919,20.24,13.387,352.19,-0.15,-0.02,-0.1
7009,3392727,63.4409335,10.3487919,20.24,13.387,352.52,-0.15,-0.02,-0.11
7022,3392767,63.4409334,10.3487919,20.24,13.387,353.18,-0.15,-0.03,-0.12
7036,3392807,63.4409334,10.3487919,20.24,13.387,353.84,-0.16,-0.03,-0.12
7040,3392827,63.4409333,10.348792,20.24,13.387,354.17,-0.16,-0.03,-0.13
7054,3392867,63.4409332,10.348792,20.24,13.386,354.83,-0.16,-0.04,-0.13
7068,3392907,63.4409332,10.348792,20.24,13.386,355.5,-0.17,-0.04,-0.13
7072,3392927,63.4409331,10.348792,20.24,13.387,355.83,-0.17,-0.04,-0.13
7085,3392967,63.440933,10.348792,20.24,13.385,356.49,-0.17,-0.05,-0.12
7099,3393007,63.440933,10.348792,20.24,13.384,357.15,-0.18,-0.05,-0.12
7103,3393027,63.4409329,10.3487921,20.24,13.383,357.48,-0.18,-0.05,-0.11
7116,3393067,63.4409328,10.3487921,20.24,13.38,358.14,-0.19,-0.05,-0.1
7129,3393087,63.4409328,10.3487921,20.23,13.379,358.47,-0.19,-0.06,-0.1
7134,3393127,63.4409327,10.3487921,20.23,13.377,359.14,-0.19,-0.06,-0.09
7148,3393167,63.4409326,10.3487921,20.23,13.375,359.82,-0.19,-0.06,-0.07
7161,3393187,63.4409326,10.3487921,20.23,13.373,0.16,-0.2,-0.07,-0.07
7166,3393227,63.4409325,10.3487921,20.23,13.371,0.83,-0.2,-0.07,-0.06
7179,3393267,63.4409324,10.3487921,20.22,13.368,1.5,-0.2,-0.08,-0.05
7192,3393287,63.4409324,10.3487921,20.22,13.367,1.84,-0.2,-0.08,-0.05
7197,3393327,63.4409323,10.3487921,20.22,13.365,2.51,-0.2,-0.09,-0.04
7210,3393367,63.4409322,10.3487921,20.22,13.364,3.19,-0.21,-0.1,-0.04
7225,3393387,63.4409321,10.3487921,20.22,13.363,3.52,-0.21,-0.1,-0.04
7230,3393427,63.440932,10.348792,20.22,13.362,4.18,-0.21,-0.11,-0.05
7243,3393467,63.4409319,10.348792,20.22,13.362,4.84,-0.21,-0.12,-0.05
7256,3393487,63.4409319,10.3487921,20.22,13.362,5.17,-0.21,-0.12,-0.06
7262,3393527,63.4409318,10.348792,20.22,13.363,5.8,-0.2,-0.13,-0.07
7275,3393567,63.4409317,10.348792,20.22,13.363,6.42,-0.2,-0.14,-0.09
7288,3393587,63.4409317,10.348792,20.22,13.364,6.72,-0.2,-0.14,-0.1
7293,3393627,63.4409316,10.3487919,20.22,13.366,7.31,-0.19,-0.14,-0.11
7307,3393667,63.4409315,10.3487919,20.22,13.367,7.91,-0.19,-0.15,-0.13
7320,3393687,63.4409315,10.3487918,20.22,13.368,8.2,-0.19,-0.15,-0.14
7325,3393727,63.4409314,10.3487917,20.23,13.37,8.78,-0.18,-0.16,-0.15
7338,3393747,63.4409314,10.3487917,20.23,13.371,9.08,-0.18,-0.16,-0.16
7351,3393787,63.4409313,10.3487916,20.23,13.371,9.7,-0.18,-0.17,-0.16
7356,3393827,63.4409312,10.3487916,20.23,13.373,10.33,-0.18,-0.17,-0.17
7369,3393847,63.4409312,10.3487915,20.23,13.373,10.66,-0.18,-0.17,-0.17
7383,3393887,63.4409311,10.3487914,20.23,13.373,11.33,-0.17,-0.18,-0.17
7388,3393927,63.440931,10.3487913,20.23,13.375,12.02,-0.17,-0.19,-0.16
7400,3393947,63.440931,10.3487913,20.23,13.375,12.37,-0.17,-0.19,-0.16
7414,3393987,63.4409309,10.3487912,20.23,13.374,13.08,-0.16,-0.2,-0.14
7419,3394027,63.4409308,10.3487911,20.23,13.373,13.78,-0.15,-0.2,-0.13
7431,3394047,63.4409308,10.3487911,20.23,13.373,14.13,-0.14,-0.21,-0.12
7445,3394087,63.4409308,10.3487909,20.23,13.374,14.83,-0.13,-0.21,-0.1
7450,3394127,63.4409307,10.3487908,20.23,13.374,15.49,-0.12,-0.21,-0.08
7462,3394147,63.4409307,10.3487908,20.23,13.375,15.8,-0.12,-0.21,-0.07
7477,3394187,63.4409306,10.3487907,20.23,13.376,16.41,-0.11,-0.22,-0.05
7482,3394227,63.4409306,10.3487906,20.23,13.376,16.97,-0.1,-0.22,-0.03
7494,3394247,63.4409305,10.3487905,20.23,13.378,17.23,-0.09,-0.21,-0.02
7508,3394287,63.4409305,10.3487904,20.24,13.38,17.73,-0.08,-0.21,0.0
7513,3394327,63.4409304,10.3487903,20.24,13.381,18.17,-0.07,-0.21,0.01
7525,3394347,63.4409304,10.3487902,20.24,13.383,18.38,-0.07,-0.21,0.02
7541,3394387,63.4409304,10.3487901,20.24,13.385,18.76,-0.06,-0.2,0.04
7545,3394407,63.4409303,10.34879,20.24,13.386,18.93,-0.06,-0.2,0.05
7558,3394447,63.4409303,10.3487899,20.24,13.389,19.25,-0.05,-0.2,0.06
7572,3394487,63.4409303,10.3487898,20.25,13.391,19.56,-0.05,-0.19,0.07
7577,3394507,63.4409303,10.3487898,20.25,13.392,19.71,-0.04,-0.19,0.07
7590,3394547,63.4409302,10.3487897,20.25,13.395,20.02,-0.04,-0.18,0.07
7604,3394587,63.4409302,10.3487896,20.25,13.398,20.34,-0.04,-0.17,0.07
7608,3394607,63.4409302,10.3487896,20.25,13.399,20.5,-0.03,-0.17,0.07
7621,3394647,63.4409301,10.3487895,20.26,13.4,20.84,-0.02,-0.15,0.07
7636,3394687,63.4409301,10.3487894,20.26,13.402,21.17,-0.01,-0.14,0.06
7640,3394707,63.4409301,10.3487894,20.26,13.402,21.35,0.0,-0.13,0.06
7653,3394747,63.4409301,10.3487894,20.26,13.403,21.72,0.02,-0.1,0.05
7667,3394787,63.4409301,10.3487894,20.26,13.403,22.1,0.05,-0.08,0.05
7671,3394807,63.4409301,10.3487894,20.26,13.403,22.29,0.07,-0.07,0.05
7685,3394847,63.4409301,10.3487894,20.26,13.402,22.64,0.09,-0.05,0.05
7699,3394887,63.4409301,10.3487894,20.26,13.401,22.94,0.13,-0.03,0.05
7703,3394907,63.4409302,10.3487894,20.26,13.4,23.07,0.14,-0.02,0.05
7717,3394947,63.4409302,10.3487894,20.25,13.397,23.28,0.17,0.0,0.07
7730,3394987,63.4409302,10.3487895,20.25,13.394,23.43,0.19,0.01,0.07
7734,3395007,63.4409303,10.3487896,20.25,13.392,23.49,0.19,0.01,0.08
7747,3395047,63.4409303,10.3487897,20.24,13.388,23.58,0.21,0.03,0.09
7751,3395067,63.4409303,10.3487897,20.24,13.387,23.61,0.21,0.04,0.09
7765,3395107,63.4409303,10.3487898,20.24,13.383,23.65,0.22,0.05,0.08
7778,3395147,63.4409304,10.3487899,20.24,13.38,23.68,0.23,0.07,0.08
7784,3395167,63.4409304,10.34879,20.24,13.38,23.69,0.23,0.07,0.07
7797,3395207,63.4409305,10.3487901,20.23,13.379,23.69,0.23,0.08,0.05
7810,3395247,63.4409305,10.3487902,20.24,13.38,23.69,0.23,0.09,0.03
7814,3395267,63.4409306,10.3487903,20.24,13.381,23.7,0.23,0.09,0.02
7828,3395307,63.4409306,10.3487904,20.24,13.383,23.71,0.23,0.09,0.0
7842,3395347,63.4409307,10.3487905,20.24,13.386,23.73,0.23,0.09,-0.03
7845,3395367,63.4409307,10.3487905,20.24,13.387,23.75,0.23,0.09,-0.05
7861,3395407,63.4409308,10.3487907,20.25,13.392,23.78,0.24,0.1,-0.07
7875,3395447,63.4409308,10.3487908,20.25,13.395,23.83,0.24,0.1,-0.1
7878,3395467,63.4409309,10.3487909,20.25,13.396,23.86,0.25,0.1,-0.11
7893,3395507,63.4409309,10.348791,20.25,13.399,23.9,0.26,0.09,-0.12
7906,3395547,63.440931,10.3487912,20.26,13.4,23.94,0.27,0.09,-0.13
7910,3395567,63.440931,10.3487913,20.25,13.398,23.96,0.27,0.09,-0.13
7924,3395607,63.4409311,10.3487914,20.25,13.397,23.97,0.28,0.1,-0.13
7937,3395647,63.4409312,10.3487916,20.25,13.394,23.98,0.3,0.1,-0.12
7942,3395667,63.4409312,10.3487916,20.25,13.391,23.98,0.3,0.1,-0.11
7956,3395707,63.4409313,10.3487918,20.24,13.386,23.96,0.32,0.1,-0.1
7960,3395727,63.4409314,10.3487919,20.24,13.384,23.95,0.32,0.1,-0.1
7973,3395767,63.4409315,10.348792,20.23,13.377,23.92,0.34,0.1,-0.09
7987,3395807,63.4409315,10.3487922,20.23,13.371,23.88,0.35,0.1,-0.08
8001,3395827,63.4409316,10.3487922,20.22,13.368,23.86,0.36,0.11,-0.08
8005,3395867,63.4409317,10.3487924,20.22,13.363,23.81,0.37,0.1,-0.08
8019,3395907,63.4409318,10.3487925,20.22,13.36,23.76,0.38,0.1,-0.08
8023,3395927,63.4409319,10.3487926,20.21,13.358,23.74,0.38,0.1,-0.08
8037,3395967,63.440932,10.3487927,20.21,13.357,23.69,0.4,0.1,-0.08
8050,3396007,63.4409321,10.3487929,20.21,13.357,23.65,0.41,0.1,-0.09
8064,3396027,63.4409322,10.348793,20.21,13.357,23.63,0.42,0.1,-0.09
8067,3396067,63.4409323,10.3487931,20.21,13.358,23.6,0.43,0.1,-0.1
8081,3396107,63.4409324,10.3487932,20.22,13.36,23.58,0.44,0.1,-0.1
8095,3396127,63.4409325,10.3487933,20.22,13.362,23.58,0.45,0.1,-0.09
8100,3396167,63.4409326,10.3487935,20.22,13.363,23.59,0.46,0.11,-0.09
8113,3396207,63.4409327,10.3487936,20.22,13.364,23.61,0.47,0.11,-0.08
8117,3396227,63.4409328,10.3487937,20.22,13.365,23.63,0.47,0.12,-0.07
8130,3396267,63.4409329,10.3487938,20.22,13.363,23.67,0.49,0.13,-0.05
8144,3396307,63.4409331,10.348794,20.22,13.362,23.71,0.5,0.14,-0.03
8148,3396327,63.4409332,10.348794,20.22,13.361,23.74,0.51,0.14,-0.02
8162,3396367,63.4409333,10.3487942,20.21,13.357,23.79,0.52,0.15,0.0
8177,3396388,63.4409334,10.3487943,20.21,13.354,23.81,0.53,0.16,0.0
8181,3396427,63.4409335,10.3487945,20.21,13.35,23.86,0.54,0.17,0.01
8194,3396467,63.4409337,10.3487947,20.2,13.344,23.91,0.56,0.17,0.02
8207,3396487,63.4409338,10.3487948,20.2,13.341,23.93,0.56,0.17,0.02
8213,3396527,63.440934,10.3487949,20.19,13.336,23.98,0.57,0.18,0.02
8226,3396567,63.4409342,10.3487951,20.19,13.332,24.03,0.59,0.19,0.0
8239,3396587,63.4409342,10.3487953,20.19,13.331,24.05,0.59,0.19,0.0
8244,3396627,63.4409344,10.3487955,20.18,13.329,24.09,0.6,0.19,-0.02
8258,3396667,63.4409346,10.3487957,20.18,13.329,24.14,0.61,0.2,-0.04
8269,3396687,63.4409347,10.3487958,20.19,13.33,24.16,0.62,0.2,-0.05
8276,3396727,63.4409349,10.348796,20.19,13.331,24.2,0.63,0.2,-0.08
8289,3396767,63.4409351,10.3487962,20.19,13.333,24.24,0.64,0.2,-0.09
8302,3396787,63.4409352,10.3487963,20.19,13.334,24.26,0.64,0.2,-0.1
8307,3396827,63.4409354,10.3487965,20.19,13.336,24.29,0.64,0.2,-0.1
8321,3396867,63.4409356,10.3487967,20.19,13.335,24.33,0.65,0.2,-0.09
8334,3396887,63.4409357,10.3487969,20.19,13.335,24.35,0.65,0.2,-0.09
8339,3396927,63.4409359,10.3487971,20.19,13.334,24.39,0.65,0.21,-0.07
8352,3396967,63.4409361,10.3487973,20.18,13.327,24.44,0.66,0.22,-0.04
8365,3396987,63.4409362,10.3487974,20.18,13.324,24.46,0.66,0.22,-0.03
8370,3397027,63.4409364,10.3487977,20.17,13.317,24.51,0.66,0.23,0.0
8382,3397047,63.4409365,10.3487978,20.17,13.312,24.53,0.66,0.23,0.0
8396,3397087,63.4409368,10.348798,20.16,13.303,24.58,0.66,0.24,0.02
8401,3397127,63.440937,10.3487983,20.15,13.293,24.61,0.66,0.25,0.04
8413,3397147,63.4409371,10.3487984,20.14,13.289,24.63,0.66,0.25,0.05
8428,3397187,63.4409373,10.3487987,20.14,13.281,24.64,0.66,0.26,0.05
8433,3397227,63.4409375,10.348799,20.13,13.273,24.62,0.66,0.26,0.05
8445,3397247,63.4409376,10.3487991,20.13,13.271,24.61,0.66,0.26,0.04
8459,3397287,63.4409378,10.3487994,20.12,13.267,24.56,0.66,0.27,0.03
8464,3397327,63.4409381,10.3487996,20.12,13.264,24.49,0.66,0.27,0.02
8476,3397347,63.4409382,10.3487997,20.12,13.263,24.45,0.66,0.27,0.01
8492,3397387,63.4409384,10.3488,20.12,13.263,24.38,0.66,0.27,0.0
8497,3397427,63.4409386,10.3488003,20.12,13.263,24.3,0.66,0.27,0.0
8509,3397447,63.4409387,10.3488004,20.12,13.261,24.26,0.66,0.27,-0.01
8523,3397487,63.4409389,10.3488007,20.11,13.259,24.19,0.66,0.27,-0.01
8529,3397527,63.4409392,10.3488009,20.11,13.257,24.1,0.66,0.27,-0.01
8541,3397547,63.4409393,10.3488011,20.11,13.253,24.06,0.66,0.27,0.0
8555,3397587,63.4409395,10.3488014,20.1,13.245,23.97,0.67,0.27,0.0
8560,3397627,63.4409397,10.3488017,20.09,13.238,23.88,0.66,0.28,0.02
8572,3397647,63.4409398,10.3488018,20.09,13.231,23.83,0.66,0.28,0.03
8587,3397687,63.4409401,10.3488021,20.07,13.218,23.73,0.66,0.29,0.05
8591,3397707,63.4409402,10.3488022,20.07,13.212,23.68,0.66,0.29,0.06
8604,3397747,63.4409404,10.3488025,20.06,13.2,23.57,0.66,0.3,0.08
8618,3397787,63.4409406,10.3488028,20.04,13.187,23.46,0.65,0.31,0.1
8622,3397807,63.4409407,10.348803,20.04,13.181,23.4,0.65,0.31,0.1
8636,3397847,63.440941,10.3488033,20.03,13.171,23.26,0.65,0.32,0.11
8650,3397887,63.4409412,10.3488036,20.02,13.163,23.12,0.65,0.32,0.1
8654,3397907,63.4409413,10.3488038,20.01,13.159,23.04,0.65,0.32,0.1
8667,3397947,63.4409415,10.3488041,20.01,13.154,22.88,0.64,0.33,0.09
8681,3397987,63.4409417,10.3488044,20.01,13.152,22.71,0.64,0.32,0.07
8685,3398007,63.4409419,10.3488046,20.01,13.152,22.63,0.64,0.33,0.06
8699,3398047,63.4409421,10.3488049,20.01,13.151,22.44,0.65,0.32,0.03
8712,3398087,63.4409423,10.3488052,20.01,13.151,22.25,0.65,0.32,0.02
8716,3398107,63.4409424,10.3488053,20.01,13.151,22.15,0.65,0.32,0.01
