packet_index,time_boot_ms,lat_deg,lon_deg,alt_m,relative_alt_m,heading_deg,vx_mps,vy_mps,vz_mps
63,8208567,63.4404941,10.3490155,14.97,8.117,85.68,-0.06,-0.01,-0.06
143,8208907,63.4404939,10.3490153,14.99,8.137,85.83,-0.06,-0.02,0.02
227,8209227,63.4404938,10.3490152,15.04,8.189,85.4,-0.03,0.0,0.0
312,8209567,63.4404937,10.349015,15.02,8.163,85.16,-0.02,-0.01,0.0
393,8209907,63.4404936,10.3490149,15.0,8.14,85.26,-0.06,0.02,0.03
474,8210227,63.4404935,10.349015,15.1,8.245,85.35,-0.06,0.01,-0.11
561,8210567,63.4404933,10.349015,15.09,8.234,85.09,-0.07,0.04,0.05
638,8210907,63.4404931,10.3490154,15.0,8.146,85.04,-0.04,0.08,0.11
724,8211227,63.4404931,10.3490159,15.07,8.216,85.09,0.0,0.08,-0.04
810,8211567,63.4404931,10.3490164,15.12,8.269,85.09,-0.04,0.04,-0.05
887,8211907,63.4404929,10.3490164,15.06,8.209,85.45,-0.03,-0.04,-0.05
972,8212227,63.4404928,10.3490162,15.12,8.269,85.6,-0.05,-0.06,-0.07
1059,8212567,63.4404927,10.3490161,15.15,8.292,85.26,-0.04,-0.02,-0.01
1141,8212907,63.4404926,10.349016,15.12,8.264,85.07,-0.05,0.0,0.0
1222,8213227,63.4404925,10.3490161,15.2,8.347,84.83,-0.03,0.03,-0.03
1308,8213567,63.4404924,10.3490162,15.27,8.416,84.59,-0.07,0.06,-0.01
1384,8213887,63.4404921,10.3490167,15.19,8.337,84.7,-0.07,0.1,0.02
1471,8214227,63.4404919,10.3490172,15.23,8.37,84.42,-0.04,0.05,-0.09
1557,8214567,63.4404918,10.3490175,15.27,8.415,84.29,-0.01,0.04,0.03
1633,8214887,63.4404918,10.3490176,15.21,8.352,84.28,-0.02,-0.02,-0.03
1720,8215227,63.4404916,10.3490174,15.15,8.292,84.87,-0.05,-0.03,-0.07
1806,8215567,63.4404915,10.3490174,15.22,8.366,84.54,-0.04,0.0,-0.05
1882,8215887,63.4404914,10.3490175,15.28,8.421,84.21,-0.07,0.04,-0.03
1969,8216227,63.4404912,10.3490177,15.13,8.279,83.9,-0.03,0.04,0.0
2055,8216567,63.4404911,10.3490177,15.17,8.315,84.12,-0.04,0.0,-0.03
2131,8216887,63.4404909,10.3490176,15.26,8.406,84.2,-0.08,0.02,0.04
2217,8217227,63.4404907,10.349018,15.2,8.345,84.41,-0.06,0.07,0.0
2304,8217567,63.4404905,10.3490183,15.22,8.361,84.45,-0.05,0.05,-0.06
2380,8217887,63.4404903,10.3490186,15.28,8.421,84.16,-0.04,0.05,0.02
2467,8218227,63.4404903,10.3490188,15.27,8.411,84.16,0.0,0.03,-0.06
2553,8218567,63.4404902,10.3490189,15.23,8.379,84.43,-0.04,-0.02,-0.03
2629,8218887,63.44049,10.3490188,15.25,8.394,84.45,-0.06,0.0,-0.06
2715,8219227,63.4404898,10.3490187,15.31,8.456,84.48,-0.1,-0.04,-0.12
2802,8219567,63.4404895,10.3490184,15.3,8.449,85.11,-0.1,-0.01,0.05
2878,8219887,63.4404891,10.3490181,15.39,8.535,89.28,-0.1,-0.02,0.06
2964,8220227,63.4404889,10.3490178,15.39,8.531,98.54,-0.1,-0.07,-0.01
3042,8220547,63.4404886,10.3490173,15.31,8.451,109.94,-0.09,-0.09,-0.01
3079,8220687,63.4404885,10.349017,15.33,8.478,115.34,-0.08,-0.09,-0.06
3087,8220707,63.4404885,10.349017,15.34,8.484,116.12,-0.08,-0.09,-0.06
3097,8220747,63.4404885,10.3490169,15.35,8.499,117.68,-0.07,-0.08,-0.07
3111,8220787,63.4404885,10.3490168,15.37,8.517,119.23,-0.07,-0.08,-0.09
3114,8220807,63.4404885,10.3490168,15.38,8.525,120.0,-0.07,-0.07,-0.09
3128,8220847,63.4404885,10.3490167,15.4,8.543,121.53,-0.06,-0.07,-0.09
3141,8220887,63.4404884,10.3490167,15.42,8.561,123.05,-0.05,-0.07,-0.1
3146,8220907,63.4404884,10.3490167,15.42,8.569,123.81,-0.05,-0.07,-0.1
3160,8220947,63.4404884,10.3490166,15.44,8.583,125.35,-0.04,-0.07,-0.09
3173,8220987,63.4404884,10.3490165,15.45,8.596,126.85,-0.03,-0.07,-0.09
3177,8221007,63.4404884,10.3490165,15.46,8.602,127.59,-0.02,-0.07,-0.09
3191,8221047,63.4404884,10.3490165,15.47,8.61,129.06,-0.02,-0.07,-0.09
3204,8221087,63.4404884,10.3490164,15.47,8.616,130.52,-0.01,-0.08,-0.08
3208,8221107,63.4404884,10.3490164,15.47,8.618,131.24,0.0,-0.08,-0.08
3222,8221147,63.4404884,10.3490163,15.47,8.619,132.66,0.0,-0.09,-0.07
3235,8221187,63.4404884,10.3490162,15.47,8.619,134.07,0.0,-0.09,-0.06
3241,8221207,63.4404884,10.3490162,15.47,8.618,134.77,0.0,-0.1,-0.06
3254,8221247,63.4404884,10.3490161,15.47,8.616,136.21,0.0,-0.11,-0.05
3266,8221267,63.4404884,10.3490161,15.47,8.614,136.91,0.0,-0.11,-0.05
3271,8221307,63.4404884,10.349016,15.47,8.61,138.32,0.0,-0.12,-0.04
3285,8221347,63.4404885,10.3490159,15.46,8.605,139.72,0.01,-0.12,-0.03
3297,8221367,63.4404885,10.3490158,15.46,8.603,140.41,0.01,-0.12,-0.03
3304,8221407,63.4404885,10.3490158,15.45,8.598,141.78,0.01,-0.12,-0.03
3318,8221447,63.4404885,10.3490157,15.45,8.593,143.11,0.01,-0.11,-0.02
3330,8221468,63.4404885,10.3490156,15.45,8.591,143.77,0.01,-0.11,-0.02
3339,8221507,63.4404885,10.3490155,15.44,8.588,145.08,0.01,-0.1,-0.02
3349,8221547,63.4404885,10.3490154,15.44,8.586,146.32,0.01,-0.09,-0.02
3362,8221567,63.4404885,10.3490154,15.44,8.586,146.92,0.01,-0.08,-0.02
3370,8221607,63.4404885,10.3490153,15.44,8.586,148.1,0.01,-0.08,-0.02
3382,8221647,63.4404885,10.3490153,15.44,8.589,149.24,0.01,-0.06,-0.02
3394,8221667,63.4404885,10.3490153,15.45,8.592,149.8,0.01,-0.06,-0.02
3399,8221707,63.4404885,10.3490152,15.45,8.597,150.9,0.01,-0.05,-0.02
3413,8221747,63.4404885,10.3490152,15.46,8.606,151.97,0.01,-0.03,-0.03
3425,8221767,63.4404885,10.3490152,15.47,8.613,152.49,0.01,-0.03,-0.04
3430,8221807,63.4404885,10.3490151,15.48,8.625,153.54,0.01,-0.01,-0.05
3444,8221847,63.4404885,10.3490151,15.49,8.639,154.53,0.01,-0.01,-0.06
3456,8221867,63.4404885,10.3490151,15.5,8.648,155.01,0.0,-0.01,-0.07
3462,8221907,63.4404885,10.3490151,15.52,8.664,155.95,0.0,0.0,-0.08
3475,8221927,63.4404885,10.3490151,15.53,8.672,156.39,0.0,0.0,-0.08
3488,8221967,63.4404885,10.3490151,15.55,8.691,157.2,0.0,0.0,-0.08
3497,8222007,63.4404885,10.3490151,15.56,8.707,157.95,0.0,-0.01,-0.08
3505,8222027,63.4404885,10.3490151,15.57,8.715,158.3,0.0,0.0,-0.08
3519,8222067,63.4404885,10.3490151,15.59,8.731,158.93,-0.01,0.0,-0.08
3524,8222107,63.4404885,10.3490151,15.6,8.745,159.52,-0.02,0.0,-0.08
3537,8222127,63.4404885,10.3490151,15.61,8.752,159.79,-0.02,-0.01,-0.08
3550,8222167,63.4404885,10.3490151,15.62,8.761,160.29,-0.02,-0.01,-0.08
3555,8222207,63.4404885,10.3490151,15.63,8.77,160.76,-0.03,0.0,-0.08
3569,8222227,63.4404885,10.3490151,15.63,8.774,160.98,-0.03,0.0,-0.08
3582,8222267,63.4404885,10.3490152,15.63,8.777,161.41,-0.03,0.0,-0.09
3587,8222307,63.4404885,10.3490152,15.64,8.78,161.84,-0.02,0.0,-0.09
3599,8222327,63.4404885,10.3490152,15.64,8.782,162.05,-0.02,0.0,-0.1
3613,8222367,63.4404885,10.3490152,15.63,8.779,162.47,-0.01,0.0,-0.11
3620,8222407,63.4404885,10.3490152,15.63,8.779,162.9,0.0,0.0,-0.13
3633,8222427,63.4404885,10.3490152,15.63,8.779,163.12,0.0,0.0,-0.13
3646,8222467,63.4404885,10.3490152,15.63,8.777,163.54,0.0,0.0,-0.14
3651,8222507,63.4404885,10.3490152,15.63,8.775,163.96,0.01,0.0,-0.15
3664,8222527,63.4404885,10.3490152,15.63,8.775,164.17,0.01,0.01,-0.15
3678,8222567,63.4404885,10.3490152,15.63,8.774,164.55,0.01,0.01,-0.15
3682,8222587,63.4404885,10.3490152,15.63,8.774,164.74,0.01,0.01,-0.15
3697,8222627,63.4404885,10.3490152,15.63,8.775,165.05,0.0,0.02,-0.14
3710,8222667,63.4404885,10.3490152,15.63,8.778,165.29,0.0,0.03,-0.14
3714,8222687,63.4404885,10.3490152,15.63,8.779,165.38,0.0,0.03,-0.13
3728,8222727,63.4404885,10.3490152,15.64,8.78,165.51,0.0,0.03,-0.12
3741,8222767,63.4404885,10.3490153,15.64,8.785,165.58,-0.01,0.03,-0.1
3745,8222787,63.4404885,10.3490153,15.64,8.787,165.59,-0.01,0.03,-0.09
3758,8222827,63.4404885,10.3490153,15.65,8.791,165.6,-0.01,0.03,-0.08
3774,8222867,63.4404885,10.3490154,15.65,8.797,165.58,-0.01,0.03,-0.07
3780,8222887,63.4404885,10.3490154,15.66,8.8,165.56,-0.01,0.03,-0.06
3792,8222927,63.4404885,10.3490154,15.66,8.804,165.52,0.0,0.02,-0.05
3806,8222967,63.4404885,10.3490155,15.67,8.81,165.46,0.0,0.02,-0.04
3810,8222987,63.4404884,10.3490155,15.67,8.812,165.44,0.0,0.03,-0.04
3824,8223027,63.4404884,10.3490155,15.67,8.817,165.39,0.0,0.03,-0.03
3837,8223067,63.4404884,10.3490155,15.68,8.822,165.35,0.01,0.03,-0.02
3841,8223087,63.4404884,10.3490156,15.68,8.824,165.34,0.02,0.03,-0.02
3855,8223127,63.4404884,10.3490156,15.68,8.828,165.33,0.02,0.03,-0.01
3868,8223167,63.4404884,10.3490156,15.69,8.83,165.32,0.03,0.04,0.0
3872,8223187,63.4404885,10.3490157,15.69,8.831,165.32,0.04,0.04,0.0
3887,8223227,63.4404885,10.3490157,15.69,8.832,165.32,0.05,0.05,0.01
3891,8223247,63.4404885,10.3490157,15.69,8.832,165.32,0.05,0.05,0.01
3904,8223287,63.4404885,10.3490158,15.69,8.831,165.32,0.06,0.06,0.03
3918,8223327,63.4404885,10.3490159,15.68,8.829,165.3,0.06,0.07,0.04
3922,8223347,63.4404885,10.3490159,15.68,8.828,165.28,0.06,0.08,0.05
3937,8223387,63.4404885,10.349016,15.68,8.823,165.22,0.07,0.09,0.06
3951,8223427,63.4404885,10.3490161,15.67,8.819,165.14,0.07,0.1,0.07
3955,8223447,63.4404885,10.3490161,15.67,8.816,165.08,0.07,0.1,0.07
3968,8223487,63.4404885,10.3490162,15.67,8.81,164.95,0.07,0.11,0.08
3982,8223527,63.4404885,10.3490163,15.66,8.805,164.79,0.07,0.12,0.08
3996,8223547,63.4404885,10.3490163,15.66,8.801,164.7,0.07,0.12,0.09
4000,8223587,63.4404885,10.3490165,15.65,8.795,164.5,0.07,0.12,0.09
4014,8223627,63.4404885,10.3490166,15.64,8.789,164.28,0.07,0.13,0.09
4019,8223647,63.4404885,10.3490166,15.64,8.786,164.16,0.07,0.13,0.08
4032,8223687,63.4404886,10.3490167,15.63,8.779,163.92,0.07,0.13,0.08
4046,8223727,63.4404886,10.3490168,15.63,8.774,163.67,0.07,0.12,0.07
4050,8223747,63.4404886,10.3490169,15.63,8.771,163.54,0.07,0.12,0.07
4063,8223787,63.4404886,10.349017,15.62,8.764,163.28,0.07,0.12,0.06
4077,8223827,63.4404886,10.3490171,15.61,8.759,163.02,0.07,0.12,0.04
4081,8223847,63.4404887,10.3490171,15.61,8.755,162.89,0.07,0.12,0.03
4094,8223887,63.4404887,10.3490172,15.6,8.748,162.65,0.07,0.12,0.02
4108,8223907,63.4404887,10.3490173,15.6,8.745,162.53,0.07,0.12,0.01
4113,8223947,63.4404887,10.3490174,15.59,8.739,162.31,0.07,0.12,0.0
4126,8223987,63.4404887,10.3490175,15.59,8.732,162.1,0.08,0.12,-0.01
4137,8224007,63.4404887,10.3490176,15.59,8.73,162.0,0.08,0.13,-0.01
4144,8224047,63.4404888,10.3490177,15.58,8.725,161.82,0.08,0.13,-0.03
4157,8224087,63.4404888,10.3490178,15.58,8.722,161.64,0.08,0.13,-0.04
4164,8224107,63.4404888,10.3490178,15.58,8.72,161.55,0.08,0.13,-0.04
4175,8224147,63.4404888,10.349018,15.58,8.72,161.37,0.08,0.14,-0.05
4188,8224187,63.4404889,10.3490181,15.58,8.721,161.17,0.08,0.15,-0.06
4195,8224207,63.4404889,10.3490181,15.58,8.722,161.07,0.07,0.15,-0.07
4207,8224247,63.4404889,10.3490183,15.58,8.727,160.83,0.07,0.15,-0.08
4220,8224287,63.4404889,10.3490184,15.59,8.736,160.56,0.07,0.15,-0.09
4228,8224307,63.4404889,10.3490184,15.59,8.739,160.41,0.06,0.14,-0.09
4238,8224347,63.4404889,10.3490186,15.6,8.749,160.09,0.06,0.14,-0.1
4253,8224387,63.4404889,10.3490187,15.62,8.761,159.73,0.06,0.13,-0.12
4257,8224407,63.440489,10.3490187,15.62,8.767,159.55,0.06,0.13,-0.12
4271,8224447,63.440489,10.3490188,15.63,8.777,159.16,0.06,0.12,-0.13
4284,8224487,63.440489,10.3490189,15.64,8.787,158.77,0.06,0.11,-0.14
4288,8224507,63.440489,10.349019,15.65,8.792,158.57,0.06,0.1,-0.15
4302,8224547,63.440489,10.3490191,15.65,8.796,158.18,0.06,0.08,-0.15
4315,8224567,63.440489,10.3490191,15.65,8.796,157.98,0.06,0.08,-0.15
4323,8224607,63.440489,10.3490192,15.65,8.797,157.59,0.07,0.06,-0.15
4335,8224647,63.4404891,10.3490192,15.65,8.791,157.22,0.07,0.05,-0.15
4347,8224667,63.4404891,10.3490192,15.64,8.784,157.02,0.07,0.04,-0.14
4352,8224707,63.4404891,10.3490193,15.63,8.773,156.67,0.07,0.03,-0.13
4366,8224747,63.4404891,10.3490193,15.61,8.755,156.34,0.07,0.02,-0.11
4378,8224767,63.4404891,10.3490193,15.6,8.744,156.18,0.07,0.01,-0.11
4383,8224807,63.4404891,10.3490193,15.58,8.724,155.87,0.07,0.01,-0.09
4397,8224847,63.4404892,10.3490193,15.56,8.701,155.58,0.07,0.0,-0.07
4409,8224867,63.4404892,10.3490193,15.54,8.689,155.43,0.08,0.0,-0.06
4415,8224907,63.4404892,10.3490193,15.52,8.666,155.16,0.08,0.0,-0.04
4429,8224947,63.4404892,10.3490193,15.5,8.646,154.89,0.08,0.0,-0.02
4441,8224967,63.4404892,10.3490193,15.49,8.638,154.76,0.08,0.0,-0.02
4450,8225007,63.4404892,10.3490193,15.48,8.622,154.52,0.08,-0.01,-0.01
4460,8225047,63.4404893,10.3490192,15.47,8.613,154.27,0.08,-0.01,0.0
4472,8225067,63.4404893,10.3490192,15.47,8.611,154.15,0.07,-0.01,-0.01
4477,8225107,63.4404893,10.3490192,15.46,8.608,153.92,0.07,-0.02,-0.01
4491,8225147,63.4404893,10.3490192,15.47,8.613,153.69,0.07,-0.02,-0.02
4503,8225167,63.4404893,10.3490192,15.47,8.618,153.58,0.07,-0.02,-0.03
4508,8225207,63.4404893,10.3490192,15.48,8.628,153.36,0.06,-0.03,-0.04
4522,8225227,63.4404894,10.3490192,15.49,8.633,153.25,0.06,-0.03,-0.05
4535,8225267,63.4404894,10.3490192,15.51,8.653,153.04,0.06,-0.04,-0.06
4540,8225307,63.4404894,10.3490191,15.53,8.67,152.85,0.05,-0.04,-0.07
4552,8225327,63.4404894,10.3490191,15.53,8.679,152.75,0.05,-0.04,-0.08
4566,8225367,63.4404894,10.3490191,15.55,8.698,152.57,0.05,-0.05,-0.08
4573,8225407,63.4404894,10.349019,15.57,8.715,152.4,0.05,-0.06,-0.08
4585,8225427,63.4404894,10.349019,15.58,8.723,152.32,0.05,-0.06,-0.08
4599,8225467,63.4404894,10.349019,15.59,8.735,152.16,0.04,-0.06,-0.08
4604,8225507,63.4404894,10.349019,15.6,8.746,152.03,0.04,-0.06,-0.07
4616,8225527,63.4404894,10.349019,15.61,8.751,151.97,0.04,-0.06,-0.07
4631,8225567,63.4404895,10.349019,15.61,8.753,151.85,0.03,-0.05,-0.06
4640,8225607,63.4404895,10.349019,15.61,8.754,151.74,0.03,-0.04,-0.04
4649,8225627,63.4404895,10.349019,15.61,8.755,151.68,0.03,-0.04,-0.04
4663,8225667,63.4404895,10.3490189,15.61,8.75,151.56,0.03,-0.03,-0.02
4671,8225707,63.4404895,10.3490189,15.6,8.746,151.44,0.03,-0.02,-0.01
4681,8225727,63.4404895,10.3490189,15.6,8.744,151.37,0.03,-0.01,-0.01
4694,8225767,63.4404895,10.3490189,15.59,8.736,151.22,0.03,0.0,0.0
4702,8225807,63.4404895,10.3490189,15.58,8.729,151.06,0.02,0.0,0.0
4712,8225827,63.4404895,10.3490189,15.58,8.726,150.98,0.02,0.0,0.0
4725,8225867,63.4404895,10.3490189,15.58,8.72,150.82,0.02,0.01,0.01
4731,8225887,63.4404895,10.3490189,15.57,8.717,150.74,0.02,0.01,0.01
4743,8225927,63.4404895,10.349019,15.57,8.712,150.59,0.01,0.01,0.01
4757,8225967,63.4404895,10.349019,15.57,8.71,150.45,0.01,0.01,0.01
4761,8225987,63.4404896,10.349019,15.56,8.708,150.4,0.01,0.01,0.01
4774,8226027,63.4404896,10.349019,15.56,8.706,150.3,0.0,0.01,0.01
4788,8226067,63.4404896,10.349019,15.56,8.706,150.22,0.0,0.01,0.01
4792,8226087,63.4404896,10.349019,15.56,8.706,150.19,0.0,0.01,0.01
4805,8226127,63.4404896,10.349019,15.56,8.706,150.15,0.0,0.0,0.01
4819,8226167,63.4404896,10.3490191,15.56,8.708,150.12,0.0,0.0,0.01
4823,8226187,63.4404896,10.3490191,15.56,8.708,150.12,0.0,0.0,0.01
4838,8226227,63.4404896,10.3490191,15.57,8.71,150.11,0.0,0.0,0.0
4851,8226267,63.4404896,10.3490191,15.57,8.711,150.12,0.0,0.0,0.0
4855,8226287,63.4404896,10.3490191,15.57,8.712,150.12,0.0,0.0,0.0
4868,8226327,63.4404896,10.3490191,15.57,8.713,150.13,0.0,0.0,0.0
4882,8226367,63.4404896,10.3490191,15.57,8.714,150.12,0.0,0.0,0.0
4888,8226387,63.4404896,10.3490191,15.57,8.714,150.12,0.0,0.0,0.0
4901,8226427,63.4404896,10.3490191,15.57,8.715,150.11,0.01,0.0,0.0
4915,8226467,63.4404896,10.3490191,15.57,8.715,150.08,0.01,0.0,0.0
4919,8226487,63.4404896,10.3490191,15.57,8.716,150.06,0.01,0.01,0.0
4933,8226527,63.4404896,10.3490191,15.57,8.717,150.02,0.01,0.01,-0.01
4938,8226547,63.4404896,10.3490191,15.57,8.717,149.99,0.02,0.01,-0.01
4951,8226587,63.4404896,10.3490191,15.57,8.719,149.93,0.02,0.02,-0.02
4965,8226627,63.4404897,10.3490191,15.58,8.72,149.87,0.02,0.02,-0.02
4970,8226647,63.4404897,10.3490191,15.58,8.722,149.84,0.02,0.02,-0.02
4983,8226687,63.4404897,10.3490192,15.58,8.724,149.78,0.02,0.02,-0.03
4996,8226727,63.4404897,10.3490192,15.58,8.727,149.73,0.02,0.03,-0.04
5001,8226747,63.4404897,10.3490192,15.59,8.73,149.72,0.02,0.03,-0.04
5014,8226787,63.4404897,10.3490193,15.59,8.734,149.69,0.02,0.03,-0.03
5028,8226827,63.4404897,10.3490193,15.59,8.738,149.69,0.01,0.02,-0.03
5032,8226847,63.4404897,10.3490193,15.6,8.741,149.7,0.01,0.02,-0.03
5047,8226887,63.4404897,10.3490194,15.6,8.747,149.72,0.01,0.02,-0.03
5059,8226927,63.4404897,10.3490194,15.61,8.751,149.76,0.01,0.01,-0.02
5064,8226947,63.4404897,10.3490194,15.61,8.753,149.79,0.01,0.01,-0.02
5077,8226987,63.4404898,10.3490194,15.61,8.757,149.83,0.01,0.01,-0.01
5090,8227027,63.4404898,10.3490195,15.62,8.76,149.88,0.01,0.01,-0.01
5095,8227047,63.4404898,10.3490195,15.62,8.76,149.9,0.01,0.0,0.0
5108,8227087,63.4404898,10.3490195,15.62,8.761,149.93,0.01,0.0,0.0
5121,8227127,63.4404898,10.3490195,15.62,8.762,149.94,0.01,0.01,0.0
5126,8227147,63.4404898,10.3490195,15.62,8.761,149.94,0.01,0.01,0.0
5139,8227187,63.4404898,10.3490196,15.61,8.759,149.93,0.02,0.01,0.0
5153,8227207,63.4404898,10.3490196,15.61,8.758,149.93,0.02,0.01,0.0
5158,8227247,63.4404898,10.3490196,15.61,8.756,149.91,0.04,0.01,0.0
5171,8227287,63.4404898,10.3490197,15.61,8.752,149.88,0.05,0.02,0.01
5184,8227307,63.4404899,10.3490197,15.61,8.751,149.88,0.06,0.02,0.01
5189,8227347,63.4404899,10.3490197,15.6,8.748,149.86,0.07,0.02,0.01
5204,8227387,63.4404899,10.3490198,15.6,8.746,149.85,0.08,0.02,0.02
5208,8227407,63.4404899,10.3490198,15.6,8.745,149.85,0.08,0.02,0.02
5222,8227447,63.44049,10.3490199,15.6,8.746,149.84,0.09,0.03,0.02
5235,8227487,63.44049,10.3490199,15.6,8.747,149.84,0.09,0.03,0.03
5248,8227507,63.44049,10.3490199,15.6,8.748,149.83,0.09,0.03,0.03
5253,8227547,63.4404901,10.34902,15.61,8.752,149.82,0.08,0.04,0.02
5267,8227587,63.4404901,10.34902,15.61,8.758,149.8,0.08,0.04,0.03
5272,8227607,63.4404901,10.3490201,15.62,8.761,149.78,0.07,0.04,0.03
5286,8227647,63.4404901,10.3490201,15.62,8.768,149.75,0.07,0.04,0.03
5299,8227687,63.4404902,10.3490202,15.63,8.775,149.71,0.06,0.04,0.03
5305,8227707,63.4404902,10.3490202,15.63,8.779,149.69,0.05,0.04,0.03
5317,8227747,63.4404902,10.3490203,15.64,8.785,149.62,0.04,0.04,0.02
5330,8227787,63.4404902,10.3490204,15.65,8.791,149.52,0.03,0.05,0.02
5334,8227807,63.4404902,10.3490204,15.65,8.794,149.46,0.02,0.05,0.01
5348,8227847,63.4404903,10.3490205,15.65,8.797,149.3,0.01,0.06,0.0
5360,8227867,63.4404903,10.3490205,15.65,8.797,149.2,0.01,0.06,0.0
5368,8227907,63.4404903,10.3490206,15.65,8.798,148.99,0.0,0.06,0.0
5380,8227947,63.4404903,10.3490207,15.65,8.796,148.74,0.0,0.06,-0.01
5394,8227967,63.4404903,10.3490207,15.65,8.793,148.6,0.0,0.06,-0.02
5398,8228007,63.4404903,10.3490208,15.64,8.789,148.33,0.0,0.06,-0.03
5411,8228047,63.4404903,10.3490209,15.64,8.782,148.04,0.0,0.05,-0.05
5423,8228067,63.4404903,10.3490209,15.63,8.777,147.9,0.0,0.05,-0.05
5431,8228107,63.4404903,10.349021,15.62,8.769,147.63,0.0,0.04,-0.06
5442,8228147,63.4404903,10.349021,15.62,8.761,147.38,0.0,0.04,-0.08
5454,8228167,63.4404903,10.3490211,15.61,8.756,147.27,0.01,0.04,-0.08
5462,8228207,63.4404903,10.3490211,15.6,8.748,147.07,0.01,0.03,-0.09
5474,8228247,63.4404903,10.3490212,15.6,8.742,146.91,0.02,0.03,-0.09
5486,8228267,63.4404903,10.3490212,15.59,8.739,146.83,0.03,0.03,-0.1
5493,8228307,63.4404903,10.3490213,15.59,8.735,146.71,0.03,0.02,-0.1
5505,8228347,63.4404904,10.3490213,15.59,8.734,146.6,0.04,0.02,-0.1
5517,8228367,63.4404904,10.3490214,15.59,8.735,146.55,0.05,0.02,-0.1
5524,8228407,63.4404904,10.3490214,15.59,8.737,146.45,0.05,0.02,-0.1
5538,8228447,63.4404904,10.3490214,15.6,8.743,146.35,0.06,0.01,-0.1
5550,8228467,63.4404904,10.3490215,15.6,8.747,146.3,0.06,0.01,-0.1
5557,8228507,63.4404904,10.3490215,15.61,8.755,146.18,0.06,0.01,-0.1
5567,8228527,63.4404905,10.3490215,15.61,8.759,146.12,0.06,0.01,-0.1
5582,8228567,63.4404905,10.3490216,15.63,8.771,145.97,0.07,0.01,-0.1
5597,8228607,63.4404905,10.3490216,15.64,8.782,145.82,0.07,0.0,-0.11
5611,8228627,63.4404905,10.3490216,15.64,8.788,145.74,0.06,0.0,-0.1
5614,8228667,63.4404906,10.3490217,15.65,8.799,145.55,0.06,0.0,-0.11
5628,8228707,63.4404906,10.3490217,15.66,8.809,145.36,0.05,0.0,-0.1
5632,8228727,63.4404906,10.3490217,15.67,8.813,145.27,0.05,-0.01,-0.1
5645,8228767,63.4404906,10.3490217,15.67,8.816,145.06,0.05,-0.01,-0.08
5654,8228807,63.4404906,10.3490217,15.67,8.819,144.87,0.04,-0.02,-0.07
5662,8228827,63.4404906,10.3490217,15.68,8.821,144.76,0.04,-0.02,-0.06
5676,8228867,63.4404907,10.3490217,15.67,8.814,144.56,0.03,-0.03,-0.05
5689,8228907,63.4404907,10.3490217,15.66,8.808,144.34,0.03,-0.03,-0.04
5694,8228927,63.4404907,10.3490217,15.66,8.805,144.23,0.02,-0.03,-0.03
5708,8228967,63.4404907,10.3490217,15.65,8.79,143.99,0.02,-0.03,-0.01
5713,8229007,63.4404907,10.3490217,15.63,8.777,143.75,0.01,-0.02,0.0
5725,8229027,63.4404907,10.3490217,15.63,8.771,143.63,0.01,-0.02,0.0
5739,8229067,63.4404907,10.3490217,15.61,8.755,143.37,0.01,-0.02,0.01
5744,8229107,63.4404907,10.3490218,15.6,8.741,143.11,0.0,-0.01,0.01
5758,8229127,63.4404907,10.3490218,15.59,8.735,142.97,0.0,-0.01,0.01
5770,8229167,63.4404907,10.3490218,15.58,8.725,142.69,0.0,0.0,0.01
5774,8229187,63.4404907,10.3490218,15.58,8.721,142.56,0.0,0.0,0.01
5788,8229227,63.4404907,10.3490218,15.57,8.713,142.26,0.0,0.0,0.01
5802,8229267,63.4404907,10.3490218,15.57,8.714,141.97,-0.01,0.0,0.0
5806,8229287,63.4404907,10.3490219,15.57,8.715,141.83,-0.01,0.01,0.0
5819,8229327,63.4404906,10.3490219,15.57,8.717,141.53,-0.02,0.01,0.0
5833,8229367,63.4404906,10.3490219,15.59,8.73,141.24,-0.02,0.01,0.0
5839,8229387,63.4404906,10.3490219,15.59,8.736,141.1,-0.02,0.01,0.0
5852,8229427,63.4404906,10.349022,15.6,8.746,140.83,-0.02,0.01,-0.01
5866,8229467,63.4404906,10.349022,15.62,8.767,140.58,-0.02,0.01,-0.02
5870,8229487,63.4404906,10.349022,15.63,8.776,140.46,-0.02,0.01,-0.02
5883,8229527,63.4404906,10.349022,15.65,8.792,140.22,-0.02,0.01,-0.02
5898,8229567,63.4404906,10.3490221,15.67,8.812,140.01,-0.01,0.01,-0.02
5902,8229587,63.4404906,10.3490221,15.68,8.821,139.92,-0.01,0.0,-0.02
5916,8229627,63.4404906,10.3490221,15.69,8.838,139.74,-0.01,0.0,-0.02
5930,8229667,63.4404906,10.3490221,15.71,8.852,139.58,0.0,0.0,-0.02
5934,8229687,63.4404906,10.3490221,15.71,8.858,139.51,0.0,0.0,-0.02
5947,8229727,63.4404906,10.3490221,15.72,8.869,139.39,0.0,0.0,-0.01
5961,8229767,63.4404906,10.3490221,15.73,8.872,139.29,0.0,0.0,0.0
5965,8229787,63.4404906,10.3490221,15.73,8.873,139.25,0.0,0.0,0.0
5978,8229827,63.4404906,10.3490221,15.73,8.875,139.17,0.01,-0.01,0.0
5983,8229847,63.4404906,10.3490221,15.73,8.871,139.14,0.01,-0.01,0.01
5998,8229887,63.4404906,10.3490222,15.72,8.862,139.08,0.01,-0.01,0.02
6010,8229927,63.4404906,10.3490222,15.71,8.855,139.02,0.02,0.0,0.03
6015,8229947,63.4404906,10.3490222,15.7,8.846,138.99,0.02,0.0,0.04
6028,8229987,63.4404906,10.3490222,15.69,8.83,138.93,0.02,0.0,0.05
6041,8230027,63.4404907,10.3490222,15.67,8.816,138.86,0.03,0.0,0.05
6046,8230047,63.4404907,10.3490222,15.66,8.806,138.83,0.03,0.0,0.06
6059,8230087,63.4404907,10.3490222,15.64,8.787,138.76,0.04,0.0,0.06
6073,8230127,63.4404907,10.3490222,15.63,8.771,138.7,0.04,0.01,0.07
6077,8230147,63.4404907,10.3490222,15.62,8.764,138.67,0.04,0.01,0.07
6090,8230187,63.4404907,10.3490222,15.61,8.75,138.6,0.05,0.02,0.07
6105,8230227,63.4404907,10.3490223,15.59,8.737,138.54,0.06,0.02,0.06
6109,8230247,63.4404907,10.3490223,15.59,8.735,138.51,0.06,0.03,0.06
6122,8230287,63.4404908,10.3490223,15.59,8.73,138.44,0.06,0.03,0.05
6135,8230327,63.4404908,10.3490224,15.58,8.726,138.38,0.06,0.04,0.03
6140,8230347,63.4404908,10.3490224,15.58,8.729,138.34,0.06,0.04,0.02
6155,8230387,63.4404908,10.3490224,15.59,8.735,138.27,0.06,0.04,0.0
6169,8230427,63.4404908,10.3490225,15.6,8.74,138.21,0.06,0.05,-0.01
6173,8230447,63.4404909,10.3490225,15.6,8.747,138.17,0.06,0.05,-0.02
6186,8230487,63.4404909,10.3490225,15.62,8.761,138.11,0.06,0.05,-0.04
6192,8230507,63.4404909,10.3490226,15.62,8.767,138.08,0.06,0.04,-0.05
6209,8230547,63.4404909,10.3490226,15.64,8.781,138.02,0.05,0.04,-0.07
6218,8230587,63.4404909,10.3490227,15.65,8.797,137.95,0.05,0.04,-0.09
6228,8230607,63.4404909,10.3490227,15.66,8.804,137.92,0.05,0.04,-0.09
6237,8230647,63.440491,10.3490227,15.67,8.818,137.85,0.04,0.03,-0.1
6250,8230687,63.440491,10.3490228,15.69,8.83,137.78,0.04,0.03,-0.11
6254,8230707,63.440491,10.3490228,15.69,8.835,137.75,0.04,0.02,-0.1
6268,8230747,63.440491,10.3490228,15.7,8.842,137.68,0.04,0.01,-0.1
6281,8230787,63.440491,10.3490228,15.7,8.845,137.61,0.04,0.01,-0.09
6285,8230807,63.440491,10.3490229,15.7,8.846,137.57,0.04,0.01,-0.09
6299,8230847,63.440491,10.3490229,15.7,8.845,137.51,0.04,0.0,-0.08
6314,8230887,63.4404911,10.3490229,15.69,8.839,137.45,0.04,0.0,-0.07
6317,8230907,63.4404911,10.3490229,15.69,8.836,137.42,0.04,0.0,-0.07
6331,8230947,63.4404911,10.3490229,15.68,8.827,137.37,0.04,0.0,-0.06
6344,8230987,63.4404911,10.3490229,15.67,8.815,137.32,0.05,0.0,-0.04
6351,8231007,63.4404911,10.3490229,15.66,8.809,137.29,0.05,0.0,-0.04
6362,8231047,63.4404911,10.349023,15.65,8.797,137.24,0.05,0.0,-0.03
6375,8231087,63.4404911,10.349023,15.64,8.784,137.2,0.05,0.0,-0.01
6388,8231107,63.4404911,10.349023,15.63,8.778,137.17,0.05,0.0,-0.01
6393,8231147,63.4404912,10.349023,15.62,8.767,137.11,0.05,0.0,0.0
6405,8231167,63.4404912,10.349023,15.62,8.762,137.08,0.05,0.0,0.0
6417,8231207,63.4404912,10.349023,15.61,8.753,137.02,0.05,0.0,0.01
6425,8231247,63.4404912,10.349023,15.6,8.747,136.94,0.04,0.0,0.02
6437,8231267,63.4404912,10.349023,15.6,8.745,136.9,0.04,0.0,0.02
6451,8231307,63.4404912,10.349023,15.6,8.742,136.8,0.03,0.0,0.02
6456,8231347,63.4404912,10.349023,15.6,8.742,136.7,0.02,0.0,0.02
6468,8231367,63.4404912,10.349023,15.6,8.744,136.65,0.02,0.0,0.02
6477,8231407,63.4404912,10.349023,15.6,8.747,136.55,0.01,0.0,0.02
6489,8231447,63.4404912,10.349023,15.61,8.753,136.44,0.0,0.0,0.01
6501,8231467,63.4404912,10.349023,15.61,8.756,136.39,0.0,0.0,0.01
6509,8231507,63.4404912,10.349023,15.62,8.764,136.29,0.0,-0.01,0.0
6520,8231547,63.4404912,10.349023,15.63,8.772,136.19,-0.01,-0.01,0.0
6533,8231567,63.4404912,10.349023,15.63,8.777,136.14,-0.02,-0.01,-0.01
6542,8231607,63.4404912,10.349023,15.64,8.786,136.05,-0.02,-0.01,-0.02
6553,8231647,63.4404912,10.349023,15.65,8.795,135.97,-0.03,-0.01,-0.02
6565,8231667,63.4404912,10.349023,15.65,8.799,135.94,-0.03,-0.01,-0.03
6579,8231707,63.4404912,10.349023,15.66,8.808,135.87,-0.03,-0.01,-0.04
6585,8231747,63.4404912,10.349023,15.67,8.816,135.8,-0.02,-0.01,-0.04
6597,8231767,63.4404912,10.349023,15.68,8.82,135.77,-0.02,-0.01,-0.04
6604,8231807,63.4404912,10.349023,15.68,8.827,135.71,-0.02,0.0,-0.05
6615,8231827,63.4404912,10.349023,15.69,8.831,135.68,-0.01,0.0,-0.05
6628,8231867,63.4404912,10.349023,15.69,8.839,135.63,-0.01,0.0,-0.06
6636,8231907,63.4404912,10.349023,15.7,8.846,135.57,-0.01,0.0,-0.06
6646,8231927,63.4404912,10.349023,15.7,8.849,135.54,0.0,0.0,-0.06
6660,8231967,63.4404912,10.349023,15.71,8.857,135.47,0.0,0.01,-0.06
6668,8232007,63.4404912,10.349023,15.72,8.864,135.4,0.0,0.01,-0.06
6677,8232027,63.4404912,10.349023,15.72,8.868,135.36,0.0,0.01,-0.06
6691,8232067,63.4404912,10.349023,15.73,8.875,135.28,0.0,0.01,-0.05
6705,8232107,63.4404912,10.349023,15.74,8.881,135.19,0.01,0.01,-0.04
6708,8232127,63.4404912,10.349023,15.74,8.884,135.14,0.01,0.01,-0.04
6723,8232167,63.4404912,10.349023,15.74,8.888,135.06,0.01,0.0,-0.03
6737,8232207,63.4404912,10.349023,15.75,8.892,134.98,0.01,0.0,-0.01
6741,8232227,63.4404912,10.349023,15.75,8.893,134.94,0.01,0.0,-0.01
6755,8232267,63.4404912,10.349023,15.75,8.893,134.88,0.01,0.0,0.0
6759,8232307,63.4404912,10.349023,15.75,8.893,134.83,0.01,0.0,0.0
6771,8232327,63.4404912,10.3490229,15.75,8.892,134.81,0.01,-0.01,0.01
6785,8232367,63.4404912,10.3490229,15.74,8.886,134.78,0.01,-0.02,0.02
6794,8232407,63.4404912,10.3490229,15.74,8.881,134.76,0.02,-0.03,0.03
6804,8232427,63.4404912,10.3490229,15.73,8.878,134.76,0.02,-0.03,0.03
6818,8232467,63.4404912,10.3490229,15.72,8.869,134.75,0.02,-0.04,0.03
6822,8232487,63.4404912,10.3490229,15.72,8.865,134.76,0.03,-0.04,0.03
6836,8232527,63.4404912,10.3490229,15.71,8.858,134.76,0.04,-0.04,0.03
6850,8232567,63.4404913,10.3490228,15.7,8.849,134.75,0.04,-0.04,0.03
6854,8232587,63.4404913,10.3490228,15.7,8.845,134.75,0.05,-0.04,0.02
6869,8232627,63.4404913,10.3490228,15.69,8.838,134.73,0.06,-0.04,0.02
6882,8232667,63.4404913,10.3490227,15.69,8.833,134.71,0.07,-0.04,0.01
6886,8232687,63.4404913,10.3490227,15.69,8.831,134.7,0.07,-0.04,0.0
6899,8232727,63.4404913,10.3490227,15.68,8.828,134.67,0.08,-0.04,0.0
6913,8232767,63.4404914,10.3490226,15.68,8.829,134.64,0.08,-0.04,0.0
6917,8232787,63.4404914,10.3490226,15.68,8.829,134.62,0.08,-0.05,-0.01
6930,8232827,63.4404914,10.3490226,15.69,8.831,134.59,0.08,-0.04,-0.01
6944,8232867,63.4404914,10.3490225,15.69,8.838,134.57,0.08,-0.04,-0.02
6959,8232887,63.4404915,10.3490225,15.7,8.841,134.56,0.08,-0.04,-0.02
6973,8232927,63.4404915,10.3490225,15.7,8.847,134.54,0.07,-0.04,-0.03
6976,8232967,63.4404915,10.3490224,15.71,8.857,134.52,0.07,-0.04,-0.03
6980,8232987,63.4404915,10.3490224,15.72,8.862,134.51,0.06,-0.04,-0.03
6993,8233027,63.4404915,10.3490224,15.73,8.872,134.5,0.05,-0.03,-0.04
7007,8233067,63.4404916,10.3490224,15.74,8.884,134.48,0.04,-0.03,-0.04
7011,8233087,63.4404916,10.3490223,15.75,8.89,134.47,0.04,-0.02,-0.04
7024,8233127,63.4404916,10.3490223,15.76,8.9,134.45,0.03,-0.02,-0.05
7029,8233147,63.4404916,10.3490223,15.76,8.905,134.43,0.02,-0.02,-0.05
7042,8233187,63.4404916,10.3490223,15.77,8.915,134.4,0.01,-0.01,-0.06
7056,8233227,63.4404916,10.3490223,15.78,8.923,134.35,0.01,-0.01,-0.06
7061,8233247,63.4404916,10.3490223,15.78,8.926,134.32,0.0,0.0,-0.07
7074,8233287,63.4404916,10.3490223,15.79,8.93,134.26,0.0,0.0,-0.07
7087,8233327,63.4404916,10.3490223,15.79,8.934,134.2,0.0,0.0,-0.08
7092,8233347,63.4404916,10.3490223,15.79,8.932,134.16,-0.01,0.0,-0.08
7107,8233387,63.4404916,10.3490223,15.79,8.93,134.1,-0.01,0.0,-0.09
7120,8233427,63.4404916,10.3490222,15.78,8.928,134.05,-0.01,-0.01,-0.09
7125,8233447,63.4404916,10.3490222,15.78,8.923,134.03,-0.01,-0.01,-0.09
7138,8233487,63.4404916,10.3490222,15.77,8.914,134.0,-0.01,-0.02,-0.09
7151,8233527,63.4404916,10.3490222,15.76,8.905,133.99,0.0,-0.03,-0.09
7157,8233547,63.4404916,10.3490222,15.75,8.898,133.99,0.0,-0.03,-0.09
7170,8233587,63.4404916,10.3490221,15.74,8.886,134.02,0.0,-0.03,-0.09
7185,8233627,63.4404916,10.3490221,15.73,8.876,134.05,0.0,-0.04,-0.09
7189,8233647,63.4404916,10.3490221,15.73,8.87,134.08,0.0,-0.04,-0.09
7202,8233687,63.4404916,10.349022,15.72,8.86,134.12,0.01,-0.04,-0.09
7216,8233727,63.4404916,10.349022,15.71,8.851,134.17,0.01,-0.04,-0.08
7220,8233747,63.4404916,10.3490219,15.7,8.849,134.2,0.0,-0.04,-0.08
7233,8233787,63.4404916,10.3490219,15.7,8.845,134.24,0.0,-0.04,-0.08
7239,8233807,63.4404916,10.3490219,15.7,8.843,134.26,0.0,-0.04,-0.07
7251,8233847,63.4404916,10.3490218,15.7,8.844,134.29,0.0,-0.04,-0.06
7265,8233887,63.4404916,10.3490218,15.7,8.848,134.33,0.0,-0.04,-0.05
7270,8233907,63.4404916,10.3490217,15.71,8.85,134.35,0.0,-0.04,-0.05
7283,8233947,63.4404916,10.3490217,15.71,8.857,134.39,0.0,-0.05,-0.04
7296,8233987,63.4404916,10.3490216,15.72,8.868,134.42,0.0,-0.05,-0.03
7303,8234007,63.4404916,10.3490216,15.73,8.873,134.44,-0.01,-0.05,-0.02
7314,8234047,63.4404916,10.3490216,15.74,8.886,134.48,-0.01,-0.05,-0.01
7327,8234087,63.4404916,10.3490215,15.76,8.901,134.52,-0.02,-0.05,-0.01
7340,8234107,63.4404916,10.3490215,15.76,8.908,134.53,-0.02,-0.06,0.0
7345,8234147,63.4404916,10.3490214,15.78,8.922,134.57,-0.03,-0.06,0.0
7358,8234187,63.4404916,10.3490214,15.79,8.938,134.61,-0.03,-0.06,0.0
7372,8234207,63.4404916,10.3490213,15.8,8.945,134.63,-0.03,-0.06,0.0
7377,8234247,63.4404916,10.3490213,15.81,8.958,134.67,-0.03,-0.06,0.0
7390,8234287,63.4404916,10.3490212,15.83,8.97,134.71,-0.04,-0.06,0.0
7398,8234307,63.4404916,10.3490212,15.83,8.976,134.73,-0.04,-0.06,0.0
7408,8234347,63.4404916,10.3490211,15.84,8.984,134.76,-0.04,-0.05,0.0
7423,8234387,63.4404916,10.3490211,15.85,8.99,134.79,-0.03,-0.05,0.0
7431,8234407,63.4404916,10.3490211,15.85,8.992,134.8,-0.02,-0.06,0.01
7441,8234447,63.4404916,10.349021,15.85,8.994,134.81,-0.02,-0.05,0.01
7453,8234467,63.4404916,10.349021,15.85,8.993,134.81,-0.01,-0.04,0.0
7458,8234507,63.4404915,10.349021,15.85,8.992,134.81,-0.01,-0.03,0.0
7473,8234547,63.4404915,10.3490209,15.84,8.988,134.79,0.0,-0.02,0.0
7485,8234567,63.4404915,10.3490209,15.84,8.985,134.77,0.0,-0.02,0.0
7491,8234607,63.4404915,10.3490209,15.84,8.98,134.73,0.0,-0.01,0.0
7505,8234647,63.4404915,10.3490209,15.83,8.974,134.67,0.01,-0.01,0.0
7517,8234667,63.4404915,10.3490209,15.83,8.971,134.64,0.01,0.0,0.01
7525,8234707,63.4404916,10.3490209,15.82,8.965,134.59,0.02,0.0,0.01
7536,8234747,63.4404916,10.3490209,15.82,8.961,134.55,0.03,0.0,0.02
7548,8234767,63.4404916,10.3490209,15.81,8.959,134.53,0.03,0.0,0.02
7553,8234807,63.4404916,10.3490208,15.81,8.955,134.52,0.04,0.0,0.03
7567,8234847,63.4404916,10.3490208,15.81,8.952,134.54,0.04,-0.01,0.04
7579,8234867,63.4404916,10.3490208,15.81,8.952,134.55,0.04,-0.01,0.04
7588,8234907,63.4404916,10.3490208,15.81,8.95,134.61,0.05,-0.01,0.05
7599,8234947,63.4404916,10.3490208,15.81,8.95,134.68,0.05,-0.02,0.06
7611,8234967,63.4404916,10.3490207,15.8,8.949,134.73,0.05,-0.03,0.07
7621,8235007,63.4404916,10.3490207,15.8,8.949,134.84,0.06,-0.03,0.07
7630,8235047,63.4404916,10.3490207,15.8,8.948,134.94,0.06,-0.04,0.08
7642,8235067,63.4404916,10.3490207,15.8,8.948,135.0,0.06,-0.04,0.08
7647,8235107,63.4404917,10.3490206,15.8,8.947,135.1,0.06,-0.04,0.08
7659,8235127,63.4404917,10.3490206,15.8,8.946,135.14,0.07,-0.04,0.08
7673,8235167,63.4404917,10.3490205,15.8,8.946,135.21,0.07,-0.05,0.07
7678,8235207,63.4404918,10.3490205,15.8,8.945,135.27,0.07,-0.05,0.06
7691,8235227,63.4404918,10.3490205,15.8,8.944,135.29,0.08,-0.05,0.05
7705,8235267,63.4404918,10.3490204,15.8,8.944,135.31,0.08,-0.05,0.04
7710,8235307,63.4404918,10.3490204,15.8,8.945,135.31,0.08,-0.04,0.02
7722,8235327,63.4404919,10.3490204,15.8,8.945,135.31,0.09,-0.04,0.01
7736,8235367,63.4404919,10.3490203,15.8,8.948,135.28,0.09,-0.04,-0.01
7743,8235407,63.4404919,10.3490203,15.81,8.951,135.25,0.09,-0.05,-0.03
7755,8235427,63.4404919,10.3490203,15.81,8.953,135.23,0.09,-0.05,-0.04
7769,8235467,63.440492,10.3490202,15.81,8.959,135.19,0.1,-0.05,-0.06
7777,8235507,63.440492,10.3490202,15.82,8.965,135.15,0.1,-0.05,-0.08
7786,8235527,63.440492,10.3490202,15.82,8.969,135.14,0.1,-0.05,-0.09
7801,8235567,63.4404921,10.3490201,15.83,8.977,135.11,0.1,-0.06,-0.11
7807,8235607,63.4404921,10.3490201,15.84,8.985,135.1,0.1,-0.06,-0.13
7819,8235627,63.4404921,10.34902,15.84,8.989,135.1,0.1,-0.06,-0.13
7833,8235667,63.4404921,10.34902,15.85,8.997,135.1,0.09,-0.06,-0.14
7841,8235707,63.4404922,10.3490199,15.86,9.004,135.1,0.09,-0.06,-0.15
7850,8235727,63.4404922,10.3490199,15.86,9.007,135.11,0.08,-0.06,-0.15
7864,8235767,63.4404922,10.3490199,15.87,9.011,135.11,0.08,-0.06,-0.15
7868,8235787,63.4404922,10.3490199,15.87,9.014,135.11,0.07,-0.06,-0.15
7881,8235827,63.4404923,10.3490198,15.87,9.018,135.11,0.06,-0.06,-0.14
7895,8235867,63.4404923,10.3490198,15.87,9.017,135.1,0.05,-0.06,-0.13
7900,8235887,63.4404923,10.3490197,15.87,9.017,135.09,0.04,-0.06,-0.12
7913,8235927,63.4404923,10.3490197,15.87,9.016,135.06,0.02,-0.06,-0.11
7927,8235967,63.4404923,10.3490196,15.86,9.008,135.02,0.01,-0.06,-0.09
7931,8235987,63.4404923,10.3490196,15.86,9.004,135.0,0.0,-0.07,-0.08
7945,8236027,63.4404923,10.3490195,15.85,8.997,134.95,0.0,-0.07,-0.07
7958,8236067,63.4404923,10.3490195,15.84,8.985,134.89,-0.01,-0.07,-0.05
7962,8236087,63.4404923,10.3490194,15.83,8.979,134.86,-0.02,-0.07,-0.04
7975,8236127,63.4404923,10.3490194,15.82,8.967,134.8,-0.03,-0.07,-0.03
7989,8236167,63.4404923,10.3490193,15.81,8.951,134.76,-0.03,-0.07,-0.02
7993,8236187,63.4404923,10.3490193,15.8,8.944,134.74,-0.03,-0.07,-0.02
8007,8236227,63.4404923,10.3490192,15.79,8.93,134.73,-0.03,-0.07,-0.01
8021,8236267,63.4404923,10.3490192,15.77,8.915,134.74,-0.03,-0.06,-0.01
8025,8236287,63.4404922,10.3490191,15.76,8.909,134.75,-0.02,-0.06,-0.01
8038,8236327,63.4404922,10.3490191,15.75,8.896,134.79,-0.02,-0.05,-0.01
8052,8236367,63.4404922,10.349019,15.74,8.887,134.84,-0.01,-0.05,-0.02
8069,8236387,63.4404922,10.349019,15.74,8.883,134.88,0.0,-0.04,-0.02
8072,8236427,63.4404922,10.349019,15.73,8.876,134.96,0.0,-0.04,-0.03
8086,8236447,63.4404922,10.349019,15.73,8.875,135.0,0.0,-0.03,-0.03
8089,8236487,63.4404923,10.3490189,15.73,8.874,135.09,0.01,-0.03,-0.04
8102,8236527,63.4404923,10.3490189,15.73,8.874,135.17,0.02,-0.02,-0.05
8108,8236547,63.4404923,10.3490189,15.73,8.878,135.21,0.02,-0.02,-0.05
8121,8236587,63.4404923,10.3490188,15.74,8.885,135.28,0.03,-0.03,-0.06
8135,8236627,63.4404923,10.3490188,15.75,8.892,135.34,0.03,-0.03,-0.06
8140,8236647,63.4404923,10.3490188,15.75,8.899,135.37,0.04,-0.03,-0.06
8153,8236687,63.4404923,10.3490187,15.77,8.911,135.41,0.04,-0.04,-0.06
8166,8236727,63.4404923,10.3490187,15.78,8.922,135.45,0.04,-0.05,-0.05
8171,8236747,63.4404923,10.3490187,15.78,8.928,135.46,0.04,-0.05,-0.05
8184,8236787,63.4404923,10.3490186,15.8,8.94,135.49,0.03,-0.07,-0.04
8197,8236827,63.4404924,10.3490185,15.8,8.949,135.52,0.03,-0.08,-0.03
8202,8236847,63.4404924,10.3490185,15.81,8.953,135.53,0.02,-0.08,-0.03
8216,8236887,63.4404924,10.3490184,15.81,8.958,135.56,0.02,-0.09,-0.02
8230,8236927,63.4404924,10.3490183,15.82,8.962,135.6,0.02,-0.1,-0.01
8234,8236947,63.4404924,10.3490183,15.82,8.96,135.61,0.01,-0.1,-0.01
8247,8236987,63.4404924,10.3490182,15.81,8.957,135.64,0.01,-0.11,-0.01
8260,8237027,63.4404924,10.3490181,15.81,8.954,135.66,0.01,-0.11,-0.01
8265,8237047,63.4404924,10.349018,15.8,8.948,135.67,0.01,-0.12,0.0
8278,8237087,63.4404924,10.3490179,15.79,8.937,135.69,0.01,-0.12,0.0
8288,8237107,63.4404924,10.3490179,15.79,8.932,135.7,0.01,-0.13,0.0
8296,8237147,63.4404924,10.3490177,15.78,8.92,135.71,0.02,-0.13,0.0
8309,8237187,63.4404924,10.3490176,15.76,8.907,135.71,0.02,-0.13,0.0
8323,8237207,63.4404924,10.3490176,15.76,8.901,135.71,0.02,-0.13,0.0
8328,8237247,63.4404924,10.3490175,15.74,8.889,135.71,0.03,-0.12,0.0
8341,8237287,63.4404925,10.3490173,15.73,8.878,135.71,0.03,-0.12,0.0
8345,8237307,63.4404925,10.3490173,15.73,8.874,135.7,0.03,-0.12,0.0
8359,8237347,63.4404925,10.3490172,15.72,8.868,135.68,0.03,-0.11,0.0
8374,8237387,63.4404925,10.3490171,15.72,8.866,135.65,0.03,-0.1,0.0
8387,8237407,63.4404925,10.3490171,15.72,8.865,135.64,0.03,-0.09,0.0
8392,8237447,63.4404925,10.349017,15.72,8.868,135.59,0.03,-0.08,0.0
8405,8237487,63.4404925,10.3490169,15.73,8.877,135.55,0.03,-0.08,0.0
8418,8237507,63.4404925,10.3490169,15.74,8.881,135.52,0.03,-0.07,0.0
8424,8237547,63.4404925,10.3490168,15.75,8.895,135.47,0.02,-0.06,-0.01
8437,8237587,63.4404925,10.3490168,15.77,8.913,135.42,0.02,-0.06,-0.02
8442,8237607,63.4404925,10.3490167,15.78,8.922,135.4,0.02,-0.06,-0.02
8456,8237647,63.4404925,10.3490167,15.8,8.942,135.37,0.01,-0.05,-0.02
8469,8237687,63.4404925,10.3490166,15.82,8.964,135.36,0.01,-0.05,-0.02
8473,8237707,63.4404926,10.3490166,15.83,8.974,135.36,0.01,-0.05,-0.02
8487,8237747,63.4404926,10.3490165,15.85,8.993,135.37,0.01,-0.05,-0.01
8499,8237767,63.4404926,10.3490165,15.86,9.002,135.38,0.01,-0.05,0.0
8504,8237807,63.4404926,10.3490164,15.87,9.019,135.43,0.0,-0.05,0.0
8528,8237847,63.4404926,10.3490164,15.88,9.029,135.48,0.0,-0.04,0.02
8532,8237867,63.4404926,10.3490164,15.89,9.032,135.51,0.0,-0.04,0.02
8536,8237907,63.4404926,10.3490163,15.89,9.037,135.56,0.0,-0.04,0.04
8550,8237947,63.4404926,10.3490163,15.89,9.033,135.61,0.0,-0.03,0.06
8562,8237967,63.4404926,10.3490162,15.88,9.028,135.63,0.0,-0.03,0.06
8567,8238007,63.4404926,10.3490162,15.87,9.018,135.67,0.0,-0.02,0.08
8581,8238047,63.4404926,10.3490161,15.86,9.0,135.69,0.0,-0.02,0.09
8593,8238067,63.4404926,10.3490161,15.84,8.987,135.7,0.0,-0.02,0.09
8598,8238107,63.4404926,10.3490161,15.82,8.964,135.71,0.01,-0.01,0.1
8612,8238147,63.4404926,10.349016,15.79,8.937,135.72,0.01,-0.01,0.1
8624,8238167,63.4404927,10.349016,15.78,8.921,135.73,0.02,-0.02,0.1
8639,8238207,63.4404927,10.349016,15.75,8.891,135.75,0.03,-0.02,0.1
8644,8238247,63.4404927,10.349016,15.72,8.861,135.79,0.04,-0.02,0.09
8656,8238267,63.4404927,10.3490159,15.7,8.846,135.8,0.04,-0.02,0.09
8661,8238307,63.4404927,10.3490159,15.67,8.818,135.86,0.05,-0.03,0.08
8675,8238347,63.4404927,10.3490158,15.65,8.794,135.92,0.05,-0.03,0.06
8687,8238367,63.4404928,10.3490158,15.64,8.783,135.95,0.06,-0.03,0.05
8694,8238407,63.4404928,10.3490158,15.62,8.764,136.03,0.06,-0.04,0.03
8706,8238427,63.4404928,10.3490157,15.61,8.755,136.07,0.07,-0.04,0.02
8720,8238467,63.4404928,10.3490157,15.6,8.747,136.16,0.07,-0.04,0.0
8734,8238507,63.4404929,10.3490156,15.6,8.741,136.24,0.07,-0.04,-0.01
8738,8238527,63.4404929,10.3490156,15.59,8.738,136.28,0.07,-0.04,-0.02
8752,8238567,63.4404929,10.3490155,15.6,8.745,136.36,0.07,-0.05,-0.04
8762,8238607,63.4404929,10.3490155,15.61,8.752,136.44,0.07,-0.05,-0.05
8771,8238627,63.4404929,10.3490155,15.61,8.755,136.48,0.07,-0.05,-0.06
8784,8238667,63.440493,10.3490154,15.63,8.771,136.55,0.06,-0.05,-0.08
8798,8238707,63.440493,10.3490153,15.64,8.786,136.61,0.06,-0.05,-0.09
8802,8238727,63.440493,10.3490153,15.65,8.793,136.64,0.05,-0.06,-0.09
8815,8238767,63.440493,10.3490153,15.67,8.811,136.69,0.04,-0.06,-0.1
8824,8238807,63.440493,10.3490152,15.68,8.828,136.73,0.03,-0.07,-0.11
8833,8238827,63.4404931,10.3490152,15.69,8.836,136.75,0.03,-0.08,-0.11
8846,8238867,63.4404931,10.3490151,15.7,8.849,136.77,0.02,-0.09,-0.11
8852,8238907,63.4404931,10.349015,15.72,8.861,136.8,0.02,-0.1,-0.12
8865,8238927,63.4404931,10.349015,15.72,8.867,136.82,0.02,-0.11,-0.12
8878,8238967,63.4404931,10.3490149,15.73,8.87,136.85,0.01,-0.12,-0.12
8883,8239007,63.4404931,10.3490148,15.73,8.873,136.89,0.02,-0.13,-0.11
8895,8239027,63.4404931,10.3490147,15.73,8.874,136.91,0.02,-0.14,-0.11
8909,8239067,63.4404931,10.3490146,15.72,8.864,136.96,0.02,-0.15,-0.11
8913,8239087,63.4404931,10.3490146,15.71,8.859,136.99,0.02,-0.15,-0.1
8927,8239127,63.4404931,10.3490144,15.71,8.85,137.04,0.02,-0.16,-0.09
8940,8239167,63.4404931,10.3490143,15.68,8.829,137.1,0.02,-0.17,-0.08
8944,8239187,63.4404931,10.3490143,15.67,8.819,137.14,0.02,-0.17,-0.07
8959,8239227,63.4404931,10.3490141,15.66,8.801,137.2,0.03,-0.17,-0.06
8972,8239267,63.4404931,10.349014,15.63,8.774,137.25,0.04,-0.17,-0.04
8977,8239287,63.4404932,10.3490139,15.62,8.762,137.27,0.04,-0.17,-0.03
8990,8239327,63.4404932,10.3490138,15.59,8.739,137.3,0.04,-0.16,-0.01
9003,8239367,63.4404932,10.3490137,15.57,8.715,137.32,0.05,-0.16,0.01
9009,8239387,63.4404932,10.3490136,15.56,8.704,137.32,0.05,-0.15,0.03
9022,8239427,63.4404932,10.3490135,15.54,8.683,137.32,0.06,-0.14,0.05
9036,8239467,63.4404932,10.3490134,15.52,8.668,137.32,0.06,-0.13,0.08
9040,8239487,63.4404932,10.3490133,15.52,8.661,137.31,0.06,-0.13,0.09
9053,8239527,63.4404932,10.3490132,15.5,8.648,137.29,0.06,-0.12,0.11
9068,8239567,63.4404933,10.3490132,15.5,8.646,137.27,0.06,-0.11,0.12
9072,8239587,63.4404933,10.3490131,15.5,8.645,137.27,0.06,-0.1,0.13
9087,8239627,63.4404933,10.349013,15.5,8.642,137.25,0.06,-0.09,0.14
9100,8239667,63.4404933,10.349013,15.51,8.653,137.22,0.06,-0.08,0.14
9104,8239687,63.4404933,10.3490129,15.51,8.658,137.2,0.06,-0.08,0.13
9117,8239727,63.4404933,10.3490129,15.52,8.667,137.16,0.05,-0.07,0.13
9122,8239747,63.4404934,10.3490129,15.53,8.677,137.13,0.05,-0.06,0.12
9135,8239787,63.4404934,10.3490128,15.55,8.695,137.06,0.04,-0.05,0.11
9149,8239827,63.4404934,10.3490128,15.57,8.71,136.96,0.04,-0.05,0.1
9153,8239847,63.4404934,10.3490128,15.58,8.72,136.91,0.03,-0.04,0.1
9167,8239887,63.4404934,10.3490127,15.59,8.737,136.81,0.03,-0.05,0.09
9180,8239927,63.4404934,10.3490127,15.61,8.753,136.71,0.03,-0.05,0.09
9185,8239947,63.4404934,10.3490127,15.61,8.758,136.66,0.03,-0.05,0.08
9198,8239987,63.4404934,10.3490126,15.62,8.767,136.58,0.03,-0.04,0.07
9211,8240027,63.4404935,10.3490126,15.63,8.775,136.53,0.02,-0.04,0.06
9216,8240047,63.4404935,10.3490126,15.63,8.774,136.51,0.03,-0.04,0.06
9229,8240087,63.4404935,10.3490125,15.63,8.772,136.5,0.03,-0.04,0.05
9243,8240127,63.4404935,10.3490125,15.63,8.771,136.51,0.03,-0.04,0.04
9247,8240147,63.4404935,10.3490125,15.62,8.766,136.53,0.03,-0.04,0.03
9260,8240187,63.4404935,10.3490124,15.61,8.756,136.57,0.03,-0.04,0.02
9274,8240227,63.4404935,10.3490124,15.6,8.748,136.63,0.04,-0.04,0.02
9279,8240247,63.4404936,10.3490124,15.6,8.74,136.66,0.04,-0.04,0.01
9292,8240287,63.4404936,10.3490123,15.58,8.727,136.71,0.04,-0.03,0.01
9306,8240327,63.4404936,10.3490123,15.57,8.716,136.74,0.04,-0.02,0.0
9320,8240347,63.4404936,10.3490123,15.57,8.71,136.75,0.04,-0.02,0.0
9336,8240387,63.4404936,10.3490123,15.55,8.699,136.75,0.03,-0.02,0.0
9339,8240407,63.4404936,10.3490123,15.55,8.695,136.75,0.03,-0.01,0.0
9353,8240447,63.4404936,10.3490123,15.54,8.687,136.74,0.03,-0.01,-0.01
9356,8240487,63.4404937,10.3490123,15.54,8.682,136.71,0.03,-0.01,-0.01
9362,8240507,63.4404937,10.3490123,15.53,8.679,136.7,0.03,-0.01,-0.01
9375,8240547,63.4404937,10.3490122,15.53,8.678,136.67,0.02,-0.02,-0.02
9388,8240587,63.4404937,10.3490122,15.54,8.68,136.66,0.02,-0.02,-0.03
9396,8240607,63.4404937,10.3490122,15.54,8.682,136.66,0.02,-0.02,-0.03
9407,8240647,63.4404937,10.3490122,15.54,8.688,136.66,0.02,-0.03,-0.05
9420,8240687,63.4404937,10.3490122,15.55,8.697,136.69,0.02,-0.04,-0.06
9424,8240707,63.4404937,10.3490122,15.56,8.702,136.72,0.02,-0.04,-0.07
9438,8240747,63.4404937,10.3490121,15.57,8.714,136.78,0.02,-0.05,-0.08
9451,8240787,63.4404937,10.3490121,15.58,8.728,136.85,0.01,-0.06,-0.09
9455,8240807,63.4404937,10.3490121,15.59,8.735,136.9,0.01,-0.06,-0.1
9469,8240847,63.4404937,10.3490121,15.6,8.749,136.98,0.01,-0.07,-0.1
9483,8240887,63.4404938,10.349012,15.62,8.763,137.06,0.01,-0.08,-0.11
9489,8240907,63.4404938,10.349012,15.63,8.77,137.1,0.0,-0.09,-0.11
9501,8240947,63.4404938,10.3490119,15.64,8.78,137.16,0.0,-0.09,-0.11
9514,8240987,63.4404938,10.3490119,15.64,8.787,137.2,0.0,-0.1,-0.11
9518,8241007,63.4404938,10.3490118,15.65,8.79,137.22,-0.01,-0.1,-0.11
9532,8241047,63.4404938,10.3490118,15.65,8.792,137.23,-0.01,-0.1,-0.1
9544,8241067,63.4404938,10.3490117,15.65,8.79,137.22,-0.01,-0.1,-0.1
9549,8241107,63.4404937,10.3490117,15.64,8.787,137.2,-0.01,-0.11,-0.09
9563,8241147,63.4404937,10.3490116,15.63,8.778,137.16,-0.02,-0.11,-0.08
9575,8241167,63.4404937,10.3490116,15.63,8.771,137.13,-0.01,-0.11,-0.07
9590,8241207,63.4404937,10.3490115,15.61,8.758,137.07,-0.01,-0.11,-0.06
9595,8241247,63.4404937,10.3490114,15.6,8.743,137.01,0.0,-0.11,-0.04
9607,8241267,63.4404937,10.3490114,15.59,8.734,136.98,0.0,-0.11,-0.04
9619,8241307,63.4404937,10.3490113,15.57,8.718,136.92,0.0,-0.1,-0.02
9626,8241347,63.4404937,10.3490113,15.56,8.703,136.87,0.01,-0.09,-0.01
9638,8241367,63.4404937,10.3490112,15.55,8.696,136.85,0.01,-0.09,0.0
9652,8241407,63.4404937,10.3490112,15.54,8.682,136.82,0.02,-0.09,0.01
9659,8241447,63.4404937,10.3490111,15.53,8.675,136.8,0.03,-0.09,0.02
9671,8241467,63.4404937,10.3490111,15.53,8.673,136.8,0.03,-0.09,0.03
9679,8241507,63.4404937,10.349011,15.53,8.67,136.81,0.04,-0.09,0.04
9691,8241547,63.4404937,10.349011,15.53,8.674,136.82,0.04,-0.09,0.05
9703,8241567,63.4404938,10.3490109,15.53,8.679,136.83,0.04,-0.09,0.06
9718,8241607,63.4404938,10.3490109,15.54,8.687,136.85,0.03,-0.09,0.07
9732,8241647,63.4404938,10.3490108,15.56,8.701,136.87,0.03,-0.1,0.08
9735,8241667,63.4404938,10.3490108,15.57,8.71,136.88,0.02,-0.1,0.08
9746,8241707,63.4404938,10.3490107,15.58,8.727,136.9,0.02,-0.1,0.08
9763,8241727,63.4404938,10.3490107,15.59,8.735,136.91,0.01,-0.11,0.09
9766,8241767,63.4404938,10.3490106,15.61,8.757,136.92,0.0,-0.11,0.08
9780,8241807,63.4404938,10.3490105,15.63,8.775,136.92,0.0,-0.11,0.08
9783,8241827,63.4404938,10.3490105,15.64,8.783,136.92,0.0,-0.11,0.08
9798,8241867,63.4404938,10.3490104,15.65,8.799,136.91,0.0,-0.12,0.07
9805,8241907,63.4404938,10.3490103,15.67,8.813,136.89,0.0,-0.12,0.06
9815,8241927,63.4404938,10.3490103,15.67,8.819,136.88,0.0,-0.12,0.05
9829,8241967,63.4404938,10.3490102,15.68,8.825,136.86,0.0,-0.12,0.04
9840,8242007,63.4404938,10.3490101,15.69,8.83,136.84,0.0,-0.12,0.03
9846,8242027,63.4404938,10.34901,15.69,8.833,136.84,0.0,-0.11,0.02
9860,8242067,63.4404938,10.34901,15.68,8.827,136.82,0.01,-0.11,0.0
9874,8242107,63.4404938,10.3490099,15.68,8.823,136.8,0.02,-0.1,0.0
9877,8242127,63.4404938,10.3490099,15.68,8.822,136.8,0.02,-0.1,-0.01
9891,8242167,63.4404938,10.3490098,15.67,8.81,136.78,0.03,-0.09,-0.02
9896,8242207,63.4404938,10.3490097,15.66,8.8,136.77,0.04,-0.08,-0.02
9909,8242227,63.4404938,10.3490097,15.65,8.795,136.76,0.05,-0.08,-0.02
9923,8242267,63.4404939,10.3490097,15.64,8.781,136.73,0.05,-0.08,-0.01
9932,8242307,63.4404939,10.3490096,15.62,8.768,136.7,0.05,-0.07,0.0
9940,8242327,63.4404939,10.3490096,15.62,8.762,136.69,0.05,-0.07,0.0
9954,8242367,63.4404939,10.3490095,15.61,8.752,136.65,0.05,-0.06,0.01
9970,8242387,63.4404939,10.3490095,15.6,8.747,136.62,0.05,-0.06,0.02
9973,8242427,63.4404939,10.3490095,15.59,8.737,136.57,0.05,-0.06,0.04
9987,8242467,63.4404939,10.3490094,15.59,8.735,136.51,0.04,-0.06,0.06
9991,8242487,63.440494,10.3490094,15.59,8.733,136.48,0.03,-0.06,0.06
10004,8242527,63.440494,10.3490093,15.59,8.731,136.42,0.03,-0.06,0.08
10019,8242567,63.440494,10.3490093,15.59,8.739,136.35,0.02,-0.06,0.09
10023,8242587,63.440494,10.3490093,15.6,8.742,136.31,0.01,-0.05,0.1
10038,8242627,63.440494,10.3490092,15.6,8.748,136.24,0.01,-0.05,0.1
10051,8242667,63.440494,10.3490092,15.62,8.765,136.16,0.0,-0.05,0.1
10055,8242687,63.440494,10.3490092,15.63,8.772,136.13,0.0,-0.04,0.09
10068,8242727,63.440494,10.3490091,15.64,8.786,136.06,0.0,-0.04,0.08
10082,8242767,63.440494,10.3490091,15.66,8.806,135.99,0.0,-0.03,0.06
10086,8242787,63.440494,10.3490091,15.67,8.815,135.96,0.0,-0.02,0.05
10099,8242827,63.440494,10.3490091,15.69,8.832,135.91,0.0,-0.01,0.03
10113,8242867,63.440494,10.3490091,15.7,8.848,135.85,0.01,0.0,0.01
10118,8242887,63.440494,10.3490091,15.71,8.855,135.83,0.01,0.0,0.0
10131,8242927,63.440494,10.3490091,15.72,8.869,135.79,0.03,0.0,-0.01
10145,8242967,63.440494,10.3490091,15.73,8.875,135.75,0.04,0.0,-0.03
10149,8242987,63.440494,10.3490091,15.73,8.878,135.73,0.04,0.01,-0.04
10162,8243027,63.4404941,10.3490091,15.74,8.883,135.69,0.05,0.01,-0.06
10167,8243047,63.4404941,10.3490091,15.73,8.879,135.68,0.05,0.02,-0.06
10180,8243087,63.4404941,10.3490092,15.73,8.872,135.64,0.05,0.02,-0.06
10193,8243127,63.4404941,10.3490092,15.72,8.866,135.61,0.06,0.02,-0.06
10198,8243147,63.4404941,10.3490092,15.71,8.856,135.6,0.06,0.02,-0.06
10211,8243187,63.4404941,10.3490092,15.69,8.839,135.57,0.06,0.02,-0.05
10225,8243227,63.4404942,10.3490092,15.68,8.823,135.54,0.06,0.01,-0.04
10230,8243247,63.4404942,10.3490092,15.67,8.81,135.53,0.06,0.01,-0.03
10243,8243287,63.4404942,10.3490093,15.64,8.787,135.5,0.05,0.01,-0.01
10257,8243327,63.4404942,10.3490093,15.62,8.766,135.48,0.05,0.0,0.0
10261,8243347,63.4404942,10.3490093,15.61,8.754,135.48,0.04,0.0,0.01
10276,8243387,63.4404942,10.3490092,15.59,8.733,135.46,0.03,0.0,0.03
10290,8243427,63.4404942,10.3490092,15.57,8.713,135.45,0.02,0.0,0.05
10294,8243447,63.4404943,10.3490092,15.56,8.704,135.45,0.01,-0.01,0.05
10307,8243487,63.4404943,10.3490091,15.54,8.689,135.45,0.01,-0.02,0.07
10321,8243527,63.4404943,10.3490091,15.53,8.674,135.45,0.0,-0.02,0.08
10326,8243547,63.4404943,10.3490091,15.53,8.671,135.45,0.0,-0.03,0.08
10339,8243587,63.4404943,10.3490091,15.52,8.665,135.45,0.0,-0.03,0.07
10354,8243627,63.4404943,10.3490091,15.52,8.66,135.45,0.0,-0.04,0.06
10358,8243647,63.4404943,10.3490091,15.52,8.663,135.45,0.0,-0.04,0.05
10371,8243687,63.4404943,10.349009,15.52,8.669,135.44,0.0,-0.04,0.02
10381,8243707,63.4404943,10.349009,15.53,8.672,135.44,0.0,-0.04,0.01
10389,8243747,63.4404943,10.349009,15.54,8.684,135.43,0.0,-0.04,-0.01
10402,8243787,63.4404943,10.3490089,15.56,8.7,135.42,0.0,-0.04,-0.05
10406,8243807,63.4404943,10.3490089,15.56,8.708,135.42,0.0,-0.04,-0.06
10420,8243847,63.4404943,10.3490089,15.58,8.727,135.42,0.01,-0.04,-0.1
10434,8243887,63.4404943,10.3490088,15.6,8.749,135.42,0.01,-0.04,-0.13
10438,8243907,63.4404943,10.3490088,15.61,8.759,135.42,0.01,-0.04,-0.14
10452,8243947,63.4404943,10.3490088,15.64,8.781,135.42,0.02,-0.04,-0.16
10465,8243987,63.4404943,10.3490088,15.66,8.802,135.42,0.02,-0.04,-0.18
10472,8244007,63.4404943,10.3490087,15.67,8.812,135.42,0.02,-0.04,-0.18
10483,8244047,63.4404943,10.3490087,15.69,8.83,135.41,0.02,-0.04,-0.19
10496,8244087,63.4404943,10.3490087,15.7,8.846,135.4,0.02,-0.05,-0.18
10509,8244107,63.4404943,10.3490086,15.71,8.853,135.4,0.02,-0.05,-0.18
10515,8244147,63.4404943,10.3490086,15.72,8.862,135.39,0.01,-0.06,-0.17
10528,8244187,63.4404943,10.3490085,15.72,8.866,135.39,0.0,-0.07,-0.15
10542,8244207,63.4404943,10.3490085,15.72,8.868,135.39,0.0,-0.07,-0.14
10547,8244247,63.4404943,10.3490084,15.72,8.867,135.4,-0.01,-0.08,-0.11
10560,8244287,63.4404943,10.3490084,15.72,8.86,135.42,-0.02,-0.09,-0.08
10573,8244307,63.4404943,10.3490083,15.71,8.856,135.44,-0.02,-0.09,-0.07
10578,8244347,63.4404943,10.3490082,15.7,8.842,135.47,-0.03,-0.1,-0.04
10592,8244367,63.4404943,10.3490082,15.69,8.834,135.48,-0.04,-0.1,-0.03
10606,8244407,63.4404943,10.3490081,15.67,8.817,135.52,-0.04,-0.11,-0.01
10611,8244447,63.4404943,10.349008,15.65,8.798,135.54,-0.05,-0.1,0.0
10623,8244467,63.4404943,10.349008,15.64,8.787,135.55,-0.05,-0.1,0.0
10628,8244507,63.4404943,10.3490079,15.62,8.768,135.56,-0.05,-0.1,0.01
10643,8244547,63.4404943,10.3490078,15.6,8.749,135.57,-0.05,-0.09,0.02
10655,8244567,63.4404943,10.3490077,15.59,8.739,135.56,-0.04,-0.09,0.02
10670,8244607,63.4404943,10.3490077,15.58,8.722,135.55,-0.04,-0.08,0.02
10675,8244647,63.4404943,10.3490076,15.56,8.709,135.53,-0.03,-0.07,0.02
10687,8244667,63.4404943,10.3490075,15.56,8.703,135.51,-0.03,-0.07,0.02
10701,8244707,63.4404943,10.3490075,15.55,8.694,135.48,-0.02,-0.06,0.02
10706,8244747,63.4404943,10.3490074,15.55,8.69,135.44,-0.02,-0.05,0.02
10718,8244767,63.4404943,10.3490074,15.55,8.69,135.42,-0.01,-0.05,0.02
10723,8244807,63.4404943,10.3490074,15.55,8.691,135.39,-0.01,-0.04,0.02
10738,8244847,63.4404942,10.3490073,15.55,8.697,135.36,0.0,-0.04,0.03
10754,8244867,63.4404942,10.3490073,15.56,8.703,135.35,0.0,-0.04,0.03
10767,8244907,63.4404942,10.3490073,15.57,8.713,135.33,0.0,-0.04,0.04
10772,8244947,63.4404942,10.3490072,15.58,8.729,135.32,0.0,-0.04,0.04
10784,8244967,63.4404942,10.3490072,15.6,8.74,135.31,0.0,-0.05,0.04
10798,8245007,63.4404942,10.3490072,15.61,8.758,135.31,0.0,-0.05,0.04
10801,8245027,63.4404943,10.3490071,15.62,8.767,135.3,0.0,-0.05,0.04
10815,8245067,63.4404943,10.3490071,15.65,8.792,135.3,0.0,-0.05,0.04
10823,8245107,63.4404943,10.349007,15.67,8.814,135.3,0.0,-0.06,0.04
10832,8245127,63.4404943,10.349007,15.68,8.824,135.3,0.0,-0.06,0.04
10846,8245167,63.4404943,10.349007,15.7,8.846,135.29,0.0,-0.06,0.03
10861,8245207,63.4404943,10.3490069,15.72,8.865,135.29,0.0,-0.06,0.02
10865,8245227,63.4404943,10.3490069,15.73,8.873,135.28,0.0,-0.06,0.02
10878,8245267,63.4404943,10.3490068,15.74,8.884,135.28,-0.01,-0.06,0.01
10883,8245307,63.4404943,10.3490067,15.75,8.893,135.27,-0.01,-0.06,0.0
10896,8245327,63.4404943,10.3490067,15.75,8.898,135.27,-0.01,-0.06,0.0
10909,8245367,63.4404943,10.3490066,15.75,8.894,135.27,-0.01,-0.07,0.0
10923,8245407,63.4404943,10.3490066,15.75,8.891,135.26,-0.01,-0.07,0.0
10929,8245427,63.4404943,10.3490065,15.74,8.889,135.26,-0.01,-0.07,0.0
10942,8245467,63.4404943,10.3490065,15.73,8.873,135.26,-0.01,-0.06,0.0
10954,8245507,63.4404943,10.3490064,15.71,8.858,135.26,-0.01,-0.06,0.0
10961,8245527,63.4404943,10.3490064,15.71,8.852,135.26,0.0,-0.06,0.0
10974,8245567,63.4404943,10.3490063,15.68,8.829,135.25,0.0,-0.05,0.01
10984,8245607,63.4404943,10.3490063,15.66,8.809,135.24,0.0,-0.05,0.02
10992,8245627,63.4404943,10.3490062,15.66,8.8,135.24,0.0,-0.04,0.03
11006,8245667,63.4404943,10.3490062,15.64,8.78,135.22,0.0,-0.03,0.04
11010,8245687,63.4404943,10.3490062,15.63,8.771,135.21,0.0,-0.03,0.04
11024,8245727,63.4404943,10.3490061,15.61,8.754,135.19,0.0,-0.02,0.05
11037,8245767,63.4404943,10.3490061,15.6,8.745,135.17,0.0,-0.01,0.06
11041,8245787,63.4404943,10.3490061,15.6,8.74,135.16,0.0,0.0,0.06
11054,8245827,63.4404943,10.3490061,15.59,8.732,135.14,0.0,0.0,0.06
11068,8245867,63.4404943,10.3490061,15.59,8.735,135.12,0.0,0.0,0.06
11073,8245887,63.4404943,10.3490061,15.59,8.737,135.11,0.0,0.01,0.06
11086,8245927,63.4404943,10.3490061,15.6,8.74,135.09,-0.01,0.01,0.06
11100,8245967,63.4404943,10.3490061,15.61,8.755,135.06,-0.01,0.01,0.05
11104,8245987,63.4404943,10.3490061,15.62,8.762,135.04,-0.02,0.01,0.04
11118,8246027,63.4404943,10.3490061,15.63,8.774,134.99,-0.02,0.02,0.03
11131,8246067,63.4404943,10.3490061,15.65,8.794,134.93,-0.03,0.02,0.02
11135,8246087,63.4404943,10.3490061,15.66,8.803,134.9,-0.03,0.01,0.01
11149,8246127,63.4404943,10.3490061,15.67,8.819,134.83,-0.03,0.0,0.0
11162,8246167,63.4404943,10.3490061,15.69,8.836,134.77,-0.03,0.0,0.0
11166,8246187,63.4404942,10.3490061,15.7,8.844,134.75,-0.03,0.0,-0.01
11181,8246227,63.4404942,10.3490061,15.71,8.858,134.7,-0.03,0.0,-0.03
11194,8246267,63.4404942,10.3490061,15.72,8.867,134.67,-0.03,0.0,-0.05
11198,8246287,63.4404942,10.3490061,15.73,8.871,134.67,-0.03,0.0,-0.05
11212,8246327,63.4404942,10.3490061,15.73,8.878,134.66,-0.02,0.0,-0.06
11216,8246347,63.4404942,10.3490061,15.73,8.877,134.67,-0.02,0.0,-0.07
11231,8246387,63.4404942,10.3490061,15.73,8.875,134.69,-0.01,0.0,-0.07
11244,8246427,63.4404942,10.3490061,15.73,8.874,134.73,-0.01,0.0,-0.08
11249,8246447,63.4404942,10.3490061,15.72,8.867,134.74,0.0,0.0,-0.08
11262,8246487,63.4404942,10.3490061,15.71,8.856,134.78,0.0,0.0,-0.07
11276,8246527,63.4404942,10.349006,15.7,8.846,134.81,0.0,0.0,-0.06
11281,8246547,63.4404942,10.349006,15.69,8.836,134.82,0.0,0.0,-0.06
11294,8246587,63.4404942,10.349006,15.68,8.82,134.83,0.0,0.0,-0.05
11309,8246627,63.4404943,10.349006,15.66,8.805,134.82,0.01,0.0,-0.04
11313,8246647,63.4404943,10.349006,15.65,8.796,134.82,0.01,0.0,-0.03
11326,8246687,63.4404943,10.349006,15.64,8.781,134.8,0.01,0.0,-0.02
11339,8246727,63.4404943,10.349006,15.62,8.766,134.77,0.02,-0.01,0.0
11344,8246747,63.4404943,10.3490059,15.62,8.761,134.76,0.02,-0.01,0.0
11357,8246787,63.4404943,10.3490059,15.61,8.752,134.73,0.02,-0.02,0.0
11371,8246827,63.4404943,10.3490059,15.6,8.744,134.71,0.02,-0.03,0.01
11375,8246847,63.4404943,10.3490059,15.6,8.744,134.7,0.02,-0.04,0.01
11389,8246887,63.4404943,10.3490058,15.6,8.744,134.7,0.01,-0.05,0.0
11403,8246927,63.4404943,10.3490058,15.6,8.744,134.7,0.01,-0.06,0.0
11407,8246947,63.4404943,10.3490057,15.6,8.749,134.71,0.01,-0.06,0.0
11420,8246987,63.4404943,10.3490057,15.61,8.757,134.74,0.01,-0.07,-0.01
11427,8247007,63.4404943,10.3490056,15.62,8.761,134.75,0.01,-0.08,-0.02
11438,8247047,63.4404943,10.3490056,15.63,8.771,134.8,0.01,-0.08,-0.03
11451,8247087,63.4404943,10.3490055,15.64,8.782,134.85,0.0,-0.09,-0.04
11459,8247107,63.4404943,10.3490055,15.64,8.788,134.87,0.01,-0.09,-0.05
11469,8247147,63.4404943,10.3490054,15.65,8.798,134.92,0.01,-0.09,-0.06
11482,8247187,63.4404943,10.3490053,15.66,8.807,134.97,0.0,-0.09,-0.06
11491,8247207,63.4404943,10.3490053,15.67,8.811,134.98,0.0,-0.08,-0.07
11501,8247247,63.4404943,10.3490052,15.67,8.817,135.01,0.0,-0.08,-0.07
11514,8247287,63.4404943,10.3490051,15.68,8.821,135.02,0.0,-0.07,-0.06
11520,8247307,63.4404943,10.3490051,15.68,8.822,135.02,0.0,-0.07,-0.06
11532,8247347,63.4404943,10.3490051,15.68,8.823,135.0,0.0,-0.07,-0.05
11547,8247387,63.4404943,10.349005,15.68,8.822,134.97,0.0,-0.06,-0.04
11560,8247407,63.4404943,10.349005,15.68,8.822,134.95,0.0,-0.06,-0.03
11565,8247447,63.4404943,10.3490049,15.68,8.821,134.91,0.0,-0.06,-0.02
11578,8247487,63.4404943,10.3490049,15.68,8.82,134.85,-0.01,-0.05,-0.02
11591,8247507,63.4404943,10.3490048,15.67,8.819,134.83,-0.01,-0.05,-0.01
