packet_index,time_boot_ms,roll_rad,pitch_rad,yaw_rad,roll_deg,pitch_deg,yaw_deg,rollspeed_radps,pitchspeed_radps,yawspeed_radps
17,8208407,-0.013872874900698662,0.0209650956094265,1.4931641817092896,-0.7948571815230043,1.201211495508391,85.55200573204745,0.0064055658876895905,0.031463343650102615,0.009635444730520248
44,8208507,-0.0163170974701643,0.027372973039746284,1.494460105895996,-0.934900818944007,1.56835582790285,85.62625671851465,-0.02251390554010868,0.06636843085289001,0.013678567484021187
77,8208607,-0.02175660990178585,0.03242132440209389,1.4963351488113403,-1.2465619238848658,1.8576050544644869,85.73368876396978,-0.053618013858795166,0.05243943631649017,0.019394386559724808
96,8208707,-0.02867213450372219,0.035162460058927536,1.4981998205184937,-1.6427922966947066,2.0146605586738757,85.84052658296712,-0.07025003433227539,0.029232751578092575,0.019724590703845024
125,8208807,-0.03492026776075363,0.0342702679336071,1.4990390539169312,-2.000783962157937,1.9635417153782078,85.88861111472401,-0.06487782299518585,-0.006724946200847626,0.009549584239721298
151,8208907,-0.03911919891834259,0.029658468440175056,1.4981881380081177,-2.2413649959537656,1.6993050684439805,85.83985722442846,-0.044554322957992554,-0.04359713941812515,-0.008532389998435974
166,8209007,-0.04058079048991203,0.019942643120884895,1.4958274364471436,-2.325108024376588,1.1426292831623088,85.70459898829469,-0.015816226601600647,-0.09200453758239746,-0.02645595371723175
190,8209107,-0.040484122931957245,0.007905681617558002,1.4932447671890259,-2.3195693812899423,0.4529621908602313,85.55662293992637,0.0009246896952390671,-0.12087146937847137,-0.031416330486536026
215,8209207,-0.039671123027801514,-0.0014468471053987741,1.4910768270492554,-2.2729879180372783,-0.08289823274006955,85.43240911968051,0.008633965626358986,-0.09904168546199799,-0.02638167142868042
240,8209307,-0.039148226380348206,-0.0031190705485641956,1.4891629219055176,-2.2430281470166635,-0.17870957843628288,85.32275043255596,0.0061560459434986115,-0.0230072233825922,-0.020317306742072105
275,8209407,-0.03871484473347664,0.003609797917306423,1.4875966310501099,-2.218197207732494,0.2068261855567726,85.23300857705117,0.0035523027181625366,0.06424406170845032,-0.014080476015806198
290,8209507,-0.036573003977537155,0.012910419143736362,1.4866254329681396,-2.0954787720280517,0.7397125286809957,85.17736302588307,0.018982326611876488,0.09522727876901627,-0.007193051278591156
326,8209607,-0.02990409918129444,0.020272595807909966,1.4863111972808838,-1.713378673228792,1.1615341795678464,85.15935864723092,0.06207619607448578,0.07850346714258194,-0.001414937898516655
341,8209707,-0.018107356503605843,0.020890453830361366,1.486800193786621,-1.0374751057953775,1.196934836592611,85.18737608320632,0.11560562998056412,0.011718137189745903,0.004695415496826172
365,8209807,-0.004809865262359381,0.015030094422399998,1.48759925365448,-0.27558497955977695,0.8611609760866387,85.23315884121291,0.1348581165075302,-0.054909802973270416,0.007697349414229393
400,8209907,0.004629994742572308,0.0045259916223585606,1.4882041215896606,0.2652791579171533,0.2593202180727138,85.26781522106155,0.10111739486455917,-0.10668589174747467,0.006842337548732758
415,8210007,0.0056448099203407764,-0.002332586795091629,1.488571286201477,0.3234237845891049,-0.13364737870669732,85.28885220370519,0.018862804397940636,-0.07775922119617462,0.004345115274190903
439,8210107,-0.0027892934158444405,0.0009728832519613206,1.4892218112945557,-0.15981474055151532,0.055742104296346344,85.32612454600596,-0.07800675183534622,0.023789338767528534,0.006186103448271751
463,8210207,-0.018427709117531776,0.013812223449349403,1.489667296409607,-1.0558299585293174,0.7913821093393488,85.35164896293429,-0.15466392040252686,0.1250690221786499,0.005539365112781525
489,8210307,-0.03550846129655838,0.02840033546090126,1.4891695976257324,-2.034484969296426,1.6272193586653718,85.32313292314949,-0.17450962960720062,0.15169325470924377,-0.0011590328067541122
515,8210407,-0.048068590462207794,0.038231514394283295,1.4876748323440552,-2.75412736062731,2.1905044191860887,85.2374891811467,-0.13054385781288147,0.10548100620508194,-0.010934765450656414
539,8210507,-0.05230145901441574,0.03702447935938835,1.4860347509384155,-2.9966528639024763,2.1213464059621825,85.14351943854567,-0.04882281646132469,-0.0016810186207294464,-0.017373355105519295
570,8210607,-0.04810861870646477,0.02526247501373291,1.4847464561462402,-2.756420810084553,1.4474331983415922,85.06970558418533,0.03758295625448227,-0.11028679460287094,-0.018726879730820656
590,8210707,-0.03876262158155441,0.002967512235045433,1.4842252731323242,-2.220934619485788,0.17002592672153727,85.03984399713404,0.09335631132125854,-0.21891219913959503,-0.014654886908829212
614,8210807,-0.029654160141944885,-0.019159570336341858,1.4840006828308105,-1.6990582211385081,-1.0977625175564356,85.02697592073773,0.09527316689491272,-0.22936679422855377,-0.009434793144464493
649,8210907,-0.025449879467487335,-0.031006233766674995,1.484322190284729,-1.4581706826036753,-1.7765263334264985,85.04539694092925,0.04755014926195145,-0.13335759937763214,-0.0004553254693746567
664,8211007,-0.027522142976522446,-0.024804342538118362,1.4852921962738037,-1.5769026357103573,-1.4211841410309984,85.10097419020565,-0.015816805884242058,0.047293372452259064,0.010488595813512802
688,8211107,-0.03399815410375595,-0.004701067693531513,1.4860975742340088,-1.9479507413805959,-0.26935133804465605,85.14711894823826,-0.06359945982694626,0.19665509462356567,0.014254974201321602
716,8211207,-0.041927188634872437,0.023844024166464806,1.485458493232727,-2.4022509556270624,1.366161951346374,85.11050230409782,-0.08151917159557343,0.2864513695240021,0.004887253046035767
738,8211307,-0.04565327242016792,0.048838794231414795,1.4836524724960327,-2.6157398306366235,2.798256785967939,85.00702493817212,-0.04250001162290573,0.2596747875213623,-0.007668553851544857
764,8211407,-0.04120694100856781,0.06125369668006897,1.4827007055282593,-2.3609838064354913,3.5095782993424542,84.95249270783874,0.037482962012290955,0.13741138577461243,-0.005491308867931366
788,8211507,-0.027918756008148193,0.0602758415043354,1.483849287033081,-1.5996268885224012,3.4535513247978975,85.01830158049182,0.12699881196022034,-0.0035207588225603104,0.010538341477513313
815,8211607,-0.011258106678724289,0.052826542407274246,1.4863197803497314,-0.6450419979989463,3.026737926205678,85.15985042085116,0.16776196658611298,-0.07613265514373779,0.02467620000243187
839,8211707,0.001658497960306704,0.04164494201540947,1.4888092279434204,0.09502493345662967,2.3860794155499994,85.30248526128854,0.13552936911582947,-0.11157605051994324,0.02731483057141304
863,8211807,0.004814509768038988,0.03184368088841438,1.4904526472091675,0.27585109013314296,1.8245085190675439,85.39664624918633,0.0392884686589241,-0.10141422599554062,0.01926671899855137
898,8211907,-0.0030567538924515247,0.025896281003952026,1.491463541984558,-0.1751390970476587,1.4837476066112574,85.45456625334805,-0.07316859811544418,-0.06262721121311188,0.011295821517705917
919,8212007,-0.01801597885787487,0.02279149927198887,1.4923138618469238,-1.0322395523531513,1.3058567170604505,85.50328599269774,-0.14886154234409332,-0.03179089352488518,0.00828208215534687
937,8212107,-0.03438343480229378,0.021415941417217255,1.4932385683059692,-1.9700256993346656,1.2270430575059676,85.55626777008953,-0.16663537919521332,-0.01407589204609394,0.008442988619208336
961,8212207,-0.04586132615804672,0.021359814330935478,1.4940329790115356,-2.6276604317289998,1.2238272123456553,85.6017841507185,-0.12185947597026825,-0.0008113011717796326,0.007560841739177704
987,8212307,-0.049765538424253464,0.021847747266292572,1.494213342666626,-2.8513553169058525,1.2517837102270464,85.61211822693272,-0.04516739770770073,0.0055351704359054565,0.0022896844893693924
1013,8212407,-0.04571119323372841,0.02131352387368679,1.493029236793518,-2.6190584487996036,1.2211749645135745,85.544273957907,0.036521147936582565,-0.002743249759078026,-0.011078111827373505
1037,8212507,-0.03664512187242508,0.018202826380729675,1.4902583360671997,-2.099610823032498,1.0429451268252057,85.38551304083921,0.09102516621351242,-0.027119867503643036,-0.028347961604595184
1067,8212607,-0.026628747582435608,0.012128861621022224,1.4868028163909912,-1.5257148501927544,0.6949325811827756,85.18752634736805,0.10334520041942596,-0.057922832667827606,-0.037328168749809265
1088,8212707,-0.018897272646427155,0.003702594432979822,1.4841219186782837,-1.0827339669482918,0.21214303425837797,85.03392222312364,0.08078150451183319,-0.08261016011238098,-0.030496913939714432
1112,8212807,-0.015340385027229786,-0.005014245398342609,1.4835500717163086,-0.8789393181659472,-0.2872950987679258,85.00115780567508,0.03883989155292511,-0.08900023251771927,-0.009981626644730568
1147,8212907,-0.014851516112685204,-0.011365045793354511,1.4848028421401978,-0.8509291926274009,-0.6511691579321238,85.07293626366275,0.006076144054532051,-0.0678367093205452,0.0103540550917387
1162,8213007,-0.016312072053551674,-0.012152409180998802,1.4857505559921265,-0.9346128837818087,-0.6962817569872647,85.12723626756436,-0.013767542317509651,-0.013565484434366226,0.010068461298942566
1186,8213107,-0.01944727450609207,-0.00558276753872633,1.4845727682113647,-1.1142467522314383,-0.31986901797165707,85.05975399856463,-0.030198873952031136,0.06071978062391281,-0.009754089638590813
1210,8213207,-0.024831561371684074,0.006834764499217272,1.4814338684082031,-1.4227436653175827,0.3916031597709953,84.87990828752902,-0.05237965285778046,0.12360373139381409,-0.029758665710687637
1236,8213307,-0.03131294623017311,0.020092960447072983,1.4780478477478027,-1.794099663109001,1.1512418315405777,84.68590359434397,-0.06456822901964188,0.13571317493915558,-0.032630160450935364
1262,8213407,-0.03572919964790344,0.02944299578666687,1.4760469198226929,-2.047132345205174,1.6869593947974768,84.57125886912532,-0.047502629458904266,0.1004549115896225,-0.019532278180122375
1286,8213507,-0.034916460514068604,0.02929685264825821,1.475896954536438,-2.00056582299132,1.6785860097618643,84.56266649114944,0.0034367255866527557,0.007203517481684685,-0.0025474485009908676
1319,8213607,-0.028419863432645798,0.020736053586006165,1.4769192934036255,-1.6283382290287847,1.1880883542352692,84.62124219347146,0.061320289969444275,-0.0822000801563263,0.007911143824458122
1337,8213707,-0.018938444554805756,0.004278215114027262,1.4782131910324097,-1.085092943532885,0.24512366988284234,84.69537706672278,0.09587524831295013,-0.1627276986837387,0.010196145623922348
1361,8213807,-0.010569394566118717,-0.01120665855705738,1.4787564277648926,-0.6055817006471085,-0.642094237763557,84.72650223877054,0.08627638220787048,-0.1618548035621643,0.004590464755892754
1387,8213907,-0.007512062322348356,-0.01619764417409897,1.4780633449554443,-0.43040946650980455,-0.9280566492305369,84.68679151893608,0.036049552261829376,-0.06287889182567596,-0.006173783913254738
1411,8214007,-0.011791233904659748,-0.007477087434381247,1.476323127746582,-0.6755879379885656,-0.4284055530403463,84.58708441743224,-0.037123098969459534,0.08009076118469238,-0.016822639852762222
1435,8214107,-0.023514872416853905,0.011575384065508842,1.4745960235595703,-1.3473029452743226,0.6632206531966411,84.48812863673709,-0.11292734742164612,0.18505695462226868,-0.0160069540143013
1459,8214207,-0.039914555847644806,0.03487003594636917,1.4735995531082153,-2.2869355912092675,1.997905891196423,84.43103508546496,-0.1642921268939972,0.23838797211647034,-0.0050947293639183044
1485,8214307,-0.05673358216881752,0.0518486350774765,1.4733672142028809,-3.2505948149319073,2.9707079634533597,84.4177230467726,-0.1718233823776245,0.18132372200489044,0.00472600944340229
1511,8214407,-0.0682385191321373,0.05559423938393593,1.4732547998428345,-3.9097791464941882,3.1853152819395105,84.41128217838528,-0.12142634391784668,0.04761040210723877,0.0020904969424009323
1535,8214507,-0.06980152428150177,0.04849197715520859,1.4723131656646729,-3.9993327449099874,2.7783856312382564,84.35733051413135,-0.024950100108981133,-0.06607934832572937,-0.011859249323606491
1565,8214607,-0.06087202578783035,0.03353668749332428,1.4705452919006348,-3.487710168054189,1.9215106522166534,84.25603880874006,0.08412736654281616,-0.14663292467594147,-0.02527782693505287
1586,8214707,-0.043880946934223175,0.01986376941204071,1.4689379930496216,-2.514193060368517,1.1381101525309933,84.16394736816078,0.16664347052574158,-0.14279426634311676,-0.022745054215192795
1610,8214807,-0.024072278290987015,0.01536325179040432,1.4690922498703003,-1.3792399493379501,0.8802494871869732,84.17278563294677,0.20002970099449158,-0.05484455078840256,-0.0007450450211763382
1636,8214907,-0.005708800628781319,0.021243860945105553,1.4716782569885254,-0.32709018211080015,1.2171835727173483,84.32095292661185,0.1878206431865692,0.05331764370203018,0.026424255222082138
1660,8215007,0.007915468886494637,0.030822325497865677,1.475942850112915,0.45352296006325993,1.765989165806167,84.5652961139799,0.13966497778892517,0.09881061315536499,0.04322679713368416
1684,8215107,0.01402033120393753,0.037275608628988266,1.4797358512878418,0.8033058053611928,2.1357350532224606,84.78261907299135,0.06592757999897003,0.0722232460975647,0.03950236737728119
1708,8215207,0.011886456049978733,0.03349685296416283,1.4813357591629028,0.681043765031525,1.9192283018168113,84.8742870418421,-0.01633884198963642,-0.026863103732466698,0.01875714585185051
1734,8215307,0.0017904461128637195,0.020071526989340782,1.4806228876113892,0.10258500571269498,1.1500137848721506,84.83344251060542,-0.09687551110982895,-0.12924641370773315,-0.005038241855800152
1760,8215407,-0.014351053163409233,0.0009855414973571897,1.4787287712097168,-0.822254777831218,0.05646736833357054,84.72491763488308,-0.15881994366645813,-0.19172044098377228,-0.020302483811974525
1784,8215507,-0.033546559512615204,-0.013972087763249874,1.4766818284988403,-1.922076277257295,-0.8005416598206003,84.6076364566448,-0.19217005372047424,-0.15768350660800934,-0.02487470768392086
1811,8215607,-0.050318893045186996,-0.01665928028523922,1.4749550819396973,-2.8830602012594055,-0.9545064500697055,84.50870116651717,-0.17413923144340515,-0.038053855299949646,-0.020025238394737244
1836,8215707,-0.05884915590286255,-0.007225959096103907,1.473224401473999,-3.3718082611414197,-0.41401695914092107,84.40954048014692,-0.09429626166820526,0.09183724224567413,-0.013718999922275543
1859,8215807,-0.05592130124568939,0.006285807117819786,1.4714964628219604,-3.2040545462576753,0.3601502186843659,84.31053688812759,0.021415650844573975,0.13723886013031006,-0.010874850675463676
1885,8215907,-0.04367581382393837,0.02007070556282997,1.4694671630859375,-2.502439798910806,1.149966720599901,84.19426657788645,0.11938922107219696,0.1430763602256775,-0.013639611192047596
1909,8216007,-0.02778846211731434,0.028296420350670815,1.4670593738555908,-1.5921615984812831,1.6212654614215305,84.05631041703055,0.1625111699104309,0.09048791974782944,-0.02068450301885605
1933,8216107,-0.015314635820686817,0.029527366161346436,1.4651323556900024,-0.8774639973052244,1.6917934611825534,83.94590040909729,0.13136301934719086,0.016377825289964676,-0.01931026391685009
1957,8216207,-0.011071305721998215,0.025465719401836395,1.4643809795379639,-0.6343390915695364,1.4590782439896408,83.90284972675869,0.0511130690574646,-0.04055836796760559,-0.008133666589856148
1983,8216307,-0.015548021532595158,0.01958860643208027,1.4649789333343506,-0.8908360135962284,1.1223444751010172,83.93710995563548,-0.03954974561929703,-0.06064203754067421,0.005283208563923836
2009,8216407,-0.02577732875943184,0.016245178878307343,1.4665160179138184,-1.4769321450366426,0.9307801871620796,84.02517841479363,-0.10193678736686707,-0.039237767457962036,0.015422627329826355
2033,8216507,-0.03511609509587288,0.019515210762619972,1.4678573608398438,-2.012004041973564,1.118139213006405,84.1020317033346,-0.09878937900066376,0.026144975796341896,0.015828551724553108
2062,8216607,-0.03863278776407242,0.027618158608675003,1.4684624671936035,-2.213495689705998,1.5824039261999794,84.13670174356159,-0.04185357689857483,0.08114339411258698,0.010156961157917976
2084,8216707,-0.034857142716646194,0.032194528728723526,1.4687769412994385,-1.9971671635490038,1.8446106195685377,84.15471978259208,0.0331641249358654,0.05361625552177429,0.005404060706496239
2108,8216807,-0.02562655322253704,0.028138475492596626,1.4692175388336182,-1.4682933431187515,1.6122158876580868,84.17996416176445,0.09140662848949432,-0.032445844262838364,0.003600209951400757
2134,8216907,-0.01443887036293745,0.016073232516646385,1.469644546508789,-0.8272863327328431,0.9209283863362766,84.20442989937143,0.11273801326751709,-0.11672037839889526,0.0026467517018318176
2158,8217007,-0.005308800842612982,-0.0037604838144034147,1.470137357711792,-0.30417188255721905,-0.21545985149257285,84.23266590140027,0.09561184048652649,-0.19363224506378174,0.003309302031993866
2182,8217107,-0.003105897456407547,-0.021380513906478882,1.471039056777954,-0.17795481585257003,-1.2250132106620044,84.28432945228225,0.028960993513464928,-0.18655778467655182,0.00800660066306591
2206,8217207,-0.010334682650864124,-0.02844739332795143,1.4728163480758667,-0.592133698501588,-1.6299155758402344,84.38616074261796,-0.06490389257669449,-0.08331646025180817,0.016314009204506874
2232,8217307,-0.025318751111626625,-0.01883104257285595,1.4749820232391357,-1.450657581238367,-1.078939263255821,84.51024478926959,-0.14609143137931824,0.08303093910217285,0.02217770740389824
2258,8217407,-0.04168079420924187,0.002608079928904772,1.4761189222335815,-2.3881335949428806,0.1494319725590232,84.575384303384,-0.16769354045391083,0.21092389523983002,0.018009807914495468
2282,8217507,-0.05320281535387039,0.03151705861091614,1.4751955270767212,-3.048296777990589,1.8057944410719438,84.52247765807309,-0.12103426456451416,0.2878568172454834,0.0036968644708395004
2309,8217607,-0.055325936526060104,0.054683394730091095,1.4730846881866455,-3.1699426605519276,3.1331277274821474,84.40153549843967,-0.028385067358613014,0.24551613628864288,-0.009478024207055569
2333,8217707,-0.04899570718407631,0.06365226954221725,1.471058964729309,-2.8072472359063796,3.647006401198165,84.28547009387364,0.060852471739053726,0.10539145022630692,-0.01582312397658825
2361,8217807,-0.03852153941988945,0.057387590408325195,1.4696084260940552,-2.2071216291064952,3.2880667268224784,84.20236035205292,0.10539063811302185,-0.05347747355699539,-0.016483882442116737
2383,8217907,-0.028803687542676926,0.03622543811798096,1.4687539339065552,-1.650329730608933,2.0755647151726446,84.15340155608227,0.10204692929983139,-0.2035001665353775,-0.014203742146492004
2407,8218007,-0.023996315896511078,0.009454947896301746,1.4682601690292358,-1.374887624732771,0.5417286099741864,84.12511091254008,0.05312050133943558,-0.27324551343917847,-0.010058504529297352
2431,8218107,-0.025259405374526978,-0.011549614369869232,1.4683791399002075,-1.4472573209704642,-0.6617441583971547,84.13192744133175,-0.008971152827143669,-0.22126442193984985,-0.0026453640311956406
2455,8218207,-0.030372988432645798,-0.015371830202639103,1.468826413154602,-1.7402440483902735,-0.8807409940029496,84.15755431109764,-0.05098189041018486,-0.055335260927677155,0.0038874559104442596
2481,8218307,-0.034709032624959946,-0.00203954940661788,1.469446063041687,-1.988681080392086,-0.11685757310761594,84.19305763440336,-0.047932013869285583,0.12578114867210388,0.009814117103815079
2507,8218407,-0.034567203372716904,0.022493727505207062,1.4703913927078247,-1.9805548628270633,1.288795651565699,84.24722103452157,-0.002916937693953514,0.24100354313850403,0.016149630770087242
2531,8218507,-0.028758782893419266,0.04696650430560112,1.4721285104751587,-1.647756883725954,2.6909824751939535,84.346750551107,0.054314203560352325,0.25474950671195984,0.023212146013975143
2567,8218607,-0.019913988187909126,0.05955567955970764,1.4744839668273926,-1.1409874764405672,3.412289084804793,84.48170825891728,0.08827432245016098,0.14006207883358002,0.026345647871494293
2582,8218707,-0.011284216307103634,0.056110408157110214,1.4758844375610352,-0.6465379695097379,3.2148895741588426,84.56194932128659,0.08762668073177338,-0.02597224712371826,0.014945531263947487
2606,8218807,-0.005623097065836191,0.040107257664203644,1.475300908088684,-0.32217972966481057,2.297976592002593,84.52851554529937,0.06043989956378937,-0.15442588925361633,-0.005254199728369713
2635,8218907,-0.0052622659131884575,0.0174391008913517,1.47377347946167,-0.30150562750125465,0.9991868795772844,84.441000331464,0.008791806176304817,-0.23075860738754272,-0.016143575310707092
2656,8219007,-0.008277869783341885,0.00020371231948956847,1.4729478359222412,-0.4742870019443632,0.011671856141572899,84.39369444127249,-0.028718607500195503,-0.18262816965579987,-0.010300500318408012
2680,8219107,-0.012465466745197773,-0.0034816551487892866,1.4734607934951782,-0.7142186341605116,-0.1994841457456188,84.42308474527105,-0.042448677122592926,-0.04951617494225502,0.003601519390940666
2704,8219207,-0.01605808734893799,0.004103526007384062,1.4744518995285034,-0.9200606321465676,0.23511472134527622,84.47987093803054,-0.03710233047604561,0.07262338697910309,0.01030086912214756
2730,8219307,-0.019703557714819908,0.018173012882471085,1.4753353595733643,-1.1289306984516136,1.0412369392024678,84.53048946996951,-0.034808918833732605,0.13839338719844818,0.009178826585412025
2756,8219407,-0.02557494305074215,0.030741887167096138,1.4779151678085327,-1.4653362980949591,1.7613803889419952,84.67830159379776,-0.0561886727809906,0.13411295413970947,0.024759648367762566
2784,8219507,-0.03478797525167465,0.0319417342543602,1.4818377494812012,-1.9932041597265153,1.830126563103291,84.90304896843702,-0.0902118906378746,0.021720552816987038,0.03733797371387482
2814,8219607,-0.04578521102666855,0.02227899059653282,1.4895273447036743,-2.6232993559439466,1.276492132992979,85.34363032084869,-0.11286850273609161,-0.09360925108194351,0.06624781340360641
2831,8219707,-0.05534859746694565,0.004543752409517765,1.5066232681274414,-3.1712410368244646,0.2603378362177664,86.3231545799094,-0.10184796154499054,-0.18366362154483795,0.15209370851516724
2859,8219807,-0.06144172325730324,-0.011511536315083504,1.532826542854309,-3.5203514286542688,-0.6595624465658646,87.82449163118072,-0.06176382303237915,-0.18462726473808289,0.2436334788799286
2890,8219907,-0.06338232010602951,-0.01779891550540924,1.5653489828109741,-3.6315394378226715,-1.01980273836991,89.68789018016527,-0.01665545627474785,-0.09347056597471237,0.31181883811950684
2905,8220007,-0.06065703183412552,-0.014600718393921852,1.6048225164413452,-3.475391921886071,-0.8365595418307519,91.94955705965324,0.030748950317502022,0.005220286548137665,0.38329634070396423
2929,8220107,-0.05311330407857895,-0.0022865275386720896,1.6528950929641724,-3.0431681596975557,-0.13100837770634685,94.70391280473093,0.07652895152568817,0.08949121087789536,0.4668155014514923
2953,8220207,-0.040904734283685684,0.014844580553472042,1.7081184387207031,-2.3436686365592743,0.8505318143559237,97.86797744717182,0.11665342003107071,0.14905744791030884,0.5439325571060181
2979,8220307,-0.02577829174697399,0.029373852536082268,1.7678027153015137,-1.4769873201585315,1.6829977783571637,101.28763459854378,0.13852912187576294,0.13311009109020233,0.5883697271347046
3005,8220407,-0.01084933802485466,0.038247812539339066,1.829758882522583,-0.6216212793349727,2.1914382341116765,104.83746149511782,0.1312721222639084,0.08068036288022995,0.5999053120613098
3029,8220507,-0.00012733529729302973,0.0391196571290493,1.8928873538970947,-0.00729577511793422,2.241391249493388,108.45445647198977,0.08929619938135147,0.012067575007677078,0.614387571811676
3067,8220647,0.0005978770204819739,0.029880965128540993,1.9861621856689453,0.03425582994147378,1.7120531896429863,113.79871066730956,-0.030046839267015457,-0.07453687489032745,0.651452898979187
3078,8220687,-0.0020417191553860903,0.025466028600931168,2.0131916999816895,-0.11698189055463809,1.4590959597928004,115.34738775971826,-0.05933040753006935,-0.09363111108541489,0.6590406894683838
3086,8220707,-0.00348096527159214,0.023175200447440147,2.0267856121063232,-0.19944461869384,1.3278411750080175,116.12626155153148,-0.07123906910419464,-0.10293272137641907,0.6614636778831482
3096,8220747,-0.007357020862400532,0.01826002635061741,2.0539121627807617,-0.4215262452052476,1.0462224436880483,117.68049841792457,-0.09262220561504364,-0.1173865869641304,0.6647666096687317
3110,8220787,-0.011816156096756458,0.013367774896323681,2.081015110015869,-0.6770158744119215,0.7659170830402785,119.23338290686199,-0.10921971499919891,-0.1280307173728943,0.665156900882721
3113,8220807,-0.014325752854347229,0.010937944985926151,2.0944533348083496,-0.8208051769015886,0.6266980842398491,120.00333647161919,-0.11688530445098877,-0.13011384010314941,0.6643272638320923
3127,8220847,-0.019546136260032654,0.0066057490184903145,2.1211929321289062,-1.1199111134874944,0.37848153928218103,121.53540254396641,-0.12964369356632233,-0.12941263616085052,0.6601095199584961
3140,8220887,-0.0249245036393404,0.0026988801546394825,2.147733449935913,-1.4280688649926656,0.15463444227245732,123.05606220039971,-0.13644807040691376,-0.12286604940891266,0.6545559763908386
3145,8220907,-0.02760525792837143,0.0009790927870199084,2.160999298095703,-1.581664771665737,0.05609788444794194,123.81613931161706,-0.1376880705356598,-0.1179448589682579,0.6518200039863586
3159,8220947,-0.032633181661367416,-0.0013273829827085137,2.187922239303589,-1.869743581280069,-0.07605344270668457,125.35871021490776,-0.13321322202682495,-0.1009867712855339,0.6466145515441895
3172,8220987,-0.03675663843750954,-0.0020370434504002333,2.213968515396118,-2.1060002515576333,-0.11671399239270021,126.85105190704219,-0.12113382667303085,-0.07492802292108536,0.6418120265007019
3176,8221007,-0.03874924033880234,-0.0017002093372866511,2.226921796798706,-2.220167930751454,-0.09741481931525978,127.59322026225578,-0.11313450336456299,-0.05728733539581299,0.6393157243728638
3190,8221047,-0.04186588525772095,0.0004776622517965734,2.252645969390869,-2.398738530846383,0.02736803106065888,129.06710678325283,-0.09586934000253677,-0.015160583890974522,0.6347000598907471
3203,8221087,-0.04390260577201843,0.004670816008001566,2.2780706882476807,-2.5154340203633434,0.26761804414063306,130.5238358690548,-0.07662025094032288,0.03134767711162567,0.6304196119308472
3207,8221107,-0.04450400546193123,0.007442992180585861,2.29065203666687,-2.5498916843958233,0.4264520388964433,131.24469403405794,-0.06442192196846008,0.055412374436855316,0.6276959180831909
3221,8221147,-0.04401331767439842,0.014413976110517979,2.3155062198638916,-2.5217773451115812,0.8258599971350741,132.66873383449226,-0.03264334052801132,0.10377546399831772,0.6208862662315369
3234,8221187,-0.0415983609855175,0.02300536073744297,2.3399922847747803,-2.3834105191318167,1.3181100764314533,134.07168201076956,0.006907563656568527,0.15159526467323303,0.6133759617805481
3240,8221207,-0.03991711884737015,0.027781840413808823,2.3522419929504395,-2.2870824402764227,1.5917822028172302,134.77353858950173,0.02719159610569477,0.17264845967292786,0.6100084781646729
3253,8221247,-0.0350198820233345,0.03799702599644661,2.377322196960449,-2.006491438983129,2.1770692236452622,136.21052842860237,0.06728307157754898,0.208207905292511,0.6058735251426697
3265,8221267,-0.032120585441589355,0.04295951500535011,2.3895480632781982,-1.8403739812924258,2.4613988997354914,136.91101896950053,0.08494000881910324,0.21947897970676422,0.605027973651886
3270,8221307,-0.0256656426936388,0.05301717296242714,2.4142093658447266,-1.470533004836281,3.037660252462175,138.32400752385774,0.113880954682827,0.2332233041524887,0.6047341227531433
3284,8221347,-0.018637018278241158,0.06214910373091698,2.4386186599731445,-1.0678224900513904,3.560881344302301,139.72255705830955,0.13330785930156708,0.2326204925775528,0.6027528643608093
3296,8221367,-0.014865926466882229,0.06642961502075195,2.4506676197052,-0.8517548451041791,3.8061365753679457,140.41291159847944,0.13976018130779266,0.2270234227180481,0.6005128622055054
3303,8221407,-0.00751856155693531,0.07331693917512894,2.4745402336120605,-0.4307818452217025,4.200751181552255,141.78071162128785,0.14623025059700012,0.2041594684123993,0.5919920206069946
3317,8221447,-0.001051076571457088,0.07788044214248657,2.497865676879883,-0.06022225148957183,4.462220641377275,143.1171610758059,0.14000079035758972,0.16457316279411316,0.5795382857322693
3329,8221467,0.0016285041347146034,0.0790337398648262,2.509284257888794,0.09330641383875082,4.528299733389387,143.77139757564473,0.13031111657619476,0.138019859790802,0.572479784488678
3334,8221507,0.005476039368659258,0.07894228398799896,2.5322272777557373,0.31375394427165937,4.523059697635517,145.0859357833054,0.09660198539495468,0.07109928876161575,0.5562661290168762
3348,8221547,0.007034993264824152,0.07548034936189651,2.553807020187378,0.40307542297738375,4.324705454609647,146.3223639476178,0.04979551210999489,-0.00505203939974308,0.5390558242797852
3361,8221567,0.006946831941604614,0.07253201305866241,2.564302444458008,0.3980241512406156,4.1557782278491295,146.92370746252405,0.023868201300501823,-0.04584570974111557,0.5303095579147339
3369,8221607,0.004930976312607527,0.06422323733568192,2.5849180221557617,0.28252413159139256,3.6797204460015878,148.10489305682938,-0.031295180320739746,-0.12905363738536835,0.5129910111427307
3381,8221647,0.00044329126831144094,0.0532839372754097,2.604851484298706,0.025398718769246938,3.0529447217207824,149.24699630870387,-0.08788938075304031,-0.2085982710123062,0.4966210126876831
3393,8221667,-0.0027427533641457558,0.04701799899339676,2.6145644187927246,-0.15714819201086003,2.693932903471987,149.8035064618982,-0.11638861149549484,-0.24429768323898315,0.48887550830841064
3398,8221707,-0.010970933362841606,0.03351721540093422,2.6337480545043945,-0.6285881790100915,1.920394983504414,150.90264782389332,-0.1730879843235016,-0.30433449149131775,0.47357359528541565
3412,8221747,-0.021272115409374237,0.019759442657232285,2.6523959636688232,-1.2188024342723471,1.1321326697901746,151.97109431575842,-0.22645969688892365,-0.3419703245162964,0.45883694291114807
3424,8221767,-0.026938196271657944,0.013264825567603111,2.661520004272461,-1.5434449540610498,0.760018521000885,152.49386333445284,-0.24958375096321106,-0.35027047991752625,0.4516408145427704
3429,8221807,-0.03911386802792549,0.0014607723569497466,2.6799018383026123,-2.241059558431819,0.08369609088259827,153.54706484409047,-0.28479671478271484,-0.34098368883132935,0.4364702105522156
3443,8221847,-0.05067601799964905,-0.007848510518670082,2.6971940994262695,-2.903521953908883,-0.4496865281838284,154.53783842471418,-0.298035204410553,-0.30541902780532837,0.4211980402469635
3455,8221867,-0.05597704276442528,-0.011455874890089035,2.7055673599243164,-3.207248300024891,-0.6563732818319975,155.01759091201586,-0.2947855591773987,-0.28021618723869324,0.4134945869445801
3461,8221907,-0.06525631994009018,-0.01607731729745865,2.7218589782714844,-3.7389117191225645,-0.9211624270370553,155.9510318847465,-0.2698885202407837,-0.2160091996192932,0.3977450132369995
3474,8221927,-0.06893210858106613,-0.017053751274943352,2.729552745819092,-3.949518894632615,-0.9771079729201009,156.39185229377912,-0.24913297593593597,-0.1774548888206482,0.38909077644348145
3487,8221967,-0.07375436276197433,-0.017162002623081207,2.743821859359741,-4.225813706937971,-0.9833103182950014,157.2094122770513,-0.18983221054077148,-0.09745286405086517,0.36741507053375244
3492,8222007,-0.07479304075241089,-0.015615143813192844,2.7568883895874023,-4.285325572063115,-0.8946818369857688,157.9580693119764,-0.1098066121339798,-0.029718559235334396,0.33960050344467163
3504,8222027,-0.07385990768671036,-0.014103160239756107,2.762907028198242,-4.231860985674371,-0.8080515595347352,158.302911902792,-0.06444742530584335,-0.001849418506026268,0.32472872734069824
3518,8222067,-0.06919946521520615,-0.009710016660392284,2.773951768875122,-3.9648373013936613,-0.5563429736421923,158.9357289293937,0.030761152505874634,0.048886895179748535,0.29481151700019836
3523,8222107,-0.06079511344432831,-0.003580790478736162,2.784271717071533,-3.4833034153790616,-0.20516418175221166,159.5270184058417,0.12656493484973907,0.09779874980449677,0.2655915319919586
3536,8222127,-0.055612049996852875,-0.0003942408657167107,2.78895902633667,-3.1863357548901927,-0.022588337717151352,159.7955814440066,0.17031487822532654,0.11749003827571869,0.2524438798427582
3549,8222167,-0.043760545551776886,0.005618820898234844,2.797663450241089,-2.507294569306804,0.3219347233087628,160.29430819682258,0.2451930195093155,0.1414211541414261,0.22837470471858978
3554,8222207,-0.030686356127262115,0.010175117291510105,2.8058362007141113,-1.758198694727533,0.5829912768541143,160.76257230594032,0.2986583709716797,0.13801005482673645,0.20651736855506897
3568,8222227,-0.024132918566465378,0.011956042610108852,2.809741497039795,-1.382714381191371,0.6850307812378141,160.98632930314994,0.31536197662353516,0.12712445855140686,0.1967351734638214
3581,8222267,-0.011488661170005798,0.014217091724276543,2.8172454833984375,-0.6582517972971627,0.8145793527514161,161.4162760510239,0.3280017673969269,0.09556795656681061,0.18128839135169983
3586,8222307,-0.00038332343683578074,0.014451743103563786,2.8246755599975586,-0.021962815119139834,0.8280238864414987,161.84198808161244,0.3132196366786957,0.05232217535376549,0.17082838714122772
3598,8222327,0.004322342108935118,0.01410660333931446,2.8283536434173584,0.24765196045365775,0.8082488346078721,162.05272673826403,0.2961786687374115,0.030438797548413277,0.16769839823246002
3612,8222367,0.012042499147355556,0.012242527678608894,2.835775852203369,0.6899843759333658,0.7014451665563828,162.47798797636736,0.24560129642486572,-0.010979157872498035,0.1646728813648224
3619,8222407,0.016593962907791138,0.009863568469882011,2.843252420425415,0.9507640400130675,0.5651408442625505,162.90636378073222,0.18198417127132416,-0.042265549302101135,0.16516262292861938
3632,8222427,0.01769501343369484,0.008845464326441288,2.8469889163970947,1.0138495881780092,0.5068077737386153,163.1204492300771,0.14586669206619263,-0.05033867806196213,0.16647392511367798
3645,8222467,0.017667695879936218,0.006663740146905184,2.8543860912323,1.0122844076410185,0.3818041861895542,163.54427612845473,0.0699639618396759,-0.05548928678035736,0.1690339893102646
3650,8222507,0.014868952333927155,0.004185357131063938,2.8617522716522217,0.851928214515221,0.23980329936494618,163.96632717764817,-0.005817137658596039,-0.05687684565782547,0.16962017118930817
3663,8222527,0.012579966336488724,0.0029145993757992983,2.8653128147125244,0.7207789774974559,0.16699424320476397,164.1703312677781,-0.041037604212760925,-0.05846897512674332,0.16858606040477753
3677,8222567,0.006357945967465639,0.001004441175609827,2.8721072673797607,0.3642834703080021,0.05755024013160185,164.55962472971214,-0.10564759373664856,-0.056829847395420074,0.16375090181827545
3681,8222587,0.002833747770637274,0.0004176604561507702,2.8752975463867188,0.16236178746212182,0.023930181406947915,164.74241425228004,-0.13290713727474213,-0.05214419960975647,0.1593041867017746
3696,8222627,-0.0045794337056577206,-0.00013976122136227787,2.8806984424591064,-0.2623822238941423,-0.008007728123652164,165.05186280281663,-0.17098522186279297,-0.035927705466747284,0.1433148831129074
3709,8222667,-0.012197216972708702,0.0003206966503057629,2.8848578929901123,-0.6988490543415432,0.018374564566503056,165.2901817633367,-0.18831095099449158,-0.013223579153418541,0.11734110116958618
3713,8222687,-0.015987752005457878,0.0007638281094841659,2.8864569664001465,-0.9160307138145544,0.043764126946899275,165.38180192086327,-0.1913536936044693,-0.0021187011152505875,0.10227447748184204
3727,8222727,-0.023526089265942574,0.002078983699902892,2.888760805130005,-1.3479456233865383,0.11911699168092821,165.51380215676292,-0.19249320030212402,0.017549168318510056,0.07081404328346252
3740,8222767,-0.030065685510635376,0.00368653517216444,2.8899309635162354,-1.7226368879270384,0.21122290639155675,165.58084729365578,-0.18436874449253082,0.031356535851955414,0.040801361203193665
3744,8222787,-0.0329134576022625,0.004630866926163435,2.8902621269226074,-1.8858022097924152,0.26532913035588546,165.59982155917007,-0.17548836767673492,0.03678727149963379,0.02722570113837719
3757,8222827,-0.03740755096077919,0.006397004704922438,2.890387535095215,-2.1432947919731955,0.36652137111738625,165.60700691817692,-0.1482330709695816,0.044190414249897,0.0043465010821819305
3773,8222867,-0.040610093623399734,0.008094060234725475,2.8899807929992676,-2.3267869702519417,0.4637554905744382,165.58370231272883,-0.11375299096107483,0.045345574617385864,-0.012596771121025085
3779,8222887,-0.041827231645584106,0.008848139084875584,2.889735698699951,-2.3965238420080066,0.5069610261081174,165.5696594437953,-0.09710099548101425,0.0446600504219532,-0.018959926441311836
3791,8222927,-0.043525565415620804,0.010329506359994411,2.8889517784118652,-2.4938311992356508,0.5918371188812214,165.52474411981328,-0.06598976254463196,0.04150079935789108,-0.028809837996959686
3805,8222967,-0.04472845420241356,0.011894206516444683,2.887941598892212,-2.562751649942488,0.6814878340492815,165.4668650967866,-0.04229966551065445,0.04013127461075783,-0.03478553891181946
3809,8222987,-0.04513823240995407,0.012681814841926098,2.887550115585327,-2.586230211770995,0.7266144670087327,165.4444347555523,-0.03370512276887894,0.03980046138167381,-0.0363551490008831
3823,8223027,-0.045561715960502625,0.014346958138048649,2.886770248413086,-2.610494031910642,0.8220201501610575,165.39975165800206,-0.01995445042848587,0.041098229587078094,-0.03686516731977463
3836,8223067,-0.04554985463619232,0.01611693948507309,2.886050224304199,-2.609814428088226,0.9234326111624382,165.35849731541518,-0.008309748023748398,0.04327930137515068,-0.03461410105228424
3840,8223087,-0.04549277573823929,0.017114272341132164,2.885864734649658,-2.606544048136259,0.9805755745843517,165.34786954106664,-0.003524595871567726,0.0451166145503521,-0.03268870711326599
3854,8223127,-0.04549505189061165,0.019185403361916542,2.885593891143799,-2.6066744620607243,1.0992426408939184,165.33235135127237,0.001484973356127739,0.049252208322286606,-0.027401134371757507
3867,8223167,-0.04585722088813782,0.021378453820943832,2.885443925857544,-2.6274252170894576,1.2248951764554101,165.3237589732965,-0.0005723796784877777,0.05350472405552864,-0.02157057821750641
3871,8223187,-0.04627895727753639,0.022495832294225693,2.8854928016662598,-2.6515889322690818,1.288916247093232,165.3265593508562,-0.004366064444184303,0.05517174303531647,-0.018888212740421295
3886,8223227,-0.04740625619888306,0.024920912459492683,2.8855350017547607,-2.7161784027118956,1.4278631055439188,165.3289772378224,-0.015368379652500153,0.058227844536304474,-0.014779899269342422
3890,8223247,-0.04809226468205452,0.026118816807866096,2.8855276107788086,-2.755483793507792,1.4964979689660844,165.32855376609385,-0.021340278908610344,0.05948367714881897,-0.013674037531018257
3903,8223287,-0.04951587691903114,0.02833211049437523,2.8854269981384277,-2.8370507663497304,1.623310356026009,165.32278908643434,-0.03075038082897663,0.05984465777873993,-0.01368657685816288
3917,8223327,-0.0509553886950016,0.030317209661006927,2.885087251663208,-2.9195287156722194,1.7370481601889423,165.3033230472998,-0.03526774048805237,0.057034991681575775,-0.017109081149101257
3921,8223347,-0.05167616158723831,0.031137626618146896,2.8847455978393555,-2.9608259603848204,1.7840545892740278,165.28374772513857,-0.03628954663872719,0.05417263135313988,-0.020277690142393112
3936,8223387,-0.05323657765984535,0.03246443718671799,2.883791446685791,-3.050231215629583,1.8600752350665044,165.22907889102177,-0.03709861636161804,0.04569568485021591,-0.028856735676527023
3949,8223427,-0.05478984862565994,0.03310232236981392,2.8822925090789795,-3.1392270864109686,1.896623363871831,165.14319609239803,-0.03790271654725075,0.03415229171514511,-0.04036182910203934
3954,8223447,-0.05551079660654068,0.03317631408572197,2.8813278675079346,-3.1805343629639133,1.9008627769122932,165.0879262016343,-0.03742665797472,0.0267347265034914,-0.04712291061878204
3967,8223487,-0.05665888264775276,0.03282218798995018,2.8790509700775146,-3.2463148476432484,1.8805728462091242,164.95746958848704,-0.034162599593400955,0.01139305904507637,-0.06115330010652542
3981,8223527,-0.057131435722112656,0.031614821404218674,2.8761868476867676,-3.2733901444000018,1.8113958365215888,164.79336746348832,-0.02420393005013466,-0.007186396047472954,-0.07583974301815033
3986,8223547,-0.057085245847702026,0.03074897825717926,2.8745992183685303,-3.2707436595400337,1.7617866784759053,164.7024030041221,-0.01675676740705967,-0.016187775880098343,-0.08271536231040955
3999,8223587,-0.05610435828566551,0.028313491493463516,2.8711400032043457,-3.2145429420584644,1.6222435658550176,164.50420457478666,0.003049621358513832,-0.03576022386550903,-0.09592482447624207
4013,8223627,-0.05420055240392685,0.025273995473980904,2.867318630218506,-3.105462900022657,1.4480932720918505,164.28525603075275,0.027371402829885483,-0.05448690056800842,-0.10766373574733734
4018,8223647,-0.05284919589757919,0.0235131848603487,2.8652682304382324,-3.0280358755913923,1.3472062554088846,164.1677767770285,0.039876386523246765,-0.06321524828672409,-0.11292955279350281
4031,8223687,-0.049365777522325516,0.01984357461333275,2.861046552658081,-2.828450704411038,1.136953075796911,163.92589245776168,0.06596142053604126,-0.07735339552164078,-0.12165354192256927
4045,8223727,-0.04475962743163109,0.016039464622735977,2.856679677963257,-2.5645377444104462,0.9189936285321647,163.67568896808578,0.0925908163189888,-0.08612196892499924,-0.1278262436389923
4049,8223747,-0.04201867803931236,0.014183246530592442,2.8544275760650635,-2.4074929123716355,0.8126401659965143,163.5466530342859,0.10639198124408722,-0.08817541599273682,-0.12988877296447754
4062,8223787,-0.035843443125486374,0.01064489409327507,2.8499181270599365,-2.0536780143075735,0.6099075049084008,163.28828063836266,0.1335926353931427,-0.08805730938911438,-0.1325927972793579
4076,8223827,-0.028923094272613525,0.007468011695891619,2.84531569480896,-1.6571712322797587,0.42788555152892616,163.0245806948868,0.15695759654045105,-0.08249420672655106,-0.13331063091754913
4080,8223847,-0.025511665269732475,0.006166299805045128,2.843100070953369,-1.4617107483061518,0.35330295404142814,162.89763479897294,0.16471044719219208,-0.07789765298366547,-0.1327240914106369
4093,8223887,-0.018987854942679405,0.003935121465474367,2.8388190269470215,-1.0879239502221496,0.22546585184301673,162.65234904549945,0.1708972305059433,-0.06585505604743958,-0.12978720664978027
4101,8223907,-0.01599338836967945,0.0030254244338721037,2.8368096351623535,-0.916353653696249,0.17334405129662797,162.53721937684972,0.16883933544158936,-0.05930471420288086,-0.12745867669582367
4112,8223947,-0.010783631354570389,0.001733811921440065,2.8328802585601807,-0.6178565644418262,0.09934010556798357,162.31208268142774,0.15476998686790466,-0.04459630697965622,-0.12156468629837036
4125,8223987,-0.006851547863334417,0.0009834665106609464,2.829221248626709,-0.39256477570093906,0.05634848035333001,162.10243685504338,0.13007377088069916,-0.03041551634669304,-0.11499308794736862
4129,8224007,-0.005442093592137098,0.0007746141054667532,2.827535629272461,-0.31180899454464533,0.04438211899454659,162.0058579801794,0.11439703404903412,-0.02335977554321289,-0.11148960143327713
4143,8224047,-0.003959533758461475,0.000570970238186419,2.8243138790130615,-0.22686457319941486,0.03271418487566116,161.82126528767063,0.07725568115711212,-0.01177004724740982,-0.10404320061206818
4156,8224087,-0.004412386566400528,0.0006387291359715164,2.8211746215820312,-0.252811127834971,0.03659648374320558,161.6413990860675,0.03271409496665001,-0.0030201394110918045,-0.09729457646608353
4160,8224107,-0.005307294894009829,0.0007436156738549471,2.819687604904175,-0.30408559805809476,0.04260603969166518,161.55619930636078,0.009481247514486313,0.00021686777472496033,-0.09478232264518738
4174,8224147,-0.008383598178625107,0.001031436724588275,2.8165385723114014,-0.48034479276878267,0.059096971153705616,161.37577302924572,-0.03690093755722046,0.004853095859289169,-0.09276282787322998
4187,8224187,-0.012717192992568016,0.0013553905300796032,2.8131136894226074,-0.7286414857274927,0.07765815696556072,161.17954169439125,-0.07826697826385498,0.008236747235059738,-0.09521836787462234
4191,8224207,-0.01514136977493763,0.001524616964161396,2.811258316040039,-0.8675365841508753,0.08735411742049629,161.07323663014918,-0.09521062672138214,0.009058482944965363,-0.09824544936418533
4206,8224247,-0.020359812304377556,0.0020048811566084623,2.8070921897888184,-1.166531316719357,0.11487122869897193,160.83453517903558,-0.11988426744937897,0.010904399678111076,-0.10747386515140533
4219,8224287,-0.02550947293639183,0.002871285891160369,2.8023791313171387,-1.461585136858447,0.1645125633389486,160.56449682000996,-0.1310703009366989,0.015571126714348793,-0.11996731907129288
4223,8224307,-0.027857201173901558,0.0034079409670084715,2.7997922897338867,-1.5961000563114418,0.19526063423931794,160.4162817150207,-0.1314999759197235,0.019504312425851822,-0.12702365219593048
4237,8224347,-0.031949110329151154,0.004918500315397978,2.794144630432129,-1.8305491810581855,0.2818093096060684,160.09269467290216,-0.1222708448767662,0.02955760806798935,-0.14178746938705444
4252,8224387,-0.03483505919575691,0.0073206499218940735,2.7878739833831787,-1.995901871005259,0.41944234381730616,159.73341306218114,-0.10030168294906616,0.0454380065202713,-0.15579825639724731
4256,8224407,-0.035545866936445236,0.008772097527980804,2.7846741676330566,-2.0366281545919294,0.5026041658304427,159.55007712447966,-0.08461839705705643,0.05455131456255913,-0.16198913753032684
4270,8224447,-0.0354936346411705,0.012444455176591873,2.777991771697998,-2.033635464518406,0.7130147599584439,159.16720404036542,-0.04399396479129791,0.07557445764541626,-0.17243686318397522
4283,8224487,-0.033436369150877,0.016954513266682625,2.771141767501831,-1.9157628345866762,0.9714220538794768,158.77472771027814,0.004825891926884651,0.09900754690170288,-0.17965689301490784
4287,8224507,-0.03172639384865761,0.019504671916365623,2.7676897048950195,-1.8177884666978976,1.1175353815950937,158.57693909229292,0.030308922752738,0.10987422615289688,-0.18210344016551971
4301,8224547,-0.027190087363123894,0.024910258129239082,2.7607760429382324,-1.5578772504989926,1.427252657386849,158.18081544118886,0.07844259589910507,0.12918341159820557,-0.18469643592834473
4314,8224567,-0.024449115619063377,0.02773265540599823,2.757295846939087,-1.4008311377997125,1.5889641094543652,157.9814148985595,0.1000375747680664,0.13615275919437408,-0.1851213276386261
4322,8224607,-0.01837896928191185,0.03347951918840408,2.7505910396575928,-1.0530373716541344,1.9182351496228092,157.59725773888132,0.13560983538627625,0.14596259593963623,-0.18453869223594666
4334,8224647,-0.011730754747986794,0.038880135864019394,2.7440285682678223,-0.6721227375626949,2.2276676919035396,157.22125582507212,0.16011592745780945,0.14669108390808105,-0.18189258873462677
4346,8224667,-0.008214136585593224,0.04154684394598007,2.7406423091888428,-0.4706353586984922,2.3804588101933133,157.02723747150873,0.16834688186645508,0.14369414746761322,-0.17975637316703796
4351,8224707,-0.0016804335173219442,0.04583294689655304,2.734565496444702,-0.09628174829487152,2.626034419819714,156.67906174837816,0.17518222332000732,0.13068747520446777,-0.17460289597511292
4365,8224747,0.004165173042565584,0.04892713576555252,2.728703260421753,0.23864683628067196,2.8033183830297417,156.3431803657536,0.17021644115447998,0.10755356401205063,-0.16859622299671173
4377,8224767,0.006669695023447275,0.05004953593015671,2.7258598804473877,0.38214537548293753,2.8676271753863505,156.18026669367046,0.16274473071098328,0.09323615580797195,-0.16513602435588837
4382,8224807,0.01034123357385397,0.05153775215148926,2.7205379009246826,0.5925090387408214,2.9528956838716125,155.87533972836442,0.13697630167007446,0.06402349472045898,-0.15780013799667358
4396,8224847,0.012593942694365978,0.05124933645129204,2.715397357940674,0.721579763816787,2.9363706815050015,155.58080831097513,0.10083619505167007,0.030262114480137825,-0.15031221508979797
4408,8224867,0.013138587586581707,0.050296951085329056,2.7128748893737793,0.7527856174741059,2.8818030195653,155.43628150813765,0.08164942264556885,0.009456098079681396,-0.14676198363304138
4414,8224907,0.012996596284210682,0.04732095077633858,2.7081923484802246,0.7446501151206802,2.711290762030517,155.16799167753956,0.04143396019935608,-0.03540631756186485,-0.13950800895690918
4428,8224947,0.011140053160488605,0.04291896894574165,2.7034966945648193,0.638278029647371,2.459075781644041,154.89895052613275,-0.001275947317481041,-0.07777328044176102,-0.13259686529636383
4440,8224967,0.009785556234419346,0.040411606431007385,2.7012224197387695,0.560671072420159,2.3154144918404587,154.76864417714725,-0.021575497463345528,-0.09529551863670349,-0.12976840138435364
4445,8225007,0.006100438069552183,0.03457941114902496,2.696895122528076,0.34952935456627543,1.981254316886755,154.52070831027578,-0.05803232640028,-0.1254386603832245,-0.1255507618188858
4459,8225047,0.0010844606440514326,0.028421415016055107,2.692633867263794,0.062135017952186136,1.6284271282097005,154.27655636820452,-0.09206100553274155,-0.14665555953979492,-0.1224052682518959
4471,8225067,-0.0017529752803966403,0.025244086980819702,2.6905195713043213,-0.10043808515748956,1.4463796416621177,154.15541613308517,-0.1080193743109703,-0.15308086574077606,-0.12102439254522324
4476,8225107,-0.007677351124584675,0.01922186277806759,2.6864941120147705,-0.43987981727871817,1.1013316115628846,153.9247743051922,-0.13314513862133026,-0.15785916149616241,-0.11882726848125458
4490,8225147,-0.013583660125732422,0.013665816746652126,2.682485580444336,-0.778286395544613,0.7829936231823682,153.69510236416133,-0.1454099714756012,-0.15177741646766663,-0.11700567603111267
4502,8225167,-0.016464602202177048,0.011272667907178402,2.680502414703369,-0.9433522175465457,0.6458762949338929,153.581475337129,-0.14753766357898712,-0.1451859176158905,-0.11606677621603012
4507,8225207,-0.02199701964855194,0.007292533293366432,2.676758289337158,-1.2603363877283715,0.4178313796685352,153.36695275567723,-0.14568153023719788,-0.1244920939207077,-0.11391152441501617
4521,8225227,-0.024687452241778374,0.005698755383491516,2.6748087406158447,-1.4144868203846837,0.3265146319515208,153.25525184199086,-0.14194436371326447,-0.11072780191898346,-0.11238586902618408
4534,8225267,-0.029186222702264786,0.003727106610313058,2.6711597442626953,-1.6722473807686808,0.21354747856624862,153.04617975149677,-0.1296490877866745,-0.07958077639341354,-0.10906735062599182
4539,8225307,-0.03269187733530998,0.002927361987531185,2.667764186859131,-1.873106595672654,0.16772548699256523,152.85162864317812,-0.11058397591114044,-0.0465511716902256,-0.10543634742498398
4551,8225327,-0.03405647352337837,0.0029315899591892958,2.6660990715026855,-1.951292197988613,0.1679677319244759,152.75622456085136,-0.09896919131278992,-0.03063376620411873,-0.10339345782995224
4565,8225367,-0.03604026138782501,0.003599945455789566,2.6628575325012207,-2.064954870070676,0.2062616810940416,152.57049805694038,-0.07379467785358429,-0.0016236137598752975,-0.0987197533249855
4572,8225407,-0.037005312740802765,0.004079621285200119,2.6599390506744385,-2.1202482396096913,0.23374508165370356,152.40328136568013,-0.0478779599070549,0.01568622887134552,-0.09374209493398666
4584,8225427,-0.03718109801411629,0.004353411961346865,2.658543348312378,-2.13031999387111,0.2494321318669452,152.32331351087763,-0.03517015278339386,0.018656857311725616,-0.0911458283662796
4598,8225467,-0.03726787865161896,0.005081184208393097,2.6558446884155273,-2.1352921581434674,0.2911304100694466,152.16869168844687,-0.013869432732462883,0.021346285939216614,-0.0857962965965271
4603,8225507,-0.037278153002262115,0.006285835523158312,2.6535654067993164,-2.135880835072558,0.3601518461903791,152.03809847151624,-0.002546757459640503,0.025377651676535606,-0.07955089211463928
4615,8225527,-0.03715365752577782,0.0069544874131679535,2.6524224281311035,-2.1287477697015373,0.3984627774513773,151.97261061775416,0.0010973569005727768,0.028804583474993706,-0.07592509686946869
4630,8225567,-0.0370502695441246,0.00828597228974104,2.650315761566162,-2.1228240747004326,0.47475124136451247,151.8519075147417,0.0046735964715480804,0.03358166664838791,-0.06981737911701202
4636,8225607,-0.03704486042261124,0.00949457474052906,2.6484086513519287,-2.122514154866843,0.5439990609038339,151.74263814839983,0.0038598719984292984,0.03580515831708908,-0.06547871232032776
4648,8225627,-0.03716680780053139,0.010025141760706902,2.6474223136901855,-2.1295012249443546,0.5743983119088565,151.68612516320712,0.0022412892431020737,0.034892916679382324,-0.06430966407060623
4662,8225667,-0.03783266991376877,0.010909761302173138,2.645355224609375,-2.1676523137705184,0.62508327810967,151.56768968299912,-0.004954088479280472,0.03128931671380997,-0.06362535059452057
4667,8225707,-0.03894741088151932,0.011413362808525562,2.643214702606201,-2.231522266472954,0.6539375189800947,151.44504680626235,-0.015547337010502815,0.024119047448039055,-0.06589476764202118
4679,8225727,-0.039687760174274445,0.011576064862310886,2.642038106918335,-2.273941156313318,0.6632596599801043,151.37763283915433,-0.02158912643790245,0.02032371424138546,-0.0678633525967598
4693,8225767,-0.041275929659605026,0.011545215733349323,2.63942813873291,-2.364936564974225,0.6614921350889519,151.2280926774661,-0.03235726058483124,0.011651106178760529,-0.07331596314907074
4698,8225807,-0.04286633059382439,0.011453591287136078,2.6366665363311768,-2.4560598262386573,0.6562424410207095,151.06986451515357,-0.03817038983106613,0.004284452646970749,-0.07950165867805481
4711,8225827,-0.04354003444314003,0.011299564503133297,2.6352570056915283,-2.4946602134461613,0.647417356365377,150.98910435840733,-0.03842143341898918,0.0017972681671380997,-0.08212777972221375
4724,8225867,-0.044749289751052856,0.010794187895953655,2.6323745250701904,-2.563945438943359,0.6184614097093426,150.82395038427643,-0.03575284779071808,-0.0035929959267377853,-0.08577898144721985
4730,8225887,-0.04509597644209862,0.010340189561247826,2.6309990882873535,-2.583809123153637,0.5924492212247309,150.74514366163282,-0.032224055379629135,-0.006828716024756432,-0.08685501664876938
4742,8225927,-0.04549144208431244,0.009042303077876568,2.628368377685547,-2.6064676353949197,0.5180858034404815,150.59441504702897,-0.021321775391697884,-0.017102470621466637,-0.08696615695953369
4756,8225967,-0.04558272287249565,0.007427275646477938,2.625962972640991,-2.6116976393084452,0.42555154782348587,150.45659548995647,-0.010831549763679504,-0.027630582451820374,-0.083064965903759
4760,8225987,-0.04539003223180771,0.0064745377749204636,2.624987840652466,-2.6006572788453544,0.37096368880096553,150.40072454254576,-0.005005979910492897,-0.033090829849243164,-0.07982468605041504
4773,8226027,-0.04438519477844238,0.0045547583140432835,2.6232500076293945,-2.5430843336708477,0.26096842809680254,150.30115404482532,0.009071499109268188,-0.04143469035625458,-0.07140406221151352
4787,8226067,-0.042556095868349075,0.002571516903117299,2.6218769550323486,-2.438284685810522,0.14733706549517306,150.2224839259651,0.027156153693795204,-0.04653552919626236,-0.061297208070755005
4791,8226087,-0.04139264300465584,0.0017065219581127167,2.6213624477386475,-2.37162374705849,0.09777650584625973,150.19300482950732,0.036898642778396606,-0.046824220567941666,-0.055598631501197815
4804,8226127,-0.03878157585859299,4.9181438953382894e-05,2.6206417083740234,-2.22202061956382,0.0028178888824091446,150.15170950578542,0.05322737991809845,-0.04427044093608856,-0.04497811570763588
4818,8226167,-0.03573456406593323,-0.0009977803565561771,2.6201977729797363,-2.0474397037178247,-0.05716860331172739,150.1262738813163,0.06710600852966309,-0.03752756863832474,-0.03491320088505745
4822,8226187,-0.03409035876393318,-0.0012940078740939498,2.620126485824585,-1.9532336792601892,-0.07414118984227934,150.12218942819263,0.07264060527086258,-0.03191767632961273,-0.03032994084060192
4837,8226227,-0.03055499494075775,-0.001142694614827633,2.6200809478759766,-1.750672253149002,-0.06547157870195058,150.1195802959297,0.08194426447153091,-0.01617835834622383,-0.022330323234200478
4850,8226267,-0.02669367752969265,-6.139746983535588e-05,2.6200923919677734,-1.52943506213459,-0.0035178158943476733,150.12023599409002,0.09014148265123367,0.005098404362797737,-0.016363156959414482
4854,8226287,-0.024703573435544968,0.0008839935180731118,2.6201865673065186,-1.415410496748222,0.05064909770251096,150.12563184353434,0.09375699609518051,0.01685100980103016,-0.014184074476361275
4867,8226327,-0.020820261910557747,0.0035471359733492136,2.6202995777130127,-1.1929131358319427,0.2032359206319392,150.1321068628675,0.09789479523897171,0.04255751892924309,-0.011434637010097504
4881,8226367,-0.017064474523067474,0.007245746441185474,2.6202332973480225,-0.9777223697802846,0.4151506905018639,150.12830927768897,0.09740027785301208,0.06869874894618988,-0.011209902353584766
4887,8226387,-0.015468800440430641,0.009352762252092361,2.6202151775360107,-0.8862969793667848,0.5358738038341632,150.12727108893512,0.09448697417974472,0.08090215921401978,-0.011989115737378597
4900,8226427,-0.012823164463043213,0.013805669732391834,2.6199793815612793,-0.7347132037345167,0.7910066090175568,150.11376097475684,0.08313075453042984,0.10081750154495239,-0.015099124051630497
4914,8226467,-0.011160997673869133,0.018468758091330528,2.6194751262664795,-0.6394780618680306,1.058181891481329,150.0848692745677,0.06482453644275665,0.11327588558197021,-0.01967453584074974
4918,8226487,-0.010720585472881794,0.020650802180171013,2.6191916465759277,-0.6142443015053887,1.183203808483358,150.06862708472138,0.05342872813344002,0.11579204350709915,-0.022325247526168823
4932,8226527,-0.01073492132127285,0.02467811107635498,2.6184306144714355,-0.6150656851139356,1.4139516110301897,150.02502315706005,0.027583757415413857,0.1128116101026535,-0.0279623381793499
4937,8226547,-0.011244107969105244,0.026389671489596367,2.6179425716400146,-0.6442399310191459,1.5120167990905882,149.997060362598,0.013023320585489273,0.10774890333414078,-0.030770136043429375
4950,8226587,-0.013289527036249638,0.02909102849662304,2.6168947219848633,-0.7614338109021056,1.6667931545513084,149.93702299979358,-0.018660619854927063,0.09074525535106659,-0.03602595999836922
4964,8226627,-0.016701621934771538,0.03059268370270729,2.615823984146118,-0.9569324478855294,1.7528316601437839,149.87567424066853,-0.05258061736822128,0.06664077937602997,-0.03958612680435181
4969,8226647,-0.018852440640330315,0.03087008185684681,2.6152656078338623,-1.0801652822118382,1.7687254036206976,149.8436816345962,-0.06944482773542404,0.05212874710559845,-0.04059884324669838
4982,8226687,-0.023969801142811775,0.030447781085968018,2.614226818084717,-1.3733684412509721,1.7445293517642217,149.7841633661687,-0.10106977075338364,0.020045561715960503,-0.040884118527173996
4995,8226727,-0.02942301146686077,0.02904462441802025,2.613438844680786,-1.6858143776161476,1.6641343966951752,149.73901581575493,-0.12408270686864853,-0.010899114422500134,-0.038991689682006836
