packet_index,time_boot_ms,x_m,y_m,z_m,vx_mps,vy_mps,vz_mps
64,8208567,-6.804835796356201,26.291357040405273,17.992584228515625,-0.0681363195180893,-0.010193162597715855,-0.06470151245594025
150,8208907,-6.8290791511535645,26.279438018798828,17.972972869873047,-0.06344281136989594,-0.028234392404556274,0.021040592342615128
228,8209227,-6.8430633544921875,26.270843505859375,17.920507431030273,-0.0350322425365448,-0.007868103682994843,-0.007129468489438295
313,8209567,-6.849680423736572,26.261001586914062,17.946903228759766,-0.02846614457666874,-0.01365622878074646,0.009404707700014114
399,8209907,-6.8634867668151855,26.256811141967773,17.969898223876953,-0.06397299468517303,0.024853194132447243,0.03505740687251091
475,8210227,-6.878600597381592,26.2619686126709,17.86471176147461,-0.06666393578052521,0.01259387843310833,-0.1161235049366951
562,8210567,-6.895688533782959,26.266511917114258,17.875608444213867,-0.0724499449133873,0.041896648705005646,0.057173267006874084
643,8210907,-6.91650390625,26.285722732543945,17.96373176574707,-0.04557336866855621,0.08002334833145142,0.11886004358530045
725,8211227,-6.916872978210449,26.31239128112793,17.893699645996094,0.009556700475513935,0.08056885749101639,-0.04845956712961197
811,8211567,-6.921868801116943,26.337488174438477,17.840566635131836,-0.04647824913263321,0.041615407913923264,-0.05868006870150566
894,8211907,-6.9380202293396,26.339984893798828,17.900291442871094,-0.03962339460849762,-0.0442056767642498,-0.05733509361743927
974,8212227,-6.949246883392334,26.328046798706055,17.840505599975586,-0.05905376002192497,-0.06365548074245453,-0.07887701690196991
1060,8212567,-6.963446617126465,26.318092346191406,17.817201614379883,-0.04368075355887413,-0.02989903837442398,-0.011749561876058578
1146,8212907,-6.974301338195801,26.31325912475586,17.845943450927734,-0.05440257117152214,-0.0018474941607564688,-0.005532918963581324
1223,8213227,-6.985703945159912,26.3187198638916,17.762195587158203,-0.035953089594841,0.03358251228928566,-0.035294145345687866
1309,8213567,-6.999844551086426,26.33007049560547,17.69329261779785,-0.0705600455403328,0.06601227819919586,-0.017973722890019417
1385,8213887,-7.026459217071533,26.351537704467773,17.772512435913086,-0.07676466554403305,0.10102610290050507,0.028362562879920006
1472,8214227,-7.0464887619018555,26.376985549926758,17.739883422851562,-0.040897589176893234,0.059553954750299454,-0.09274095296859741
1558,8214567,-7.057644844055176,26.39319610595703,17.69420051574707,-0.013723487965762615,0.048294954001903534,0.03761950880289078
1634,8214887,-7.064752578735352,26.399185180664062,17.757808685302734,-0.0262459684163332,-0.0247272290289402,-0.036710478365421295
1721,8215227,-7.0801496505737305,26.386642456054688,17.81734275817871,-0.05848405510187149,-0.03200249373912811,-0.07202248275279999
1807,8215567,-7.096919059753418,26.38426971435547,17.743972778320312,-0.049185700714588165,0.008410247974097729,-0.0598270446062088
1883,8215887,-7.112464904785156,26.390913009643555,17.688552856445312,-0.07557293027639389,0.04089227318763733,-0.03797939419746399
1970,8216227,-7.131136417388916,26.40108299255371,17.83057403564453,-0.036866940557956696,0.04414745420217514,-0.002176763955503702
2056,8216567,-7.141074180603027,26.40125846862793,17.794580459594727,-0.04675702750682831,-0.002657010219991207,-0.03379533439874649
2132,8216887,-7.16202449798584,26.399673461914062,17.703508377075195,-0.08134894073009491,0.025527872145175934,0.04703669995069504
2219,8217227,-7.186015605926514,26.41487693786621,17.764455795288086,-0.06312372535467148,0.07789867371320724,-0.009846348315477371
2305,8217567,-7.204244613647461,26.434589385986328,17.748964309692383,-0.05604385584592819,0.055789150297641754,-0.06421960145235062
2381,8217887,-7.224817276000977,26.446786880493164,17.68886947631836,-0.04248196259140968,0.05083467438817024,0.027117639780044556
2468,8218227,-7.2347612380981445,26.458877563476562,17.698318481445312,-0.0022649613674730062,0.03282736986875534,-0.06181410327553749
2554,8218567,-7.2439656257629395,26.459182739257812,17.730558395385742,-0.046048812568187714,-0.021735774353146553,-0.03989061713218689
2630,8218887,-7.263766288757324,26.453630447387695,17.715444564819336,-0.06123688071966171,-0.005105276126414537,-0.06948339939117432
2717,8219227,-7.290133953094482,26.445697784423828,17.653955459594727,-0.10836293548345566,-0.044753141701221466,-0.12685726583003998
2803,8219567,-7.324462413787842,26.430810928344727,17.660383224487305,-0.10087831318378448,-0.018151629716157913,0.05239701643586159
2879,8219887,-7.3586745262146,26.419189453125,17.57405662536621,-0.10645172744989395,-0.024520236998796463,0.06871198862791061
2965,8220227,-7.389121055603027,26.40264320373535,17.578031539916992,-0.10850529372692108,-0.07419783622026443,-0.011215920560061932
3043,8220547,-7.418452262878418,26.376848220825195,17.65891456604004,-0.09505999833345413,-0.0919637531042099,-0.01734083518385887
3080,8220687,-7.42833137512207,26.362886428833008,17.631853103637695,-0.0838971957564354,-0.09348452836275101,-0.0614028237760067
3095,8220707,-7.42924165725708,26.361045837402344,17.625883102416992,-0.08296313136816025,-0.09362732619047165,-0.06974220275878906
3098,8220747,-7.431000709533691,26.35747528076172,17.610496520996094,-0.0760532096028328,-0.08760496973991394,-0.07714013755321503
3112,8220787,-7.432743072509766,26.35411834716797,17.592531204223633,-0.07216440886259079,-0.08347814530134201,-0.09015362709760666
3115,8220807,-7.433614253997803,26.352542877197266,17.584150314331055,-0.07248405367136002,-0.0778224915266037,-0.09232647716999054
3129,8220847,-7.4353437423706055,26.34949493408203,17.566320419311523,-0.06719576567411423,-0.07471762597560883,-0.0994667112827301
3142,8220887,-7.436837196350098,26.34663963317871,17.548189163208008,-0.05784810706973076,-0.0730816200375557,-0.10116910189390182
3147,8220907,-7.437342166900635,26.345237731933594,17.540260314941406,-0.05268533527851105,-0.07083442062139511,-0.10089212656021118
3161,8220947,-7.438183307647705,26.34248924255371,17.526046752929688,-0.04588441550731659,-0.07151450216770172,-0.09731577336788177
3174,8220987,-7.438879489898682,26.339641571044922,17.513591766357422,-0.03409979119896889,-0.07116485387086868,-0.0961776077747345
3178,8221007,-7.4390645027160645,26.338268280029297,17.50791358947754,-0.029553521424531937,-0.07035950571298599,-0.09165768325328827
3192,8221047,-7.4392900466918945,26.335359573364258,17.49953842163086,-0.02202778495848179,-0.07818589359521866,-0.09108429402112961
3205,8221087,-7.439266681671143,26.332250595092773,17.493865966796875,-0.01248382218182087,-0.08321747183799744,-0.08711046725511551
3213,8221107,-7.43915319442749,26.33086585998535,17.491670608520508,-0.008324401453137398,-0.08500122278928757,-0.08293314278125763
3223,8221147,-7.438847064971924,26.327892303466797,17.49006462097168,-0.00727769685909152,-0.09160571545362473,-0.07534574717283249
3236,8221187,-7.438446521759033,26.324613571166992,17.49080467224121,0.0020275546703487635,-0.09836737811565399,-0.06578273326158524
3249,8221207,-7.438141822814941,26.322837829589844,17.49115753173828,0.005198840983211994,-0.10305928438901901,-0.06189877912402153
3255,8221247,-7.4375176429748535,26.318958282470703,17.493600845336914,0.006514658685773611,-0.11354812234640121,-0.0550447441637516
3267,8221267,-7.4372124671936035,26.316736221313477,17.495534896850586,0.004338877275586128,-0.11850273609161377,-0.05139731988310814
3278,8221307,-7.436227798461914,26.31222915649414,17.4993896484375,0.009082340635359287,-0.1227990984916687,-0.04644971713423729
3286,8221347,-7.43490743637085,26.307531356811523,17.5041446685791,0.010261924006044865,-0.12731999158859253,-0.03995087742805481
3298,8221367,-7.434265613555908,26.305124282836914,17.50680160522461,0.01081559807062149,-0.12732066214084625,-0.03634752705693245
3310,8221407,-7.433042049407959,26.300399780273438,17.51163673400879,0.012729897163808346,-0.12381419539451599,-0.03206236660480499
3319,8221447,-7.431900501251221,26.295793533325195,17.516029357910156,0.012487883679568768,-0.11813385784626007,-0.029293349012732506
3331,8221468,-7.4313435554504395,26.293588638305664,17.518089294433594,0.011634835973381996,-0.11422915011644363,-0.029141506180167198
3345,8221507,-7.430330276489258,26.289310455322266,17.521883010864258,0.012760760262608528,-0.10547250509262085,-0.026240887120366096
3350,8221547,-7.429391384124756,26.285167694091797,17.523712158203125,0.013295178301632404,-0.0968998521566391,-0.024257687851786613
3363,8221567,-7.428911209106445,26.28331184387207,17.52379035949707,0.014548161067068577,-0.08983538299798965,-0.02362777106463909
3377,8221607,-7.427939414978027,26.279935836791992,17.523908615112305,0.015984326601028442,-0.08002372086048126,-0.02156313695013523
3383,8221647,-7.426974296569824,26.27701759338379,17.520727157592773,0.0175181794911623,-0.0681753158569336,-0.022770583629608154
3395,8221667,-7.426480770111084,26.275737762451172,17.51768684387207,0.017588285729289055,-0.06247425824403763,-0.02361212857067585
3400,8221707,-7.425386428833008,26.273405075073242,17.51215362548828,0.01739431358873844,-0.05021335557103157,-0.029531054198741913
3414,8221747,-7.424206733703613,26.27145767211914,17.503036499023438,0.016883259639143944,-0.03684874251484871,-0.03876651078462601
3426,8221767,-7.423689365386963,26.27069854736328,17.496768951416016,0.01330842450261116,-0.030269866809248924,-0.04581494629383087
3434,8221807,-7.422842025756836,26.269569396972656,17.484983444213867,0.0115521140396595,-0.01961946114897728,-0.05595329776406288
3445,8221847,-7.42207145690918,26.26878547668457,17.470176696777344,0.010345697402954102,-0.013434617780148983,-0.06582029163837433
3457,8221867,-7.421731472015381,26.268491744995117,17.461402893066406,0.00824838224798441,-0.010774845257401466,-0.07161228358745575
3466,8221907,-7.421224117279053,26.26844596862793,17.445280075073242,0.003622499294579029,-0.005104185082018375,-0.08196871727705002
3476,8221927,-7.421058654785156,26.268646240234375,17.4378662109375,0.002085229381918907,-0.005083535797894001,-0.08579926937818527
3489,8221967,-7.420821189880371,26.26902198791504,17.418970108032227,0.0010651071788743138,-0.005863594822585583,-0.08668029308319092
3498,8222007,-7.4205002784729,26.269216537475586,17.402193069458008,0.005344337318092585,-0.010460995137691498,-0.08338988572359085
3506,8222027,-7.420374393463135,26.269262313842773,17.394508361816406,0.0005615021218545735,-0.008838022127747536,-0.08395715057849884
3520,8222067,-7.420468330383301,26.26934814453125,17.378314971923828,-0.011210992932319641,-0.008733189664781094,-0.08612757176160812
3528,8222107,-7.420921325683594,26.269580841064453,17.36417579650879,-0.022661173716187477,-0.009904780425131321,-0.08714041113853455
3538,8222127,-7.4212646484375,26.269750595092773,17.357769012451172,-0.025612657889723778,-0.010003183968365192,-0.08667604625225067
3551,8222167,-7.422114372253418,26.270034790039062,17.348039627075195,-0.029430245980620384,-0.011240034364163876,-0.08564860373735428
3558,8222207,-7.423119068145752,26.270233154296875,17.339244842529297,-0.03232020512223244,-0.009644674137234688,-0.08470194786787033
3570,8222227,-7.423679828643799,26.270341873168945,17.33510398864746,-0.034332722425460815,-0.008352011442184448,-0.08793444186449051
3583,8222267,-7.424810409545898,26.270551681518555,17.3321533203125,-0.030815616250038147,-0.007626300677657127,-0.09097759425640106
3592,8222307,-7.425760746002197,26.27074432373047,17.329296112060547,-0.02607211098074913,-0.005307977553457022,-0.09890805929899216
3600,8222327,-7.426161766052246,26.270849227905273,17.327882766723633,-0.02227434329688549,-0.003243150422349572,-0.10316182672977448
3614,8222367,-7.4267401695251465,26.271102905273438,17.330034255981445,-0.013807945884764194,-0.002463201293721795,-0.1141173467040062
3621,8222407,-7.427058219909668,26.271453857421875,17.330717086791992,-0.009896895848214626,0.0033991942182183266,-0.13115113973617554
3634,8222427,-7.427201747894287,26.271678924560547,17.330604553222656,-0.009106587618589401,0.005068069323897362,-0.13874933123588562
3647,8222467,-7.427299976348877,26.272201538085938,17.33281898498535,0.0009861947037279606,0.007287359796464443,-0.14850275218486786
3656,8222507,-7.427280426025391,26.272884368896484,17.334163665771484,0.0109975291416049,0.008722126483917236,-0.1531336009502411
3665,8222527,-7.427277088165283,26.273292541503906,17.33460235595703,0.014856578782200813,0.010937701910734177,-0.15524807572364807
3679,8222567,-7.427101135253906,26.274246215820312,17.335159301757812,0.016289010643959045,0.016358233988285065,-0.15704700350761414
3683,8222587,-7.427035331726074,26.274763107299805,17.335113525390625,0.012424296699464321,0.01771501451730728,-0.15649665892124176
3698,8222627,-7.427034378051758,26.275976181030273,17.33462905883789,0.008754231967031956,0.026307156309485435,-0.14836756885051727
3711,8222667,-7.427212238311768,26.27737808227539,17.331937789916992,0.0030793147161602974,0.03128724917769432,-0.14132390916347504
3715,8222687,-7.42736291885376,26.2781982421875,17.330467224121094,-0.0005100168637000024,0.03406970947980881,-0.1351395696401596
3729,8222727,-7.428569316864014,26.28020668029785,17.329042434692383,-0.0055893720127642155,0.033610910177230835,-0.12224135547876358
3742,8222767,-7.429908275604248,26.28215789794922,17.324542999267578,-0.01107625663280487,0.034518953412771225,-0.10973244160413742
3746,8222787,-7.430588245391846,26.283105850219727,17.322509765625,-0.011384537443518639,0.034051064401865005,-0.0997641533613205
3759,8222827,-7.431915760040283,26.28493881225586,17.318998336791992,-0.012173418886959553,0.03356856480240822,-0.0835881158709526
3775,8222867,-7.433187484741211,26.286705017089844,17.312702178955078,-0.012929159216582775,0.03134654462337494,-0.07205341756343842
3781,8222887,-7.433786392211914,26.28752326965332,17.309919357299805,-0.01143823191523552,0.030596692115068436,-0.06443686783313751
3793,8222927,-7.4350175857543945,26.289236068725586,17.305816650390625,-0.00819938164204359,0.02970145456492901,-0.05603250861167908
3807,8222967,-7.43599271774292,26.290922164916992,17.29977035522461,-0.002829655073583126,0.02981838583946228,-0.04762807488441467
3811,8222987,-7.436367034912109,26.291732788085938,17.297103881835938,-0.0008963156142272055,0.031010685488581657,-0.04375573992729187
3825,8223027,-7.4368815422058105,26.293346405029297,17.29242515563965,0.006468393839895725,0.03188379853963852,-0.03360917419195175
3838,8223067,-7.437012195587158,26.294992446899414,17.287250518798828,0.01551696565002203,0.03390893712639809,-0.025610920041799545
3842,8223087,-7.436917304992676,26.29583168029785,17.285005569458008,0.020383508875966072,0.03493480756878853,-0.02078794129192829
3856,8223127,-7.436882019042969,26.29796600341797,17.281539916992188,0.029863933101296425,0.038294777274131775,-0.012410098686814308
3869,8223167,-7.436376571655273,26.300153732299805,17.279251098632812,0.039097465574741364,0.042514219880104065,-0.0024916084948927164
3873,8223187,-7.435952186584473,26.30129623413086,17.27836799621582,0.04312453418970108,0.04456431418657303,0.0028919773176312447
3888,8223227,-7.434794902801514,26.30373764038086,17.277099609375,0.05191922187805176,0.0529802143573761,0.012509520165622234
3892,8223247,-7.434055805206299,26.3050594329834,17.277406692504883,0.05595122277736664,0.05652976036071777,0.019322501495480537
3905,8223287,-7.432242393493652,26.30799102783203,17.278459548950195,0.06306910514831543,0.06559652090072632,0.03181567043066025
3919,8223327,-7.430802822113037,26.311084747314453,17.280017852783203,0.06862083077430725,0.07620357722043991,0.04436517879366875
3923,8223347,-7.429961204528809,26.31277084350586,17.281978607177734,0.06995715945959091,0.08060851693153381,0.050289351493120193
3938,8223387,-7.428101539611816,26.316450119018555,17.286041259765625,0.07303956151008606,0.0920182466506958,0.06029511243104935
3952,8223427,-7.426015853881836,26.320512771606445,17.290302276611328,0.07610295712947845,0.10317965596914291,0.07021961361169815
3956,8223447,-7.424915313720703,26.32269287109375,17.293325424194336,0.07556954771280289,0.10622309148311615,0.07442415505647659
3969,8223487,-7.422652721405029,26.3272762298584,17.299325942993164,0.07605912536382675,0.11480699479579926,0.08278632909059525
3983,8223527,-7.420568466186523,26.33234214782715,17.30481719970703,0.07584237307310104,0.12361802905797958,0.08736391365528107
3997,8223547,-7.419408321380615,26.33510971069336,17.308094024658203,0.07570696622133255,0.1265549212694168,0.0900479406118393
4001,8223587,-7.41721773147583,26.340476989746094,17.314302444458008,0.0745411217212677,0.12886962294578552,0.09165152907371521
4016,8223627,-7.41499662399292,26.345918655395508,17.32020378112793,0.07362265139818192,0.1312282234430313,0.09041443467140198
4020,8223647,-7.413868427276611,26.348642349243164,17.32366180419922,0.07219542562961578,0.130680114030838,0.08850716054439545
4033,8223687,-7.411594867706299,26.354049682617188,17.330121994018555,0.07188659906387329,0.13050641119480133,0.08347037434577942
4047,8223727,-7.409336090087891,26.359315872192383,17.335256576538086,0.07096077501773834,0.12912462651729584,0.07515895366668701
4051,8223747,-7.408195972442627,26.361927032470703,17.338796615600586,0.07105812430381775,0.12851646542549133,0.07062171399593353
4064,8223787,-7.405869483947754,26.367088317871094,17.34516716003418,0.07146517932415009,0.12693984806537628,0.0600973442196846
4078,8223827,-7.403463840484619,26.3721923828125,17.350574493408203,0.0726362019777298,0.12565800547599792,0.04660645127296448
4082,8223847,-7.402137279510498,26.374845504760742,17.35472869873047,0.07402252405881882,0.12497375905513763,0.03875633329153061
4095,8223887,-7.399542331695557,26.379878997802734,17.361852645874023,0.0766608715057373,0.12473843991756439,0.02405651845037937
4109,8223907,-7.398421287536621,26.382417678833008,17.364633560180664,0.0770300030708313,0.12506049871444702,0.01552186906337738
4114,8223947,-7.396058082580566,26.387510299682617,17.370819091796875,0.07878302037715912,0.12642870843410492,0.001552346395328641
4127,8223987,-7.393527507781982,26.392681121826172,17.377126693725586,0.08108320832252502,0.12889914214611053,-0.013174578547477722
4140,8224007,-7.392196178436279,26.39530372619629,17.379745483398438,0.08327571302652359,0.13059990108013153,-0.019304128363728523
4145,8224047,-7.3893938064575195,26.4006404876709,17.38429832458496,0.08535612374544144,0.13411150872707367,-0.031022287905216217
4158,8224087,-7.386487007141113,26.406145095825195,17.387887954711914,0.08589980006217957,0.1377870738506317,-0.0435166209936142
4165,8224107,-7.385297775268555,26.409006118774414,17.389293670654297,0.08495845645666122,0.1399339735507965,-0.04883259907364845
4176,8224147,-7.382815837860107,26.415002822875977,17.389808654785156,0.08232064545154572,0.1452985256910324,-0.05947844684123993
4189,8224187,-7.380424499511719,26.421058654785156,17.38829231262207,0.08069300651550293,0.15017080307006836,-0.06761884689331055
4202,8224207,-7.379228591918945,26.424131393432617,17.387348175048828,0.07732652872800827,0.15085795521736145,-0.07237762957811356
4208,8224247,-7.376873016357422,26.430339813232422,17.382102966308594,0.07375138252973557,0.15356363356113434,-0.08196945488452911
4221,8224287,-7.374597072601318,26.436569213867188,17.373912811279297,0.07030453532934189,0.15239855647087097,-0.09264937043190002
4229,8224307,-7.373614311218262,26.439632415771484,17.3702449798584,0.06891027092933655,0.1499524861574173,-0.09653239697217941
4239,8224347,-7.37162446975708,26.445629119873047,17.360515594482422,0.06694364547729492,0.1468544602394104,-0.1093004122376442
4254,8224387,-7.369603157043457,26.451416015625,17.3487548828125,0.06640159338712692,0.13914166390895844,-0.12140563875436783
4260,8224407,-7.368494033813477,26.45431137084961,17.342933654785156,0.06793413311243057,0.13389235734939575,-0.1273905485868454
4272,8224447,-7.366359710693359,26.459508895874023,17.332231521606445,0.06651739031076431,0.12202709913253784,-0.1386435180902481
4285,8224487,-7.364179611206055,26.464218139648438,17.322221755981445,0.06755746901035309,0.11011295765638351,-0.1469947099685669
4292,8224507,-7.363335132598877,26.466365814208984,17.31782341003418,0.06700117141008377,0.10333586484193802,-0.151413232088089
4303,8224547,-7.361529350280762,26.470218658447266,17.313583374023438,0.06775778532028198,0.08785498142242432,-0.1554756611585617
4316,8224567,-7.360581874847412,26.47191619873047,17.31346321105957,0.06866200268268585,0.08035921305418015,-0.15726754069328308
4331,8224607,-7.358575820922852,26.474868774414062,17.312610626220703,0.07016623020172119,0.06546764075756073,-0.1553569734096527
4336,8224647,-7.35642147064209,26.47722816467285,17.318788528442383,0.07123515754938126,0.051804982125759125,-0.15001095831394196
4348,8224667,-7.355298042297363,26.478225708007812,17.325040817260742,0.07152154296636581,0.046026378870010376,-0.14477135241031647
4357,8224707,-7.353106498718262,26.479829788208008,17.33647346496582,0.07383839040994644,0.03389774635434151,-0.1321869045495987
4367,8224747,-7.351043224334717,26.480886459350586,17.35408592224121,0.07635188102722168,0.023572739213705063,-0.11660344153642654
4379,8224767,-7.34998083114624,26.48128318786621,17.365453720092773,0.07399240136146545,0.01936713233590126,-0.11033566296100616
4389,8224807,-7.347810745239258,26.481922149658203,17.385944366455078,0.07483184337615967,0.01489347405731678,-0.09247811138629913
4398,8224847,-7.345425128936768,26.48224639892578,17.40831756591797,0.07903441041707993,0.005195313598960638,-0.07108493894338608
4410,8224867,-7.344139099121094,26.482315063476562,17.420637130737305,0.08112695068120956,0.0030846770387142897,-0.060351744294166565
4419,8224907,-7.341763019561768,26.48204231262207,17.44343376159668,0.08157064765691757,-0.001510540139861405,-0.04280354082584381
4430,8224947,-7.339571952819824,26.481449127197266,17.46314811706543,0.08113281428813934,-0.004721248056739569,-0.02835984155535698
4442,8224967,-7.338442325592041,26.481109619140625,17.471771240234375,0.08038543909788132,-0.007662015967071056,-0.022484347224235535
4451,8225007,-7.335997581481934,26.480314254760742,17.48753547668457,0.08089255541563034,-0.01164224836975336,-0.012264104560017586
4461,8225047,-7.333545684814453,26.479413986206055,17.496479034423828,0.08002273738384247,-0.01591244712471962,-0.009950223378837109
4473,8225067,-7.332297325134277,26.478927612304688,17.498138427734375,0.079505555331707,-0.017495302483439445,-0.01062683667987585
4480,8225107,-7.3301005363464355,26.47820281982422,17.501049041748047,0.07689252495765686,-0.022628644481301308,-0.01523790042847395
4492,8225147,-7.328176498413086,26.4776611328125,17.496734619140625,0.074150450527668,-0.02615521103143692,-0.02379346266388893
4504,8225167,-7.327210903167725,26.47731590270996,17.491390228271484,0.07258334755897522,-0.028343193233013153,-0.030672922730445862
4511,8225207,-7.325294017791748,26.476451873779297,17.48120880126953,0.06825252622365952,-0.03330979123711586,-0.04472353681921959
4523,8225227,-7.324360370635986,26.47593879699707,17.476318359375,0.06559721380472183,-0.03563656285405159,-0.052177149802446365
4536,8225267,-7.322501182556152,26.47469139099121,17.456722259521484,0.06069722771644592,-0.041226889938116074,-0.06741850078105927
4544,8225307,-7.321020126342773,26.473392486572266,17.439054489135742,0.05584998056292534,-0.04672231152653694,-0.07912192493677139
4553,8225327,-7.320413112640381,26.472715377807617,17.430883407592773,0.05313213914632797,-0.04917491599917412,-0.08407173305749893
4567,8225367,-7.319228649139404,26.471187591552734,17.41158103942871,0.05000336095690727,-0.05402754247188568,-0.08893841505050659
4576,8225407,-7.3178791999816895,26.469335556030273,17.394296646118164,0.05432644858956337,-0.06253241747617722,-0.08592244237661362
4587,8225427,-7.317162036895752,26.46830177307129,17.386350631713867,0.05099219083786011,-0.06330305337905884,-0.08590804785490036
4600,8225467,-7.315802574157715,26.466196060180664,17.374114990234375,0.047005895525217056,-0.0628621056675911,-0.08208399266004562
4609,8225507,-7.314725399017334,26.464324951171875,17.36357879638672,0.041628990322351456,-0.0619112066924572,-0.0769730657339096
4617,8225527,-7.3142991065979,26.4635009765625,17.35896873474121,0.04028335213661194,-0.060462046414613724,-0.07200832664966583
4632,8225567,-7.313383102416992,26.461902618408203,17.356761932373047,0.038863375782966614,-0.053972501307725906,-0.06000166013836861
4647,8225607,-7.312463760375977,26.460542678833008,17.35503578186035,0.03755256161093712,-0.04676543548703194,-0.04635899141430855
4651,8225627,-7.311985492706299,26.459959030151367,17.354341506958008,0.03687182813882828,-0.04215766489505768,-0.040249817073345184
4664,8225667,-7.3109869956970215,26.459043502807617,17.359066009521484,0.03617324307560921,-0.032372865825891495,-0.026816101744771004
4672,8225707,-7.309790134429932,26.458370208740234,17.363679885864258,0.034535977989435196,-0.021424293518066406,-0.015872297808527946
4682,8225727,-7.309107303619385,26.458139419555664,17.365982055664062,0.0340973325073719,-0.016143973916769028,-0.010304943658411503
4695,8225767,-7.307785511016846,26.45796775817871,17.373449325561523,0.03147488459944725,-0.005794729106128216,-0.000982263358309865
4709,8225807,-7.306589126586914,26.45819664001465,17.380199432373047,0.026806926354765892,0.0049813417717814445,0.00503709027543664
4713,8225827,-7.306046009063721,26.45844078063965,17.383319854736328,0.02498924918472767,0.008771229535341263,0.0075106848962605
4726,8225867,-7.305009841918945,26.45916175842285,17.389331817626953,0.02161666937172413,0.015235784463584423,0.012578461319208145
4732,8225887,-7.304553508758545,26.459552764892578,17.392108917236328,0.02007857710123062,0.01514141634106636,0.014237314462661743
4744,8225927,-7.303534507751465,26.460542678833008,17.397205352783203,0.01775314100086689,0.018639521673321724,0.016261881217360497
4758,8225967,-7.302631855010986,26.461538314819336,17.39995574951172,0.014494714327156544,0.017629051581025124,0.016894595697522163
4762,8225987,-7.302226543426514,26.462005615234375,17.401233673095703,0.01323002390563488,0.017308281734585762,0.017167579382658005
4775,8226027,-7.301507472991943,26.462848663330078,17.403581619262695,0.009972507134079933,0.014000323601067066,0.017007775604724884
4789,8226067,-7.300922393798828,26.463539123535156,17.403440475463867,0.006774299778044224,0.011380833573639393,0.015532872639596462
4793,8226087,-7.3006768226623535,26.463834762573242,17.403371810913086,0.005696217995136976,0.01005515269935131,0.01493840105831623
4806,8226127,-7.300079822540283,26.464569091796875,17.403179168701172,0.00451002037152648,0.005272929556667805,0.014006025157868862
4820,8226167,-7.299562454223633,26.46508026123047,17.401750564575195,0.0034079873003065586,0.002475944347679615,0.012274513021111488
4824,8226187,-7.29932165145874,26.46527099609375,17.401100158691406,0.003460845211520791,0.0005254312418401241,0.011240895837545395
4839,8226227,-7.298879623413086,26.465532302856445,17.39989471435547,0.0031061945483088493,-0.0017598423874005675,0.00968590471893549
4852,8226267,-7.298431396484375,26.46568489074707,17.39851188659668,0.0036443155258893967,-0.002877054736018181,0.008689401671290398
4856,8226287,-7.298196792602539,26.465740203857422,17.397871017456055,0.00452793063595891,-0.002535197651013732,0.0077864318154752254
4870,8226327,-7.297746658325195,26.466354370117188,17.396644592285156,0.005877208895981312,-0.0019311377545818686,0.006262608338147402
4883,8226367,-7.297245025634766,26.466920852661133,17.395870208740234,0.007700455375015736,0.00016924610827118158,0.0038550987374037504
4889,8226387,-7.296963691711426,26.467208862304688,17.395483016967773,0.00888797640800476,0.001304232282564044,0.002578723942860961
4902,8226427,-7.296313762664795,26.467809677124023,17.39468765258789,0.011694087646901608,0.004549833480268717,-0.0007972585735842586
4916,8226467,-7.295558452606201,26.46851348876953,17.394031524658203,0.014884921722114086,0.009105918928980827,-0.0042823972180485725
4920,8226487,-7.295137405395508,26.468910217285156,17.393665313720703,0.0165322907269001,0.011224635876715183,-0.006400518584996462
4934,8226527,-7.293908596038818,26.470008850097656,17.392820358276367,0.0193647388368845,0.016477331519126892,-0.01164303906261921
4939,8226547,-7.29326868057251,26.470605850219727,17.3922061920166,0.020710214972496033,0.01872621476650238,-0.014383665286004543
4952,8226587,-7.291945457458496,26.471881866455078,17.390846252441406,0.022837402299046516,0.023153364658355713,-0.020895687863230705
4966,8226627,-7.290570259094238,26.473251342773438,17.389305114746094,0.02465936914086342,0.026199763640761375,-0.02629944123327732
4971,8226647,-7.289865493774414,26.473960876464844,17.387880325317383,0.026034055277705193,0.027954936027526855,-0.028950627893209457
4984,8226687,-7.288441181182861,26.47539710998535,17.385038375854492,0.026550771668553352,0.02970518358051777,-0.03337162360548973
4998,8226727,-7.287012577056885,26.477619171142578,17.38231658935547,0.021863238885998726,0.03349316492676735,-0.04015195369720459
5002,8226747,-7.286379337310791,26.478723526000977,17.37984275817871,0.021465640515089035,0.035204023122787476,-0.04026787355542183
5015,8226787,-7.285171031951904,26.48079490661621,17.375219345092773,0.020207969471812248,0.03082515485584736,-0.03973505645990372
5029,8226827,-7.28400993347168,26.482624053955078,17.371070861816406,0.019874054938554764,0.02805405482649803,-0.03605617955327034
5033,8226847,-7.283461093902588,26.483457565307617,17.368194580078125,0.01854681223630905,0.02587668038904667,-0.035394322127103806
5048,8226887,-7.282464027404785,26.484952926635742,17.362937927246094,0.01564890332520008,0.02223167195916176,-0.031758394092321396
5060,8226927,-7.281153202056885,26.48658561706543,17.358766555786133,0.012699811719357967,0.017834912985563278,-0.02657477557659149
5065,8226947,-7.280560493469238,26.487308502197266,17.356670379638672,0.011941171251237392,0.016485033556818962,-0.023117611184716225
5078,8226987,-7.279465198516846,26.488571166992188,17.352947235107422,0.010846019722521305,0.011924873106181622,-0.01741860806941986
5091,8227027,-7.278454303741455,26.489601135253906,17.349842071533203,0.011076860129833221,0.010194648988544941,-0.011965136043727398
5096,8227047,-7.277968406677246,26.49006462097168,17.349172592163086,0.010486895218491554,0.00954603124409914,-0.009506248869001865
5109,8227087,-7.277027130126953,26.490909576416016,17.348024368286133,0.012059221975505352,0.009867175482213497,-0.005933499429374933
5123,8227127,-7.2759833335876465,26.493026733398438,17.347366333007812,0.01505846157670021,0.011036751791834831,-0.0027737412601709366
5127,8227147,-7.27541446685791,26.494028091430664,17.348358154296875,0.017944026738405228,0.012094266712665558,-0.0009525795467197895
5140,8227187,-7.274108409881592,26.495975494384766,17.350229263305664,0.025355521589517593,0.015955239534378052,0.0020238314755260944
5154,8227207,-7.273354530334473,26.496936798095703,17.351110458374023,0.029540197923779488,0.017089007422327995,0.0036309605930000544
5159,8227247,-7.271573543548584,26.498802185058594,17.353717803955078,0.04188404977321625,0.018282607197761536,0.008496101945638657
5172,8227287,-7.269191265106201,26.50058364868164,17.357084274291992,0.056712862104177475,0.02043416164815426,0.013879074715077877
5185,8227307,-7.2677412033081055,26.501758575439453,17.358686447143555,0.06252266466617584,0.021529927849769592,0.01455541979521513
5190,8227347,-7.264541149139404,26.504043579101562,17.36121368408203,0.07402869313955307,0.024993928149342537,0.017991317436099052
5205,8227387,-7.2609710693359375,26.506277084350586,17.363174438476562,0.08350401371717453,0.02724953182041645,0.021248791366815567
5215,8227407,-7.259064674377441,26.50737762451172,17.364152908325195,0.08786194026470184,0.029244758188724518,0.02360641211271286
5223,8227447,-7.255053520202637,26.509565353393555,17.363975524902344,0.09430992603302002,0.03150571882724762,0.027014655992388725
5236,8227487,-7.250899791717529,26.51173210144043,17.362096786499023,0.09668678045272827,0.03504493832588196,0.030555330216884613
5249,8227507,-7.248801231384277,26.513206481933594,17.361337661743164,0.09547313302755356,0.03702012449502945,0.03131548687815666
5254,8227547,-7.244802474975586,26.516157150268555,17.357240676879883,0.08870004117488861,0.04274660721421242,0.02966921404004097
5268,8227587,-7.241002559661865,26.519166946411133,17.351238250732422,0.08196553587913513,0.04513397812843323,0.031311601400375366
5280,8227607,-7.239261150360107,26.520601272583008,17.348615646362305,0.07881499826908112,0.04524753987789154,0.033791959285736084
5287,8227647,-7.23600435256958,26.52339744567871,17.341861724853516,0.07142496109008789,0.046748194843530655,0.0344621017575264
5300,8227687,-7.233073711395264,26.526092529296875,17.33404541015625,0.06302670389413834,0.046243831515312195,0.03352048993110657
5311,8227707,-7.231439590454102,26.527938842773438,17.330570220947266,0.0579339899122715,0.04654255509376526,0.03155629709362984
5318,8227747,-7.228566646575928,26.531496047973633,17.324050903320312,0.046909406781196594,0.049062564969062805,0.02704881876707077
5331,8227787,-7.226260185241699,26.534996032714844,17.31808853149414,0.033397287130355835,0.053478583693504333,0.020875006914138794
5338,8227807,-7.225335121154785,26.536741256713867,17.31534194946289,0.02741779200732708,0.05594267323613167,0.016516508534550667
5349,8227847,-7.223844528198242,26.54033851623535,17.31241798400879,0.015090675093233585,0.06184864416718483,0.008126730099320412
5361,8227867,-7.2233123779296875,26.5421085357666,17.31205940246582,0.011367899365723133,0.06242793798446655,0.0046816603280603886
5369,8227907,-7.222483158111572,26.546062469482422,17.311107635498047,0.004695704206824303,0.06346817314624786,-0.0071523175574839115
5381,8227947,-7.221858024597168,26.55032730102539,17.313533782958984,0.0007219935650937259,0.06269153207540512,-0.01715903915464878
5395,8227967,-7.221617698669434,26.55234718322754,17.31621742248535,-0.0008079654653556645,0.06253299117088318,-0.024832140654325485
5399,8228007,-7.221230983734131,26.55620002746582,17.320541381835938,-0.0013887324603274465,0.06077849119901657,-0.03772885724902153
5412,8228047,-7.220882892608643,26.559734344482422,17.32750701904297,-0.0002569201460573822,0.0558713935315609,-0.050840746611356735
5424,8228067,-7.220691204071045,26.561382293701172,17.33225440979004,0.0014239940792322159,0.054891835898160934,-0.05623884126543999
5438,8228107,-7.220118999481201,26.56497573852539,17.340290069580078,0.004895399324595928,0.049439989030361176,-0.06955959647893906
5443,8228147,-7.2193098068237305,26.56876564025879,17.34882926940918,0.009494947269558907,0.04489988088607788,-0.08064716309309006
5455,8228167,-7.21885871887207,26.570466995239258,17.35353660583496,0.012575078755617142,0.04245375841856003,-0.08539682626724243
5463,8228207,-7.21780252456665,26.573572158813477,17.361446380615234,0.019328631460666656,0.037813473492860794,-0.09272685647010803
5475,8228247,-7.216518878936768,26.576313018798828,17.367557525634766,0.0272168330848217,0.03448459506034851,-0.0989404246211052
5487,8228267,-7.215770244598389,26.577558517456055,17.37003517150879,0.030531950294971466,0.032128795981407166,-0.1002742275595665
5494,8228307,-7.214175224304199,26.580303192138672,17.374343872070312,0.03911604732275009,0.02890632301568985,-0.10294454544782639
5506,8228347,-7.212392807006836,26.583189010620117,17.37546730041504,0.04669215902686119,0.025697529315948486,-0.10420743376016617
5518,8228367,-7.211385250091553,26.584501266479492,17.37462615966797,0.05135717615485191,0.02505825273692608,-0.10494668036699295
5525,8228407,-7.2090744972229,26.5869197845459,17.372554779052734,0.05932480841875076,0.021777482703328133,-0.10563885420560837
5539,8228447,-7.206561088562012,26.589012145996094,17.36688995361328,0.06413746625185013,0.019395455718040466,-0.107286736369133
5551,8228467,-7.205243110656738,26.589963912963867,17.362468719482422,0.0657602846622467,0.01978868618607521,-0.10794250667095184
5558,8228507,-7.20243501663208,26.592220306396484,17.354522705078125,0.068362295627594,0.016847677528858185,-0.109194315969944
5568,8228527,-7.200955867767334,26.59349250793457,17.35093879699707,0.06975431740283966,0.015265374444425106,-0.10945070534944534
5583,8228567,-7.197963237762451,26.595735549926758,17.338552474975586,0.07112524658441544,0.011043333448469639,-0.1097310483455658
5598,8228607,-7.194991111755371,26.597564697265625,17.32718849182129,0.07022656500339508,0.005935214459896088,-0.11025106906890869
5612,8228627,-7.1935272216796875,26.598325729370117,17.32185173034668,0.06912413239479065,0.003439343301579356,-0.10997976362705231
5615,8228667,-7.190777778625488,26.599576950073242,17.310579299926758,0.06216052919626236,-0.0009316309005953372,-0.11138997226953506
5629,8228707,-7.188176155090332,26.600833892822266,17.300704956054688,0.05920213460922241,-0.007582299876958132,-0.10495122522115707
5633,8228727,-7.186993598937988,26.60141944885254,17.29643440246582,0.0564340278506279,-0.013708400540053844,-0.10131954401731491
5646,8228767,-7.18474006652832,26.602169036865234,17.293148040771484,0.053597431629896164,-0.019117947667837143,-0.0882277637720108
5655,8228807,-7.182669162750244,26.602493286132812,17.290239334106445,0.04765991494059563,-0.026088222861289978,-0.07682624459266663
5663,8228827,-7.181712627410889,26.602493286132812,17.28896141052246,0.04621747136116028,-0.029540015384554863,-0.06946837902069092
5677,8228867,-7.179953098297119,26.602214813232422,17.295543670654297,0.03998938202857971,-0.03336609527468681,-0.05551552027463913
5690,8228907,-7.178689002990723,26.602283477783203,17.301847457885742,0.032380856573581696,-0.03318338841199875,-0.04004069045186043
5696,8228927,-7.17827033996582,26.6025333404541,17.304954528808594,0.028541987761855125,-0.031618453562259674,-0.03455975279211998
5709,8228967,-7.177581310272217,26.602901458740234,17.31952476501465,0.02256375178694725,-0.030341440811753273,-0.017895806580781937
5718,8229007,-7.177055835723877,26.603120803833008,17.332653045654297,0.017884334549307823,-0.02653527818620205,-0.00408602599054575
5726,8229027,-7.176862716674805,26.603235244750977,17.33872413635254,0.015648042783141136,-0.025163402780890465,0.0012222216464579105
5740,8229067,-7.176587104797363,26.603450775146484,17.354278564453125,0.011046274565160275,-0.020555444061756134,0.010049577802419662
5750,8229107,-7.176667213439941,26.604066848754883,17.368114471435547,0.006237065885215998,-0.015078134834766388,0.015598263591527939
5759,8229127,-7.176860332489014,26.604562759399414,17.374439239501953,0.003652065061032772,-0.012386394664645195,0.017087943851947784
5771,8229167,-7.1773505210876465,26.605588912963867,17.384334564208984,-0.0009264273685403168,-0.005453912541270256,0.017777282744646072
5775,8229187,-7.177642822265625,26.606121063232422,17.388822555541992,-0.003944672178477049,-0.0031764593441039324,0.017761120572686195
5789,8229227,-7.178343772888184,26.607234954833984,17.396915435791016,-0.0087037468329072,0.003958132583647966,0.015104871243238449
5803,8229267,-7.179200649261475,26.608461380004883,17.395294189453125,-0.014427016489207745,0.009327606298029423,0.009447307325899601
5807,8229287,-7.179694175720215,26.609098434448242,17.394489288330078,-0.01695680245757103,0.01212091650813818,0.00644171517342329
5820,8229327,-7.180836200714111,26.61081314086914,17.392789840698242,-0.022092346101999283,0.017249615862965584,-1.6057018683568458e-06
5834,8229367,-7.1820783615112305,26.61248016357422,17.379898071289062,-0.02285771071910858,0.018403353169560432,-0.006546191405504942
5840,8229387,-7.182671070098877,26.613252639770508,17.37398910522461,-0.021986491978168488,0.016809839755296707,-0.009949042461812496
5853,8229427,-7.1837897300720215,26.614608764648438,17.36309051513672,-0.020947350189089775,0.014276974834501743,-0.015559280291199684
5867,8229467,-7.184835433959961,26.61578941345215,17.34294891357422,-0.020777307450771332,0.013823768123984337,-0.022915303707122803
5871,8229487,-7.185352325439453,26.616336822509766,17.3337459564209,-0.020873747766017914,0.014245226979255676,-0.024610230699181557
5884,8229527,-7.185848712921143,26.61786460876465,17.31723403930664,-0.020246151834726334,0.013190275989472866,-0.028089674189686775
5899,8229567,-7.186320781707764,26.61917495727539,17.29719352722168,-0.016360048204660416,0.010201026685535908,-0.029279349371790886
5903,8229587,-7.186491966247559,26.619705200195312,17.28812599182129,-0.014548546634614468,0.006763681303709745,-0.028670229017734528
5917,8229627,-7.18674898147583,26.620534896850586,17.27166748046875,-0.010967006906867027,0.003851307090371847,-0.027631662786006927
5931,8229667,-7.186874866485596,26.621164321899414,17.257823944091797,-0.008204398676753044,0.0011386327678337693,-0.024684198200702667
5935,8229687,-7.186911106109619,26.62139892578125,17.2515926361084,-0.007175656035542488,0.00027582686743699014,-0.021431060507893562
5948,8229727,-7.186592102050781,26.62247085571289,17.240909576416016,-0.002172460313886404,-0.003995420411229134,-0.014319322071969509
5962,8229767,-7.186112880706787,26.623188018798828,17.23784065246582,0.004321621265262365,-0.007584749720990658,-0.005029449705034494
5966,8229787,-7.185792446136475,26.62343978881836,17.236576080322266,0.0071117086336016655,-0.009535323828458786,1.3333336028154008e-05
5979,8229827,-7.185051441192627,26.623754501342773,17.234573364257812,0.011227698996663094,-0.011346918530762196,0.009263168089091778
5984,8229847,-7.184616565704346,26.62384033203125,17.238895416259766,0.013060513883829117,-0.011842277832329273,0.014254076406359673
5999,8229887,-7.183667182922363,26.623939514160156,17.24703598022461,0.016910800710320473,-0.011221925728023052,0.025863952934741974
6011,8229927,-7.182704448699951,26.624221801757812,17.254676818847656,0.021250514313578606,-0.00916014052927494,0.034941695630550385
6016,8229947,-7.182162761688232,26.62435531616211,17.263277053833008,0.02313348278403282,-0.008063430897891521,0.041298478841781616
6029,8229987,-7.180958271026611,26.624618530273438,17.27921485900879,0.027885479852557182,-0.005096398293972015,0.05038536339998245
6042,8230027,-7.179566860198975,26.624916076660156,17.293691635131836,0.03289308026432991,-0.0018941449234262109,0.05857618898153305
6047,8230047,-7.178802967071533,26.625080108642578,17.303688049316406,0.035567641258239746,-0.0001374324201606214,0.06182790920138359
6060,8230087,-7.1771135330200195,26.62549591064453,17.3221378326416,0.04114804044365883,0.005033369176089764,0.06829840689897537
6074,8230127,-7.175615310668945,26.626420974731445,17.338396072387695,0.04634605720639229,0.011432409286499023,0.0723290964961052
6078,8230147,-7.174792289733887,26.626941680908203,17.34589195251465,0.04924242943525314,0.014837387017905712,0.07365831732749939
6091,8230187,-7.172950744628906,26.62810516357422,17.359708786010742,0.0549163743853569,0.021555040031671524,0.07340425252914429
6106,8230227,-7.170863628387451,26.62945556640625,17.37201690673828,0.06011078134179115,0.02824811078608036,0.06888493150472641
6110,8230247,-7.169737339019775,26.630203247070312,17.374788284301758,0.062367215752601624,0.031412381678819656,0.06456636637449265
6123,8230287,-7.167342662811279,26.6318359375,17.379737854003906,0.06582894176244736,0.0375237837433815,0.05265413597226143
6136,8230327,-7.164998531341553,26.634004592895508,17.383325576782227,0.06845516711473465,0.043233472853899,0.03745633736252785
6141,8230347,-7.16378116607666,26.635128021240234,17.380441665649414,0.06933531165122986,0.04548061639070511,0.027946919202804565
6156,8230387,-7.161289691925049,26.637432098388672,17.37478256225586,0.06951356679201126,0.04946371167898178,0.007863756269216537
6170,8230427,-7.158709526062012,26.639833450317383,17.36910057067871,0.068703293800354,0.05173773691058159,-0.013519737869501114
6174,8230447,-7.157463073730469,26.64100456237793,17.362163543701172,0.0675145611166954,0.05171272158622742,-0.025173963978886604
6187,8230487,-7.155009746551514,26.643281936645508,17.348909378051758,0.06494899094104767,0.05084088072180748,-0.047007810324430466
6200,8230507,-7.153689861297607,26.644596099853516,17.342594146728516,0.06316684186458588,0.049892980605363846,-0.057782962918281555
6210,8230547,-7.15117883682251,26.647090911865234,17.328290939331055,0.05865545570850372,0.047657936811447144,-0.07651351392269135
6219,8230587,-7.148870468139648,26.649370193481445,17.312829971313477,0.05326121300458908,0.04447515308856964,-0.09190979599952698
6229,8230607,-7.147796154022217,26.650428771972656,17.305490493774414,0.050690069794654846,0.04262149706482887,-0.09807930141687393
6238,8230647,-7.145810127258301,26.65237045288086,17.29197883605957,0.0453263595700264,0.03829283267259598,-0.10646786540746689
6251,8230687,-7.143986225128174,26.654090881347656,17.279685974121094,0.04054277017712593,0.03299280256032944,-0.11049100011587143
6258,8230707,-7.1431427001953125,26.65516471862793,17.27440643310547,0.04148266464471817,0.027185631915926933,-0.10789840668439865
6269,8230747,-7.14138650894165,26.656875610351562,17.26786994934082,0.04219713434576988,0.017754927277565002,-0.10306845605373383
6282,8230787,-7.139684677124023,26.658199310302734,17.264806747436523,0.04073397442698479,0.01342773623764515,-0.09813430160284042
6289,8230807,-7.138848304748535,26.65876579284668,17.263307571411133,0.040514349937438965,0.011813190765678883,-0.0955638587474823
6300,8230847,-7.137202262878418,26.65970230102539,17.264909744262695,0.04015284404158592,0.007424104958772659,-0.08808676898479462
6315,8230887,-7.135493278503418,26.66042137145996,17.2703800201416,0.04271745681762695,0.005244279745966196,-0.07863445580005646
6318,8230907,-7.134778022766113,26.6610050201416,17.273223876953125,0.043910395354032516,0.003916552290320396,-0.07359352707862854
6332,8230947,-7.1332292556762695,26.661998748779297,17.282548904418945,0.047164998948574066,0.0019385155756026506,-0.061184123158454895
6345,8230987,-7.131451606750488,26.66280174255371,17.294593811035156,0.05116155743598938,0.0011137329274788499,-0.0489746555685997
6352,8231007,-7.130516529083252,26.66314697265625,17.300121307373047,0.05302024260163307,0.0002426578721497208,-0.04259801283478737
6363,8231047,-7.128549575805664,26.66375160217285,17.312490463256836,0.054762016981840134,0.0015965894563123584,-0.03105163760483265
6376,8231087,-7.126550197601318,26.66437339782715,17.325559616088867,0.05466790497303009,0.004811117425560951,-0.019381912425160408
6389,8231107,-7.12570858001709,26.66485595703125,17.331777572631836,0.054469943046569824,0.004284177906811237,-0.013318713754415512
6394,8231147,-7.123971462249756,26.665674209594727,17.3427677154541,0.055401839315891266,0.0028663179837167263,0.0009094804408960044
6406,8231167,-7.123078346252441,26.66603660583496,17.347639083862305,0.05445031449198723,0.0026649890933185816,0.005603109486401081
6420,8231207,-7.121351718902588,26.666711807250977,17.35667610168457,0.05054350942373276,0.004690284840762615,0.013749910518527031
6426,8231247,-7.119762897491455,26.667356491088867,17.362545013427734,0.044367626309394836,0.004746770951896906,0.02019495889544487
6438,8231267,-7.119011878967285,26.667654037475586,17.36419105529785,0.04119817912578583,0.0047797248698771,0.022457122802734375
6452,8231307,-7.117652893066406,26.668048858642578,17.36737632751465,0.03408714756369591,0.003847857704386115,0.027200812473893166
6457,8231347,-7.116448879241943,26.668224334716797,17.367076873779297,0.02694905735552311,0.00250812666490674,0.02727256901562214
6469,8231367,-7.115955352783203,26.668262481689453,17.365402221679688,0.022607550024986267,0.0007533347816206515,0.0261672493070364
6478,8231407,-7.115230083465576,26.66819190979004,17.36238670349121,0.01335136592388153,-0.0033946167677640915,0.02259255386888981
6490,8231447,-7.1148600578308105,26.667945861816406,17.356950759887695,0.004164337646216154,-0.00738533167168498,0.01680770330131054
6502,8231467,-7.114811897277832,26.66775131225586,17.35310935974121,-0.0003576052840799093,-0.00924683827906847,0.012097067199647427
6510,8231507,-7.114830493927002,26.667316436767578,17.345964431762695,-0.009433501400053501,-0.012313238345086575,0.0035587805323302746
6521,8231547,-7.115061283111572,26.666828155517578,17.337621688842773,-0.01764267310500145,-0.014378733932971954,-0.005610079038888216
6534,8231567,-7.115321159362793,26.66652488708496,17.33283805847168,-0.02104293368756771,-0.01524951122701168,-0.010895666666328907
6543,8231607,-7.116007328033447,26.665891647338867,17.32389259338379,-0.0266893170773983,-0.016107041388750076,-0.020197942852973938
6554,8231647,-7.116902828216553,26.665237426757812,17.314912796020508,-0.030664822086691856,-0.014950264245271683,-0.029146891087293625
6566,8231667,-7.117406368255615,26.6649227142334,17.31033706665039,-0.03199343383312225,-0.014064504764974117,-0.03330916911363602
6580,8231707,-7.118465900421143,26.664508819580078,17.30184555053711,-0.03261319175362587,-0.012250659987330437,-0.04105459153652191
6586,8231747,-7.1194562911987305,26.664255142211914,17.29378318786621,-0.02755034901201725,-0.012619097717106342,-0.044525131583213806
6598,8231767,-7.119869709014893,26.66411018371582,17.289827346801758,-0.025151751935482025,-0.011707118712365627,-0.04714640974998474
6605,8231807,-7.120608806610107,26.66390609741211,17.282310485839844,-0.022195180878043175,-0.006332153454422951,-0.05429535731673241
6616,8231827,-7.120922565460205,26.663875579833984,17.27872085571289,-0.01960267685353756,-0.003234117990359664,-0.05759122595191002
6629,8231867,-7.1214680671691895,26.663955688476562,17.270627975463867,-0.016413412988185883,0.0013071817811578512,-0.06444612145423889
6637,8231907,-7.121968746185303,26.664154052734375,17.263389587402344,-0.010480668395757675,0.006537788547575474,-0.06802154332399368
6647,8231927,-7.122207164764404,26.664281845092773,17.260072708129883,-0.008046682924032211,0.007885745726525784,-0.06967532634735107
6661,8231967,-7.122493743896484,26.664613723754883,17.252185821533203,-0.001887432998046279,0.010788210667669773,-0.06899328529834747
6669,8232007,-7.122536659240723,26.6650390625,17.24501609802246,0.002854808233678341,0.013368286192417145,-0.06721904873847961
6678,8232027,-7.122483253479004,26.665271759033203,17.241703033447266,0.005093802697956562,0.013819961808621883,-0.06480196118354797
6692,8232067,-7.12222957611084,26.66576385498047,17.2342529296875,0.009374112822115421,0.0147018451243639,-0.058816343545913696
6706,8232107,-7.121910572052002,26.666006088256836,17.22810935974121,0.01240976620465517,0.013201327063143253,-0.04908198118209839
6709,8232127,-7.121736526489258,26.66600799560547,17.22551155090332,0.013774557039141655,0.011758876033127308,-0.04401664435863495
6724,8232167,-7.1213250160217285,26.665912628173828,17.221107482910156,0.015579461120069027,0.007633572909981012,-0.03166878595948219
6738,8232207,-7.120826721191406,26.6656494140625,17.217607498168945,0.016497796401381493,0.0019997083581984043,-0.018545785918831825
6742,8232227,-7.120553970336914,26.665435791015625,17.2161922454834,0.01714327186346054,-0.0014264269266277552,-0.011589541099965572
6756,8232267,-7.12002420425415,26.664852142333984,17.2163143157959,0.013320538215339184,-0.005520939361304045,-0.0030804211273789406
6764,8232307,-7.119571685791016,26.664142608642578,17.216943740844727,0.014226204715669155,-0.0095473388209939,0.00927097350358963
6773,8232327,-7.119335174560547,26.66366195678711,17.21750831604004,0.013841966167092323,-0.015967395156621933,0.013827607966959476
6786,8232367,-7.118740558624268,26.662410736083984,17.223066329956055,0.019697632640600204,-0.024711545556783676,0.028269294649362564
6802,8232407,-7.117952823638916,26.660852432250977,17.228412628173828,0.023330509662628174,-0.03225555270910263,0.03438429906964302
6805,8232427,-7.117455005645752,26.659963607788086,17.23101234436035,0.02644200436770916,-0.03447139263153076,0.03716511279344559
6819,8232467,-7.116382598876953,26.658098220825195,17.240127563476562,0.029536567628383636,-0.04037858545780182,0.03892800956964493
6823,8232487,-7.115762233734131,26.65711212158203,17.24432945251465,0.03387756645679474,-0.041129376739263535,0.039636123925447464
6837,8232527,-7.114405155181885,26.65529441833496,17.251848220825195,0.04024140536785126,-0.04358154162764549,0.03591114282608032
6851,8232567,-7.112717628479004,26.653390884399414,17.260494232177734,0.04898275062441826,-0.04498421773314476,0.03185503929853439
6855,8232587,-7.111741542816162,26.652427673339844,17.264371871948242,0.05325815826654434,-0.04509788751602173,0.02817917987704277
6870,8232627,-7.10953950881958,26.650487899780273,17.271282196044922,0.061228882521390915,-0.04655669257044792,0.021811265498399734
6883,8232667,-7.106969356536865,26.648469924926758,17.276132583618164,0.07071137428283691,-0.04858744889497757,0.01322889979928732
6887,8232687,-7.105541229248047,26.64743423461914,17.278228759765625,0.0747438445687294,-0.04906155541539192,0.00956611055880785
6901,8232727,-7.102811336517334,26.645442962646484,17.2816162109375,0.08108416199684143,-0.04946361482143402,0.0003132937999907881
6914,8232767,-7.099890232086182,26.643484115600586,17.280609130859375,0.08526725322008133,-0.04989480972290039,-0.007214404176920652
6918,8232787,-7.098358154296875,26.642488479614258,17.28003692626953,0.08659207820892334,-0.050386518239974976,-0.011234412901103497
6932,8232827,-7.0951995849609375,26.64049530029297,17.278757095336914,0.08781063556671143,-0.04968535527586937,-0.01772828958928585
6945,8232867,-7.0920023918151855,26.638500213623047,17.27191734313965,0.08607494086027145,-0.04969345033168793,-0.024101005867123604
6960,8232887,-7.090425968170166,26.63750457763672,17.268701553344727,0.08472991734743118,-0.04971976950764656,-0.027629218995571136
6974,8232927,-7.087327480316162,26.635494232177734,17.262855529785156,0.07984250038862228,-0.048190005123615265,-0.030996346846222878
6977,8232967,-7.084447383880615,26.633562088012695,17.25213623046875,0.0725167915225029,-0.04540828987956047,-0.03581777587532997
6981,8232987,-7.083038330078125,26.632600784301758,17.247146606445312,0.0684380978345871,-0.04347417503595352,-0.03758686035871506
6995,8233027,-7.0805983543396,26.630887985229492,17.237972259521484,0.059153132140636444,-0.038883358240127563,-0.04146330803632736
7008,8233067,-7.078537940979004,26.6293888092041,17.225688934326172,0.04830940067768097,-0.032804977148771286,-0.04624662548303604
7012,8233087,-7.077671051025391,26.628738403320312,17.219993591308594,0.0426386259496212,-0.029264813289046288,-0.04959074780344963
7025,8233127,-7.076082706451416,26.62774085998535,17.209836959838867,0.03312113881111145,-0.022487550973892212,-0.05449085310101509
7030,8233147,-7.075438976287842,26.6273250579834,17.20467758178711,0.02775101363658905,-0.020186318084597588,-0.05760987475514412
7043,8233187,-7.074443340301514,26.626623153686523,17.194995880126953,0.019122904166579247,-0.015302570536732674,-0.06302319467067719
7057,8233227,-7.073774814605713,26.626110076904297,17.18602752685547,0.010703803040087223,-0.01096052024513483,-0.06967049837112427
7062,8233247,-7.07356595993042,26.625911712646484,17.18381690979004,0.006258375942707062,-0.008913089521229267,-0.07278911769390106
7075,8233287,-7.073398590087891,26.625608444213867,17.17927360534668,-0.0022512369323521852,-0.006337553262710571,-0.07981523126363754
7089,8233327,-7.073570728302002,26.625045776367188,17.175289154052734,-0.007454002741724253,-0.006195636931806803,-0.08528867363929749
7093,8233347,-7.073728084564209,26.624765396118164,17.177091598510742,-0.010032116435468197,-0.00724797323346138,-0.08816327899694443
7108,8233387,-7.074169158935547,26.62416648864746,17.179826736450195,-0.013734291307628155,-0.008893509395420551,-0.09344184398651123
7122,8233427,-7.074738025665283,26.623502731323242,17.181535720825195,-0.017019614577293396,-0.012317842803895473,-0.09858491271734238
7126,8233447,-7.075052261352539,26.623123168945312,17.186803817749023,-0.01728973537683487,-0.01392645575106144,-0.09956137835979462
7139,8233487,-7.075545310974121,26.622148513793945,17.195951461791992,-0.010016622953116894,-0.025028157979249954,-0.09518742561340332
7152,8233527,-7.075706958770752,26.620359420776367,17.20404624938965,-0.005538011901080608,-0.03258316591382027,-0.09687945991754532
7161,8233547,-7.075717926025391,26.619400024414062,17.211091995239258,-0.0029110098257660866,-0.034730393439531326,-0.09640546143054962
7171,8233587,-7.075620651245117,26.617347717285156,17.22332000732422,0.00011869416630361229,-0.039307765662670135,-0.09767724573612213
7186,8233627,-7.075376510620117,26.615219116210938,17.23352813720703,0.004670498892664909,-0.042084451764822006,-0.09644871950149536
7190,8233647,-7.0751848220825195,26.6141357421875,17.23925018310547,0.007354808505624533,-0.043825648725032806,-0.096709243953228
7203,8233687,-7.074716091156006,26.611948013305664,17.24923324584961,0.010032185353338718,-0.04533417522907257,-0.09301215410232544
7217,8233727,-7.0743489265441895,26.60939598083496,17.258155822753906,0.011353406123816967,-0.04545414075255394,-0.08946216106414795
7221,8233747,-7.074169635772705,26.608165740966797,17.260517120361328,0.009003564715385437,-0.04405416175723076,-0.08903404325246811
7234,8233787,-7.073868274688721,26.60584831237793,17.2645320892334,0.0077231512404978275,-0.042568374425172806,-0.08344480395317078
7247,8233807,-7.073729038238525,26.604690551757812,17.26627540588379,0.007157258223742247,-0.04475373774766922,-0.07919380813837051
7252,8233847,-7.073423862457275,26.602277755737305,17.265457153320312,0.0073965610936284065,-0.046942878514528275,-0.06681261956691742
7266,8233887,-7.073198318481445,26.599884033203125,17.26113510131836,0.003519749501720071,-0.047785744071006775,-0.05912085622549057
7279,8233907,-7.073317050933838,26.598630905151367,17.25955581665039,0.0020007591228932142,-0.04710427671670914,-0.05348798632621765
7284,8233947,-7.073690891265869,26.596120834350586,17.252038955688477,-0.004923976957798004,-0.05058690905570984,-0.04411449283361435
7297,8233987,-7.074214458465576,26.593563079833984,17.24125862121582,-0.008831174112856388,-0.05220167338848114,-0.03255574405193329
7310,8234007,-7.0745439529418945,26.59227752685547,17.236465454101562,-0.012771307490766048,-0.05347353592514992,-0.029782354831695557
7315,8234047,-7.075336456298828,26.589679718017578,17.2235107421875,-0.017095571383833885,-0.05522431433200836,-0.019990921020507812
7328,8234087,-7.076328277587891,26.587005615234375,17.20827865600586,-0.024051880463957787,-0.059318456798791885,-0.01368815265595913
7341,8234107,-7.076920986175537,26.585586547851562,17.20174789428711,-0.025472741574048996,-0.06015574559569359,-0.009389231912791729
7346,8234147,-7.078239917755127,26.582660675048828,17.187122344970703,-0.030491013079881668,-0.06271500885486603,-0.004620763007551432
7359,8234187,-7.079655170440674,26.579744338989258,17.17176628112793,-0.03394351527094841,-0.06489095836877823,-0.00015649679698981345
7373,8234207,-7.080413818359375,26.578277587890625,17.164899826049805,-0.03627145290374756,-0.0651901513338089,0.0007453907746821642
7378,8234247,-7.082014560699463,26.575368881225586,17.15165901184082,-0.03907068818807602,-0.06497492641210556,0.003117116866633296
7391,8234287,-7.083690643310547,26.572511672973633,17.139347076416016,-0.04084305092692375,-0.06425749510526657,0.004308147821575403
7399,8234307,-7.084684371948242,26.571224212646484,17.1339168548584,-0.04082278162240982,-0.06316109001636505,0.004443274345248938
