{"packet_index": 13, "message": {"header": {"component_id": 1, "sequence": 124, "system_id": 1}, "message": {"altitude": 32970, "latitude": 634405552, "longitude": 103484873, "time_usec": 8208367435, "type": "GPS_GLOBAL_ORIGIN"}}}
{"packet_index": 14, "message": {"header": {"component_id": 1, "sequence": 125, "system_id": 1}, "message": {"altitude": 6860, "approach_x": 0.0, "approach_y": 0.0, "approach_z": 0.0, "latitude": 634405553, "longitude": 103484876, "q": [null, null, null, null], "time_usec": 8208367443, "type": "HOME_POSITION", "x": 0.011131884530186653, "y": 0.01493206899613142, "z": 26.10999870300293}}}
{"packet_index": 18, "message": {"header": {"component_id": 1, "sequence": 129, "system_id": 1}, "message": {"airspeed": 0.07500000298023224, "alt": 14.979999542236328, "climb": 0.07585607469081879, "groundspeed": 0.06475351750850677, "heading": 85, "throttle": 0, "type": "VFR_HUD"}}}
{"packet_index": 51, "message": {"header": {"component_id": 1, "sequence": 147, "system_id": 1}, "message": {"airspeed": 0.06400000303983688, "alt": 14.979999542236328, "climb": 0.07346374541521072, "groundspeed": 0.06580877304077148, "heading": 85, "throttle": 0, "type": "VFR_HUD"}}}
{"packet_index": 73, "message": {"header": {"component_id": 1, "sequence": 161, "system_id": 1}, "message": {"autopilot": {"type": "MAV_AUTOPILOT_ARDUPILOTMEGA"}, "base_mode": {"bits": 137}, "custom_mode": 15, "mavlink_version": 3, "mavtype": {"type": "MAV_TYPE_SURFACE_BOAT"}, "system_status": {"type": "MAV_STATE_ACTIVE"}, "type": "HEARTBEAT"}}}
{"packet_index": 78, "message": {"header": {"component_id": 1, "sequence": 164, "system_id": 1}, "message": {"airspeed": 0.06400000303983688, "alt": 14.969999313354492, "climb": 0.05642778426408768, "groundspeed": 0.07347621768712997, "heading": 85, "throttle": 0, "type": "VFR_HUD"}}}
{"packet_index": 97, "message": {"header": {"component_id": 1, "sequence": 169, "system_id": 1}, "message": {"airspeed": 0.0950000062584877, "alt": 14.969999313354492, "climb": 0.025970041751861572, "groundspeed": 0.07855600118637085, "heading": 85, "throttle": 0, "type": "VFR_HUD"}}}
{"packet_index": 126, "message": {"header": {"component_id": 1, "sequence": 174, "system_id": 1}, "message": {"airspeed": 0.0950000062584877, "alt": 14.979999542236328, "climb": -0.0023599034175276756, "groundspeed": 0.07841009646654129, "heading": 85, "throttle": 0, "type": "VFR_HUD"}}}
{"packet_index": 152, "message": {"header": {"component_id": 1, "sequence": 190, "system_id": 1}, "message": {"airspeed": 0.07100000232458115, "alt": 14.989999771118164, "climb": -0.021040592342615128, "groundspeed": 0.06944185495376587, "heading": 85, "throttle": 0, "type": "VFR_HUD"}}}
{"packet_index": 167, "message": {"header": {"component_id": 1, "sequence": 208, "system_id": 1}, "message": {"airspeed": 0.07100000232458115, "alt": 15.00999927520752, "climb": -0.02784561738371849, "groundspeed": 0.05625991150736809, "heading": 85, "throttle": 0, "type": "VFR_HUD"}}}
{"packet_index": 191, "message": {"header": {"component_id": 1, "sequence": 213, "system_id": 1}, "message": {"airspeed": 0.06599999964237213, "alt": 15.029999732971191, "climb": -0.019033364951610565, "groundspeed": 0.0451752245426178, "heading": 85, "throttle": 0, "type": "VFR_HUD"}}}
{"packet_index": 216, "message": {"header": {"component_id": 1, "sequence": 218, "system_id": 1}, "message": {"airspeed": 0.06599999964237213, "alt": 15.039999961853027, "climb": 0.0022364016622304916, "groundspeed": 0.03722657635807991, "heading": 85, "throttle": 0, "type": "VFR_HUD"}}}
{"packet_index": 241, "message": {"header": {"component_id": 1, "sequence": 237, "system_id": 1}, "message": {"airspeed": 0.05700000375509262, "alt": 15.049999237060547, "climb": 0.026999378576874733, "groundspeed": 0.029957741498947144, "heading": 85, "throttle": 0, "type": "VFR_HUD"}}}
{"packet_index": 262, "message": {"header": {"component_id": 1, "sequence": 240, "system_id": 1}, "message": {"altitude": 32970, "latitude": 634405552, "longitude": 103484873, "time_usec": 8209367412, "type": "GPS_GLOBAL_ORIGIN"}}}
{"packet_index": 263, "message": {"header": {"component_id": 1, "sequence": 241, "system_id": 1}, "message": {"altitude": 6860, "approach_x": 0.0, "approach_y": 0.0, "approach_z": 0.0, "latitude": 634405553, "longitude": 103484876, "q": [null, null, null, null], "time_usec": 8209367419, "type": "HOME_POSITION", "x": 0.011131884530186653, "y": 0.01493206899613142, "z": 26.10999870300293}}}
{"packet_index": 276, "message": {"header": {"component_id": 1, "sequence": 245, "system_id": 1}, "message": {"airspeed": 0.05700000375509262, "alt": 15.049999237060547, "climb": 0.032365694642066956, "groundspeed": 0.027603622525930405, "heading": 85, "throttle": 0, "type": "VFR_HUD"}}}
{"packet_index": 291, "message": {"header": {"component_id": 1, "sequence": 7, "system_id": 1}, "message": {"airspeed": 0.05000000074505806, "alt": 15.029999732971191, "climb": 0.013247412629425526, "groundspeed": 0.029056182131171227, "heading": 85, "throttle": 0, "type": "VFR_HUD"}}}
{"packet_index": 321, "message": {"header": {"component_id": 1, "sequence": 21, "system_id": 1}, "message": {"autopilot": {"type": "MAV_AUTOPILOT_ARDUPILOTMEGA"}, "base_mode": {"bits": 137}, "custom_mode": 15, "mavlink_version": 3, "mavtype": {"type": "MAV_TYPE_SURFACE_BOAT"}, "system_status": {"type": "MAV_STATE_ACTIVE"}, "type": "HEARTBEAT"}}}
{"packet_index": 327, "message": {"header": {"component_id": 1, "sequence": 24, "system_id": 1}, "message": {"airspeed": 0.05000000074505806, "alt": 15.00999927520752, "climb": -0.02743399702012539, "groundspeed": 0.03513588011264801, "heading": 85, "throttle": 0, "type": "VFR_HUD"}}}
{"packet_index": 342, "message": {"header": {"component_id": 1, "sequence": 29, "system_id": 1}, "message": {"airspeed": 0.05000000074505806, "alt": 14.989999771118164, "climb": -0.05902139097452164, "groundspeed": 0.0472276397049427, "heading": 85, "throttle": 0, "type": "VFR_HUD"}}}
{"packet_index": 366, "message": {"header": {"component_id": 1, "sequence": 34, "system_id": 1}, "message": {"airspeed": 0.05000000074505806, "alt": 14.979999542236328, "climb": -0.06970728933811188, "groundspeed": 0.05848289653658867, "heading": 85, "throttle": 0, "type": "VFR_HUD"}}}
{"packet_index": 401, "message": {"header": {"component_id": 1, "sequence": 50, "system_id": 1}, "message": {"airspeed": 0.02200000174343586, "alt": 15.0, "climb": -0.03505740687251091, "groundspeed": 0.06863107532262802, "heading": 85, "throttle": 0, "type": "VFR_HUD"}}}
{"packet_index": 416, "message": {"header": {"component_id": 1, "sequence": 68, "system_id": 1}, "message": {"airspeed": 0.02200000174343586, "alt": 15.019999504089355, "climb": 0.029250577092170715, "groundspeed": 0.07200802862644196, "heading": 85, "throttle": 0, "type": "VFR_HUD"}}}
{"packet_index": 440, "message": {"header": {"component_id": 1, "sequence": 73, "system_id": 1}, "message": {"airspeed": 0.052000001072883606, "alt": 15.059999465942383, "climb": 0.08979734033346176, "groundspeed": 0.07243163138628006, "heading": 85, "throttle": 0, "type": "VFR_HUD"}}}
{"packet_index": 464, "message": {"header": {"component_id": 1, "sequence": 78, "system_id": 1}, "message": {"airspeed": 0.052000001072883606, "alt": 15.089999198913574, "climb": 0.1177927628159523, "groundspeed": 0.06900621205568314, "heading": 85, "throttle": 0, "type": "VFR_HUD"}}}
{"packet_index": 490, "message": {"header": {"component_id": 1, "sequence": 96, "system_id": 1}, "message": {"airspeed": 0.05300000309944153, "alt": 15.109999656677246, "climb": 0.10032040625810623, "groundspeed": 0.06584008038043976, "heading": 85, "throttle": 0, "type": "VFR_HUD"}}}
{"packet_index": 511, "message": {"header": {"component_id": 1, "sequence": 99, "system_id": 1}, "message": {"altitude": 32970, "latitude": 634405552, "longitude": 103484873, "time_usec": 8210367423, "type": "GPS_GLOBAL_ORIGIN"}}}
{"packet_index": 512, "message": {"header": {"component_id": 1, "sequence": 100, "system_id": 1}, "message": {"altitude": 6860, "approach_x": 0.0, "approach_y": 0.0, "approach_z": 0.0, "latitude": 634405553, "longitude": 103484876, "q": [null, null, null, null], "time_usec": 8210367431, "type": "HOME_POSITION", "x": 0.011131884530186653, "y": 0.01493206899613142, "z": 26.10999870300293}}}
{"packet_index": 516, "message": {"header": {"component_id": 1, "sequence": 104, "system_id": 1}, "message": {"airspeed": 0.05300000309944153, "alt": 15.119999885559082, "climb": 0.05030450224876404, "groundspeed": 0.06887806951999664, "heading": 85, "throttle": 0, "type": "VFR_HUD"}}}
{"packet_index": 540, "message": {"header": {"component_id": 1, "sequence": 123, "system_id": 1}, "message": {"airspeed": 0.08100000023841858, "alt": 15.09999942779541, "climb": -0.017710020765662193, "groundspeed": 0.07745594531297684, "heading": 85, "throttle": 0, "type": "VFR_HUD"}}}
{"packet_index": 565, "message": {"header": {"component_id": 1, "sequence": 137, "system_id": 1}, "message": {"autopilot": {"type": "MAV_AUTOPILOT_ARDUPILOTMEGA"}, "base_mode": {"bits": 137}, "custom_mode": 15, "mavlink_version": 3, "mavtype": {"type": "MAV_TYPE_SURFACE_BOAT"}, "system_status": {"type": "MAV_STATE_ACTIVE"}, "type": "HEARTBEAT"}}}
{"packet_index": 571, "message": {"header": {"component_id": 1, "sequence": 140, "system_id": 1}, "message": {"airspeed": 0.08100000023841858, "alt": 15.079999923706055, "climb": -0.0883859321475029, "groundspeed": 0.08444172888994217, "heading": 85, "throttle": 0, "type": "VFR_HUD"}}}
{"packet_index": 591, "message": {"header": {"component_id": 1, "sequence": 145, "system_id": 1}, "message": {"airspeed": 0.0950000062584877, "alt": 15.049999237060547, "climb": -0.13320663571357727, "groundspeed": 0.09327596426010132, "heading": 85, "throttle": 0, "type": "VFR_HUD"}}}
{"packet_index": 615, "message": {"header": {"component_id": 1, "sequence": 150, "system_id": 1}, "message": {"airspeed": 0.0950000062584877, "alt": 15.019999504089355, "climb": -0.14660519361495972, "groundspeed": 0.09262080490589142, "heading": 85, "throttle": 0, "type": "VFR_HUD"}}}
{"packet_index": 650, "message": {"header": {"component_id": 1, "sequence": 166, "system_id": 1}, "message": {"airspeed": 0.07300000637769699, "alt": 15.0, "climb": -0.11886004358530045, "groundspeed": 0.09209053963422775, "heading": 85, "throttle": 0, "type": "VFR_HUD"}}}
{"packet_index": 665, "message": {"header": {"component_id": 1, "sequence": 184, "system_id": 1}, "message": {"airspeed": 0.07300000637769699, "alt": 15.0, "climb": -0.06680197268724442, "groundspeed": 0.08711781352758408, "heading": 85, "throttle": 0, "type": "VFR_HUD"}}}
{"packet_index": 689, "message": {"header": {"component_id": 1, "sequence": 189, "system_id": 1}, "message": {"airspeed": 0.0860000029206276, "alt": 15.029999732971191, "climb": -0.011256321333348751, "groundspeed": 0.07558895647525787, "heading": 85, "throttle": 0, "type": "VFR_HUD"}}}
{"packet_index": 722, "message": {"header": {"component_id": 1, "sequence": 194, "system_id": 1}, "message": {"airspeed": 0.0860000029206276, "alt": 15.059999465942383, "climb": 0.041255559772253036, "groundspeed": 0.08160664886236191, "heading": 85, "throttle": 0, "type": "VFR_HUD"}}}
{"packet_index": 739, "message": {"header": {"component_id": 1, "sequence": 212, "system_id": 1}, "message": {"airspeed": 0.08400000631809235, "alt": 15.09999942779541, "climb": 0.06561657786369324, "groundspeed": 0.0784076452255249, "heading": 85, "throttle": 0, "type": "VFR_HUD"}}}
{"packet_index": 760, "message": {"header": {"component_id": 1, "sequence": 215, "system_id": 1}, "message": {"altitude": 32970, "latitude": 634405552, "longitude": 103484873, "time_usec": 8211367416, "type": "GPS_GLOBAL_ORIGIN"}}}
{"packet_index": 761, "message": {"header": {"component_id": 1, "sequence": 216, "system_id": 1}, "message": {"altitude": 6860, "approach_x": 0.0, "approach_y": 0.0, "approach_z": 0.0, "latitude": 634405553, "longitude": 103484876, "q": [null, null, null, null], "time_usec": 8211367424, "type": "HOME_POSITION", "x": 0.011131884530186653, "y": 0.01493206899613142, "z": 26.10999870300293}}}
{"packet_index": 765, "message": {"header": {"component_id": 1, "sequence": 220, "system_id": 1}, "message": {"airspeed": 0.08400000631809235, "alt": 15.130000114440918, "climb": 0.06622299551963806, "groundspeed": 0.06892253458499908, "heading": 84, "throttle": 0, "type": "VFR_HUD"}}}
{"packet_index": 789, "message": {"header": {"component_id": 1, "sequence": 238, "system_id": 1}, "message": {"airspeed": 0.08300000429153442, "alt": 15.130000114440918, "climb": 0.05708805099129677, "groundspeed": 0.06072956323623657, "heading": 85, "throttle": 0, "type": "VFR_HUD"}}}
{"packet_index": 814, "message": {"header": {"component_id": 1, "sequence": 252, "system_id": 1}, "message": {"autopilot": {"type": "MAV_AUTOPILOT_ARDUPILOTMEGA"}, "base_mode": {"bits": 137}, "custom_mode": 15, "mavlink_version": 3, "mavtype": {"type": "MAV_TYPE_SURFACE_BOAT"}, "system_status": {"type": "MAV_STATE_ACTIVE"}, "type": "HEARTBEAT"}}}
{"packet_index": 818, "message": {"header": {"component_id": 1, "sequence": 255, "system_id": 1}, "message": {"airspeed": 0.08300000429153442, "alt": 15.119999885559082, "climb": 0.05563218146562576, "groundspeed": 0.06045011430978775, "heading": 85, "throttle": 0, "type": "VFR_HUD"}}}
{"packet_index": 840, "message": {"header": {"component_id": 1, "sequence": 4, "system_id": 1}, "message": {"airspeed": 0.06700000166893005, "alt": 15.09999942779541, "climb": 0.05153779312968254, "groundspeed": 0.053795378655195236, "heading": 85, "throttle": 0, "type": "VFR_HUD"}}}
{"packet_index": 864, "message": {"header": {"component_id": 1, "sequence": 9, "system_id": 1}, "message": {"airspeed": 0.06700000166893005, "alt": 15.069999694824219, "climb": 0.05473276972770691, "groundspeed": 0.05249148607254028, "heading": 85, "throttle": 0, "type": "VFR_HUD"}}}
{"packet_index": 900, "message": {"header": {"component_id": 1, "sequence": 25, "system_id": 1}, "message": {"airspeed": 0.04400000348687172, "alt": 15.059999465942383, "climb": 0.05733509361743927, "groundspeed": 0.059364594519138336, "heading": 85, "throttle": 0, "type": "VFR_HUD"}}}
{"packet_index": 920, "message": {"header": {"component_id": 1, "sequence": 43, "system_id": 1}, "message": {"airspeed": 0.04400000348687172, "alt": 15.069999694824219, "climb": 0.06420872360467911, "groundspeed": 0.0712096244096756, "heading": 85, "throttle": 0, "type": "VFR_HUD"}}}
{"packet_index": 938, "message": {"header": {"component_id": 1, "sequence": 48, "system_id": 1}, "message": {"airspeed": 0.032999999821186066, "alt": 15.089999198913574, "climb": 0.07310079038143158, "groundspeed": 0.08051258325576782, "heading": 85, "throttle": 0, "type": "VFR_HUD"}}}
{"packet_index": 962, "message": {"header": {"component_id": 1, "sequence": 53, "system_id": 1}, "message": {"airspeed": 0.032999999821186066, "alt": 15.119999885559082, "climb": 0.07912179082632065, "groundspeed": 0.08629848808050156, "heading": 85, "throttle": 0, "type": "VFR_HUD"}}}
{"packet_index": 988, "message": {"header": {"component_id": 1, "sequence": 71, "system_id": 1}, "message": {"airspeed": 0.06300000101327896, "alt": 15.149999618530273, "climb": 0.07168535143136978, "groundspeed": 0.08611810952425003, "heading": 85, "throttle": 0, "type": "VFR_HUD"}}}
{"packet_index": 1009, "message": {"header": {"component_id": 1, "sequence": 74, "system_id": 1}, "message": {"altitude": 32970, "latitude": 634405552, "longitude": 103484873, "time_usec": 8212367394, "type": "GPS_GLOBAL_ORIGIN"}}}
{"packet_index": 1010, "message": {"header": {"component_id": 1, "sequence": 75, "system_id": 1}, "message": {"altitude": 6860, "approach_x": 0.0, "approach_y": 0.0, "approach_z": 0.0, "latitude": 634405553, "longitude": 103484876, "q": [null, null, null, null], "time_usec": 8212367405, "type": "HOME_POSITION", "x": 0.011131884530186653, "y": 0.01493206899613142, "z": 26.10999870300293}}}
{"packet_index": 1014, "message": {"header": {"component_id": 1, "sequence": 79, "system_id": 1}, "message": {"airspeed": 0.06300000101327896, "alt": 15.15999984741211, "climb": 0.04952026903629303, "groundspeed": 0.0761541873216629, "heading": 85, "throttle": 0, "type": "VFR_HUD"}}}
{"packet_index": 1038, "message": {"header": {"component_id": 1, "sequence": 97, "system_id": 1}, "message": {"airspeed": 0.09000000357627869, "alt": 15.15999984741211, "climb": 0.023877182975411415, "groundspeed": 0.06141560524702072, "heading": 85, "throttle": 0, "type": "VFR_HUD"}}}
{"packet_index": 1063, "message": {"header": {"component_id": 1, "sequence": 111, "system_id": 1}, "message": {"autopilot": {"type": "MAV_AUTOPILOT_ARDUPILOTMEGA"}, "base_mode": {"bits": 137}, "custom_mode": 15, "mavlink_version": 3, "mavtype": {"type": "MAV_TYPE_SURFACE_BOAT"}, "system_status": {"type": "MAV_STATE_ACTIVE"}, "type": "HEARTBEAT"}}}
{"packet_index": 1068, "message": {"header": {"component_id": 1, "sequence": 114, "system_id": 1}, "message": {"airspeed": 0.09000000357627869, "alt": 15.139999389648438, "climb": 0.006179904565215111, "groundspeed": 0.04854901134967804, "heading": 85, "throttle": 0, "type": "VFR_HUD"}}}
{"packet_index": 1089, "message": {"header": {"component_id": 1, "sequence": 119, "system_id": 1}, "message": {"airspeed": 0.07000000029802322, "alt": 15.130000114440918, "climb": 0.0018105515046045184, "groundspeed": 0.04496075585484505, "heading": 85, "throttle": 0, "type": "VFR_HUD"}}}
{"packet_index": 1113, "message": {"header": {"component_id": 1, "sequence": 124, "system_id": 1}, "message": {"airspeed": 0.07000000029802322, "alt": 15.119999885559082, "climb": 0.00365974148735404, "groundspeed": 0.04968388378620148, "heading": 85, "throttle": 0, "type": "VFR_HUD"}}}
{"packet_index": 1148, "message": {"header": {"component_id": 1, "sequence": 140, "system_id": 1}, "message": {"airspeed": 0.0430000014603138, "alt": 15.119999885559082, "climb": 0.005532918963581324, "groundspeed": 0.05443393439054489, "heading": 85, "throttle": 0, "type": "VFR_HUD"}}}
{"packet_index": 1163, "message": {"header": {"component_id": 1, "sequence": 158, "system_id": 1}, "message": {"airspeed": 0.0430000014603138, "alt": 15.130000114440918, "climb": 0.007605522405356169, "groundspeed": 0.05417809635400772, "heading": 85, "throttle": 0, "type": "VFR_HUD"}}}
{"packet_index": 1187, "message": {"header": {"component_id": 1, "sequence": 163, "system_id": 1}, "message": {"airspeed": 0.049000002443790436, "alt": 15.15999984741211, "climb": 0.015903538092970848, "groundspeed": 0.052521001547575, "heading": 85, "throttle": 0, "type": "VFR_HUD"}}}
{"packet_index": 1211, "message": {"header": {"component_id": 1, "sequence": 168, "system_id": 1}, "message": {"airspeed": 0.049000002443790436, "alt": 15.199999809265137, "climb": 0.032535478472709656, "groundspeed": 0.05079689621925354, "heading": 84, "throttle": 0, "type": "VFR_HUD"}}}
{"packet_index": 1237, "message": {"header": {"component_id": 1, "sequence": 186, "system_id": 1}, "message": {"airspeed": 0.03400000184774399, "alt": 15.229999542236328, "climb": 0.052101340144872665, "groundspeed": 0.052263133227825165, "heading": 84, "throttle": 0, "type": "VFR_HUD"}}}
{"packet_index": 1258, "message": {"header": {"component_id": 1, "sequence": 189, "system_id": 1}, "message": {"altitude": 32970, "latitude": 634405552, "longitude": 103484873, "time_usec": 8213367483, "type": "GPS_GLOBAL_ORIGIN"}}}
{"packet_index": 1259, "message": {"header": {"component_id": 1, "sequence": 190, "system_id": 1}, "message": {"altitude": 6860, "approach_x": 0.0, "approach_y": 0.0, "approach_z": 0.0, "latitude": 634405553, "longitude": 103484876, "q": [null, null, null, null], "time_usec": 8213367491, "type": "HOME_POSITION", "x": 0.011131884530186653, "y": 0.01493206899613142, "z": 26.10999870300293}}}
{"packet_index": 1267, "message": {"header": {"component_id": 1, "sequence": 194, "system_id": 1}, "message": {"airspeed": 0.03400000184774399, "alt": 15.25999927520752, "climb": 0.05637913569808006, "groundspeed": 0.06127811223268509, "heading": 84, "throttle": 0, "type": "VFR_HUD"}}}
{"packet_index": 1287, "message": {"header": {"component_id": 1, "sequence": 212, "system_id": 1}, "message": {"airspeed": 0.05300000309944153, "alt": 15.269999504089355, "climb": 0.035311900079250336, "groundspeed": 0.07947298884391785, "heading": 84, "throttle": 0, "type": "VFR_HUD"}}}
{"packet_index": 1312, "message": {"header": {"component_id": 1, "sequence": 226, "system_id": 1}, "message": {"autopilot": {"type": "MAV_AUTOPILOT_ARDUPILOTMEGA"}, "base_mode": {"bits": 137}, "custom_mode": 15, "mavlink_version": 3, "mavtype": {"type": "MAV_TYPE_SURFACE_BOAT"}, "system_status": {"type": "MAV_STATE_ACTIVE"}, "type": "HEARTBEAT"}}}
{"packet_index": 1320, "message": {"header": {"component_id": 1, "sequence": 229, "system_id": 1}, "message": {"airspeed": 0.05300000309944153, "alt": 15.269999504089355, "climb": 0.0011108687613159418, "groundspeed": 0.10380317270755768, "heading": 84, "throttle": 0, "type": "VFR_HUD"}}}
{"packet_index": 1338, "message": {"header": {"component_id": 1, "sequence": 234, "system_id": 1}, "message": {"airspeed": 0.07600000500679016, "alt": 15.239999771118164, "climb": -0.032884836196899414, "groundspeed": 0.1184760108590126, "heading": 84, "throttle": 0, "type": "VFR_HUD"}}}
{"packet_index": 1362, "message": {"header": {"component_id": 1, "sequence": 239, "system_id": 1}, "message": {"airspeed": 0.07600000500679016, "alt": 15.210000038146973, "climb": -0.04353037849068642, "groundspeed": 0.12576332688331604, "heading": 84, "throttle": 0, "type": "VFR_HUD"}}}
{"packet_index": 1388, "message": {"header": {"component_id": 1, "sequence": 255, "system_id": 1}, "message": {"airspeed": 0.10900000482797623, "alt": 15.1899995803833, "climb": -0.022561196237802505, "groundspeed": 0.12625662982463837, "heading": 84, "throttle": 0, "type": "VFR_HUD"}}}
{"packet_index": 1412, "message": {"header": {"component_id": 1, "sequence": 17, "system_id": 1}, "message": {"airspeed": 0.10900000482797623, "alt": 15.179999351501465, "climb": 0.012979354709386826, "groundspeed": 0.10633004456758499, "heading": 84, "throttle": 0, "type": "VFR_HUD"}}}
{"packet_index": 1436, "message": {"header": {"component_id": 1, "sequence": 22, "system_id": 1}, "message": {"airspeed": 0.1210000067949295, "alt": 15.1899995803833, "climb": 0.06374585628509521, "groundspeed": 0.09497448801994324, "heading": 84, "throttle": 0, "type": "VFR_HUD"}}}
{"packet_index": 1460, "message": {"header": {"component_id": 1, "sequence": 27, "system_id": 1}, "message": {"airspeed": 0.1210000067949295, "alt": 15.219999313354492, "climb": 0.09129442274570465, "groundspeed": 0.07567743211984634, "heading": 84, "throttle": 0, "type": "VFR_HUD"}}}
{"packet_index": 1486, "message": {"header": {"component_id": 1, "sequence": 45, "system_id": 1}, "message": {"airspeed": 0.09200000762939453, "alt": 15.25, "climb": 0.08256778866052628, "groundspeed": 0.06139698997139931, "heading": 84, "throttle": 0, "type": "VFR_HUD"}}}
{"packet_index": 1507, "message": {"header": {"component_id": 1, "sequence": 48, "system_id": 1}, "message": {"altitude": 32970, "latitude": 634405552, "longitude": 103484873, "time_usec": 8214367466, "type": "GPS_GLOBAL_ORIGIN"}}}
{"packet_index": 1508, "message": {"header": {"component_id": 1, "sequence": 49, "system_id": 1}, "message": {"altitude": 6860, "approach_x": 0.0, "approach_y": 0.0, "approach_z": 0.0, "latitude": 634405553, "longitude": 103484876, "q": [null, null, null, null], "time_usec": 8214367473, "type": "HOME_POSITION", "x": 0.011131884530186653, "y": 0.01493206899613142, "z": 26.10999870300293}}}
{"packet_index": 1512, "message": {"header": {"component_id": 1, "sequence": 53, "system_id": 1}, "message": {"airspeed": 0.09200000762939453, "alt": 15.269999504089355, "climb": 0.03887596353888512, "groundspeed": 0.053902480751276016, "heading": 84, "throttle": 0, "type": "VFR_HUD"}}}
{"packet_index": 1543, "message": {"header": {"component_id": 1, "sequence": 71, "system_id": 1}, "message": {"airspeed": 0.08500000089406967, "alt": 15.279999732971191, "climb": -0.01017849612981081, "groundspeed": 0.05779446288943291, "heading": 84, "throttle": 0, "type": "VFR_HUD"}}}
{"packet_index": 1561, "message": {"header": {"component_id": 1, "sequence": 85, "system_id": 1}, "message": {"autopilot": {"type": "MAV_AUTOPILOT_ARDUPILOTMEGA"}, "base_mode": {"bits": 137}, "custom_mode": 15, "mavlink_version": 3, "mavtype": {"type": "MAV_TYPE_SURFACE_BOAT"}, "system_status": {"type": "MAV_STATE_ACTIVE"}, "type": "HEARTBEAT"}}}
{"packet_index": 1566, "message": {"header": {"component_id": 1, "sequence": 88, "system_id": 1}, "message": {"airspeed": 0.08500000089406967, "alt": 15.269999504089355, "climb": -0.048307910561561584, "groundspeed": 0.04463653638958931, "heading": 84, "throttle": 0, "type": "VFR_HUD"}}}
{"packet_index": 1587, "message": {"header": {"component_id": 1, "sequence": 93, "system_id": 1}, "message": {"airspeed": 0.07300000637769699, "alt": 15.25, "climb": -0.04539390653371811, "groundspeed": 0.024721264839172363, "heading": 84, "throttle": 0, "type": "VFR_HUD"}}}
{"packet_index": 1611, "message": {"header": {"component_id": 1, "sequence": 98, "system_id": 1}, "message": {"airspeed": 0.07300000637769699, "alt": 15.219999313354492, "climb": -0.0055997129529714584, "groundspeed": 0.018490517511963844, "heading": 84, "throttle": 0, "type": "VFR_HUD"}}}
{"packet_index": 1637, "message": {"header": {"component_id": 1, "sequence": 114, "system_id": 1}, "message": {"airspeed": 0.04100000113248825, "alt": 15.199999809265137, "climb": 0.04586324095726013, "groundspeed": 0.041916608810424805, "heading": 84, "throttle": 0, "type": "VFR_HUD"}}}
{"packet_index": 1661, "message": {"header": {"component_id": 1, "sequence": 132, "system_id": 1}, "message": {"airspeed": 0.04100000113248825, "alt": 15.179999351501465, "climb": 0.081046923995018, "groundspeed": 0.06433412432670593, "heading": 84, "throttle": 0, "type": "VFR_HUD"}}}
{"packet_index": 1687, "message": {"header": {"component_id": 1, "sequence": 137, "system_id": 1}, "message": {"airspeed": 0.04700000211596489, "alt": 15.15999984741211, "climb": 0.09164055436849594, "groundspeed": 0.07090664654970169, "heading": 84, "throttle": 0, "type": "VFR_HUD"}}}
{"packet_index": 1709, "message": {"header": {"component_id": 1, "sequence": 142, "system_id": 1}, "message": {"airspeed": 0.04700000211596489, "alt": 15.149999618530273, "climb": 0.07431326806545258, "groundspeed": 0.06833583861589432, "heading": 84, "throttle": 0, "type": "VFR_HUD"}}}
{"packet_index": 1742, "message": {"header": {"component_id": 1, "sequence": 160, "system_id": 1}, "message": {"airspeed": 0.05000000074505806, "alt": 15.149999618530273, "climb": 0.05452462658286095, "groundspeed": 0.06078551709651947, "heading": 84, "throttle": 0, "type": "VFR_HUD"}}}
{"packet_index": 1756, "message": {"header": {"component_id": 1, "sequence": 163, "system_id": 1}, "message": {"altitude": 32970, "latitude": 634405552, "longitude": 103484873, "time_usec": 8215367531, "type": "GPS_GLOBAL_ORIGIN"}}}
{"packet_index": 1757, "message": {"header": {"component_id": 1, "sequence": 164, "system_id": 1}, "message": {"altitude": 6860, "approach_x": 0.0, "approach_y": 0.0, "approach_z": 0.0, "latitude": 634405553, "longitude": 103484876, "q": [null, null, null, null], "time_usec": 8215367543, "type": "HOME_POSITION", "x": 0.011131884530186653, "y": 0.01493206899613142, "z": 26.10999870300293}}}
{"packet_index": 1761, "message": {"header": {"component_id": 1, "sequence": 168, "system_id": 1}, "message": {"airspeed": 0.05000000074505806, "alt": 15.170000076293945, "climb": 0.0410110242664814, "groundspeed": 0.05407506972551346, "heading": 84, "throttle": 0, "type": "VFR_HUD"}}}
{"packet_index": 1785, "message": {"header": {"component_id": 1, "sequence": 186, "system_id": 1}, "message": {"airspeed": 0.02500000037252903, "alt": 15.199999809265137, "climb": 0.04918700456619263, "groundspeed": 0.05033572390675545, "heading": 84, "throttle": 0, "type": "VFR_HUD"}}}
{"packet_index": 1810, "message": {"header": {"component_id": 1, "sequence": 200, "system_id": 1}, "message": {"autopilot": {"type": "MAV_AUTOPILOT_ARDUPILOTMEGA"}, "base_mode": {"bits": 137}, "custom_mode": 15, "mavlink_version": 3, "mavtype": {"type": "MAV_TYPE_SURFACE_BOAT"}, "system_status": {"type": "MAV_STATE_ACTIVE"}, "type": "HEARTBEAT"}}}
{"packet_index": 1812, "message": {"header": {"component_id": 1, "sequence": 203, "system_id": 1}, "message": {"airspeed": 0.02500000037252903, "alt": 15.239999771118164, "climb": 0.06573093682527542, "groundspeed": 0.051642678678035736, "heading": 84, "throttle": 0, "type": "VFR_HUD"}}}
{"packet_index": 1837, "message": {"header": {"component_id": 1, "sequence": 208, "system_id": 1}, "message": {"airspeed": 0.030000001192092896, "alt": 15.269999504089355, "climb": 0.06423081457614899, "groundspeed": 0.060963429510593414, "heading": 84, "throttle": 0, "type": "VFR_HUD"}}}
{"packet_index": 1860, "message": {"header": {"component_id": 1, "sequence": 213, "system_id": 1}, "message": {"airspeed": 0.030000001192092896, "alt": 15.289999961853027, "climb": 0.05362679809331894, "groundspeed": 0.07593032717704773, "heading": 84, "throttle": 0, "type": "VFR_HUD"}}}
{"packet_index": 1886, "message": {"header": {"component_id": 1, "sequence": 229, "system_id": 1}, "message": {"airspeed": 0.06200000271201134, "alt": 15.269999504089355, "climb": 0.03197668120265007, "groundspeed": 0.08639238029718399, "heading": 84, "throttle": 0, "type": "VFR_HUD"}}}
{"packet_index": 1910, "message": {"header": {"component_id": 1, "sequence": 247, "system_id": 1}, "message": {"airspeed": 0.06200000271201134, "alt": 15.239999771118164, "climb": 0.012979662977159023, "groundspeed": 0.08572416007518768, "heading": 84, "throttle": 0, "type": "VFR_HUD"}}}
{"packet_index": 1939, "message": {"header": {"component_id": 1, "sequence": 252, "system_id": 1}, "message": {"airspeed": 0.07600000500679016, "alt": 15.1899995803833, "climb": 0.0008069880423136055, "groundspeed": 0.07517345994710922, "heading": 83, "throttle": 0, "type": "VFR_HUD"}}}
{"packet_index": 1958, "message": {"header": {"component_id": 1, "sequence": 1, "system_id": 1}, "message": {"airspeed": 0.07600000500679016, "alt": 15.139999389648438, "climb": 0.0009236391633749008, "groundspeed": 0.06024448201060295, "heading": 83, "throttle": 0, "type": "VFR_HUD"}}}
{"packet_index": 1984, "message": {"header": {"component_id": 1, "sequence": 19, "system_id": 1}, "message": {"airspeed": 0.05000000074505806, "alt": 15.119999885559082, "climb": 0.008020029403269291, "groundspeed": 0.042048025876283646, "heading": 83, "throttle": 0, "type": "VFR_HUD"}}}
{"packet_index": 2005, "message": {"header": {"component_id": 1, "sequence": 22, "system_id": 1}, "message": {"altitude": 32970, "latitude": 634405552, "longitude": 103484873, "time_usec": 8216367456, "type": "GPS_GLOBAL_ORIGIN"}}}
{"packet_index": 2006, "message": {"header": {"component_id": 1, "sequence": 23, "system_id": 1}, "message": {"altitude": 6860, "approach_x": 0.0, "approach_y": 0.0, "approach_z": 0.0, "latitude": 634405553, "longitude": 103484876, "q": [null, null, null, null], "time_usec": 8216367463, "type": "HOME_POSITION", "x": 0.011131884530186653, "y": 0.01493206899613142, "z": 26.10999870300293}}}
{"packet_index": 2010, "message": {"header": {"component_id": 1, "sequence": 28, "system_id": 1}, "message": {"airspeed": 0.05000000074505806, "alt": 15.119999885559082, "climb": 0.021328488364815712, "groundspeed": 0.03230394795536995, "heading": 84, "throttle": 0, "type": "VFR_HUD"}}}
{"packet_index": 2034, "message": {"header": {"component_id": 1, "sequence": 46, "system_id": 1}, "message": {"airspeed": 0.06100000441074371, "alt": 15.139999389648438, "climb": 0.03374262899160385, "groundspeed": 0.038141440600156784, "heading": 84, "throttle": 0, "type": "VFR_HUD"}}}
{"packet_index": 2059, "message": {"header": {"component_id": 1, "sequence": 60, "system_id": 1}, "message": {"autopilot": {"type": "MAV_AUTOPILOT_ARDUPILOTMEGA"}, "base_mode": {"bits": 137}, "custom_mode": 15, "mavlink_version": 3, "mavtype": {"type": "MAV_TYPE_SURFACE_BOAT"}, "system_status": {"type": "MAV_STATE_ACTIVE"}, "type": "HEARTBEAT"}}}
{"packet_index": 2063, "message": {"header": {"component_id": 1, "sequence": 63, "system_id": 1}, "message": {"airspeed": 0.06100000441074371, "alt": 15.1899995803833, "climb": 0.02938983589410782, "groundspeed": 0.05343538150191307, "heading": 84, "throttle": 0, "type": "VFR_HUD"}}}
{"packet_index": 2085, "message": {"header": {"component_id": 1, "sequence": 68, "system_id": 1}, "message": {"airspeed": 0.026000000536441803, "alt": 15.229999542236328, "climb": 0.004432913847267628, "groundspeed": 0.06934244930744171, "heading": 84, "throttle": 0, "type": "VFR_HUD"}}}
{"packet_index": 2109, "message": {"header": {"component_id": 1, "sequence": 73, "system_id": 1}, "message": {"airspeed": 0.026000000536441803, "alt": 15.25999927520752, "climb": -0.028078092262148857, "groundspeed": 0.07941270619630814, "heading": 84, "throttle": 0, "type": "VFR_HUD"}}}
{"packet_index": 2135, "message": {"header": {"component_id": 1, "sequence": 89, "system_id": 1}, "message": {"airspeed": 0.05900000408291817, "alt": 15.25999927520752, "climb": -0.05295782536268234, "groundspeed": 0.0880078375339508, "heading": 84, "throttle": 0, "type": "VFR_HUD"}}}
{"packet_index": 2159, "message": {"header": {"component_id": 1, "sequence": 107, "system_id": 1}, "message": {"airspeed": 0.05900000408291817, "alt": 15.25, "climb": -0.068570576608181, "groundspeed": 0.0911833792924881, "heading": 84, "throttle": 0, "type": "VFR_HUD"}}}
{"packet_index": 2183, "message": {"header": {"component_id": 1, "sequence": 112, "system_id": 1}, "message": {"airspeed": 0.07400000095367432, "alt": 15.219999313354492, "climb": -0.04668096825480461, "groundspeed": 0.0981186032295227, "heading": 84, "throttle": 0, "type": "VFR_HUD"}}}
{"packet_index": 2207, "message": {"header": {"component_id": 1, "sequence": 117, "system_id": 1}, "message": {"airspeed": 0.07400000095367432, "alt": 15.199999809265137, "climb": -0.0009959719609469175, "groundspeed": 0.09961193799972534, "heading": 84, "throttle": 0, "type": "VFR_HUD"}}}
{"packet_index": 2233, "message": {"header": {"component_id": 1, "sequence": 135, "system_id": 1}, "message": {"airspeed": 0.0860000029206276, "alt": 15.1899995803833, "climb": 0.04817172512412071, "groundspeed": 0.09599096328020096, "heading": 84, "throttle": 0, "type": "VFR_HUD"}}}
{"packet_index": 2254, "message": {"header": {"component_id": 1, "sequence": 138, "system_id": 1}, "message": {"altitude": 32970, "latitude": 634405552, "longitude": 103484873, "time_usec": 8217367443, "type": "GPS_GLOBAL_ORIGIN"}}}
{"packet_index": 2255, "message": {"header": {"component_id": 1, "sequence": 139, "system_id": 1}, "message": {"altitude": 6860, "approach_x": 0.0, "approach_y": 0.0, "approach_z": 0.0, "latitude": 634405553, "longitude": 103484876, "q": [null, null, null, null], "time_usec": 8217367450, "type": "HOME_POSITION", "x": 0.011131884530186653, "y": 0.01493206899613142, "z": 26.10999870300293}}}
{"packet_index": 2259, "message": {"header": {"component_id": 1, "sequence": 143, "system_id": 1}, "message": {"airspeed": 0.0860000029206276, "alt": 15.1899995803833, "climb": 0.0714055523276329, "groundspeed": 0.0826401337981224, "heading": 84, "throttle": 0, "type": "VFR_HUD"}}}
{"packet_index": 2283, "message": {"header": {"component_id": 1, "sequence": 161, "system_id": 1}, "message": {"airspeed": 0.06800000369548798, "alt": 15.199999809265137, "climb": 0.07602615654468536, "groundspeed": 0.08081100136041641, "heading": 84, "throttle": 0, "type": "VFR_HUD"}}}
{"packet_index": 2308, "message": {"header": {"component_id": 1, "sequence": 175, "system_id": 1}, "message": {"autopilot": {"type": "MAV_AUTOPILOT_ARDUPILOTMEGA"}, "base_mode": {"bits": 137}, "custom_mode": 15, "mavlink_version": 3, "mavtype": {"type": "MAV_TYPE_SURFACE_BOAT"}, "system_status": {"type": "MAV_STATE_ACTIVE"}, "type": "HEARTBEAT"}}}
{"packet_index": 2313, "message": {"header": {"component_id": 1, "sequence": 178, "system_id": 1}, "message": {"airspeed": 0.06800000369548798, "alt": 15.219999313354492, "climb": 0.054154809564352036, "groundspeed": 0.07936926186084747, "heading": 84, "throttle": 0, "type": "VFR_HUD"}}}
{"packet_index": 2334, "message": {"header": {"component_id": 1, "sequence": 183, "system_id": 1}, "message": {"airspeed": 0.08800000697374344, "alt": 15.25, "climb": 0.022129792720079422, "groundspeed": 0.07813289761543274, "heading": 84, "throttle": 0, "type": "VFR_HUD"}}}
{"packet_index": 2367, "message": {"header": {"component_id": 1, "sequence": 188, "system_id": 1}, "message": {"airspeed": 0.08800000697374344, "alt": 15.269999504089355, "climb": -0.0015863246517255902, "groundspeed": 0.07850710302591324, "heading": 84, "throttle": 0, "type": "VFR_HUD"}}}
{"packet_index": 2384, "message": {"header": {"component_id": 1, "sequence": 204, "system_id": 1}, "message": {"airspeed": 0.07600000500679016, "alt": 15.279999732971191, "climb": -0.028785880655050278, "groundspeed": 0.06457798928022385, "heading": 84, "throttle": 0, "type": "VFR_HUD"}}}
{"packet_index": 2408, "message": {"header": {"component_id": 1, "sequence": 222, "system_id": 1}, "message": {"airspeed": 0.07600000500679016, "alt": 15.279999732971191, "climb": -0.02677803859114647, "groundspeed": 0.054882217198610306, "heading": 84, "throttle": 0, "type": "VFR_HUD"}}}
{"packet_index": 2441, "message": {"header": {"component_id": 1, "sequence": 227, "system_id": 1}, "message": {"airspeed": 0.07800000160932541, "alt": 15.269999504089355, "climb": 0.00682552345097065, "groundspeed": 0.04369969293475151, "heading": 84, "throttle": 0, "type": "VFR_HUD"}}}
{"packet_index": 2456, "message": {"header": {"component_id": 1, "sequence": 232, "system_id": 1}, "message": {"airspeed": 0.07800000160932541, "alt": 15.269999504089355, "climb": 0.05318565294146538, "groundspeed": 0.034112319350242615, "heading": 84, "throttle": 0, "type": "VFR_HUD"}}}
{"packet_index": 2482, "message": {"header": {"component_id": 1, "sequence": 250, "system_id": 1}, "message": {"airspeed": 0.06200000271201134, "alt": 15.25999927520752, "climb": 0.07485277950763702, "groundspeed": 0.010437498800456524, "heading": 84, "throttle": 0, "type": "VFR_HUD"}}}
{"packet_index": 2503, "message": {"header": {"component_id": 1, "sequence": 253, "system_id": 1}, "message": {"altitude": 32970, "latitude": 634405552, "longitude": 103484873, "time_usec": 8218367440, "type": "GPS_GLOBAL_ORIGIN"}}}
{"packet_index": 2504, "message": {"header": {"component_id": 1, "sequence": 254, "system_id": 1}, "message": {"altitude": 6860, "approach_x": 0.0, "approach_y": 0.0, "approach_z": 0.0, "latitude": 634405553, "longitude": 103484876, "q": [null, null, null, null], "time_usec": 8218367449, "type": "HOME_POSITION", "x": 0.011131884530186653, "y": 0.01493206899613142, "z": 26.10999870300293}}}
{"packet_index": 2508, "message": {"header": {"component_id": 1, "sequence": 2, "system_id": 1}, "message": {"airspeed": 0.06200000271201134, "alt": 15.25, "climb": 0.08059447258710861, "groundspeed": 0.018509138375520706, "heading": 84, "throttle": 0, "type": "VFR_HUD"}}}
{"packet_index": 2532, "message": {"header": {"component_id": 1, "sequence": 20, "system_id": 1}, "message": {"airspeed": 0.020000001415610313, "alt": 15.239999771118164, "climb": 0.0580446794629097, "groundspeed": 0.04003331810235977, "heading": 84, "throttle": 0, "type": "VFR_HUD"}}}
{"packet_index": 2561, "message": {"header": {"component_id": 1, "sequence": 34, "system_id": 1}, "message": {"autopilot": {"type": "MAV_AUTOPILOT_ARDUPILOTMEGA"}, "base_mode": {"bits": 137}, "custom_mode": 15, "mavlink_version": 3, "mavtype": {"type": "MAV_TYPE_SURFACE_BOAT"}, "system_status": {"type": "MAV_STATE_ACTIVE"}, "type": "HEARTBEAT"}}}
{"packet_index": 2568, "message": {"header": {"component_id": 1, "sequence": 37, "system_id": 1}, "message": {"airspeed": 0.020000001415610313, "alt": 15.229999542236328, "climb": 0.027957679703831673, "groundspeed": 0.054606784135103226, "heading": 84, "throttle": 0, "type": "VFR_HUD"}}}
{"packet_index": 2583, "message": {"header": {"component_id": 1, "sequence": 42, "system_id": 1}, "message": {"airspeed": 0.052000001072883606, "alt": 15.229999542236328, "climb": 0.021781552582979202, "groundspeed": 0.05416282266378403, "heading": 84, "throttle": 0, "type": "VFR_HUD"}}}
{"packet_index": 2607, "message": {"header": {"component_id": 1, "sequence": 47, "system_id": 1}, "message": {"airspeed": 0.052000001072883606, "alt": 15.229999542236328, "climb": 0.034886155277490616, "groundspeed": 0.05831616371870041, "heading": 84, "throttle": 0, "type": "VFR_HUD"}}}
{"packet_index": 2636, "message": {"header": {"component_id": 1, "sequence": 63, "system_id": 1}, "message": {"airspeed": 0.02500000037252903, "alt": 15.25, "climb": 0.07824956625699997, "groundspeed": 0.060561396181583405, "heading": 84, "throttle": 0, "type": "VFR_HUD"}}}
{"packet_index": 2657, "message": {"header": {"component_id": 1, "sequence": 81, "system_id": 1}, "message": {"airspeed": 0.02500000037252903, "alt": 15.279999732971191, "climb": 0.12911967933177948, "groundspeed": 0.07505873590707779, "heading": 84, "throttle": 0, "type": "VFR_HUD"}}}
{"packet_index": 2681, "message": {"header": {"component_id": 1, "sequence": 86, "system_id": 1}, "message": {"airspeed": 0.039000000804662704, "alt": 15.299999237060547, "climb": 0.15490716695785522, "groundspeed": 0.09395744651556015, "heading": 84, "throttle": 0, "type": "VFR_HUD"}}}
{"packet_index": 2705, "message": {"header": {"component_id": 1, "sequence": 91, "system_id": 1}, "message": {"airspeed": 0.039000000804662704, "alt": 15.309999465942383, "climb": 0.13408921658992767, "groundspeed": 0.11587110906839371, "heading": 84, "throttle": 5, "type": "VFR_HUD"}}}
{"packet_index": 2731, "message": {"header": {"component_id": 1, "sequence": 109, "system_id": 1}, "message": {"airspeed": 0.0820000022649765, "alt": 15.309999465942383, "climb": 0.09281794726848602, "groundspeed": 0.11923779547214508, "heading": 84, "throttle": 5, "type": "VFR_HUD"}}}
{"packet_index": 2752, "message": {"header": {"component_id": 1, "sequence": 112, "system_id": 1}, "message": {"altitude": 32970, "latitude": 634405552, "longitude": 103484873, "time_usec": 8219367630, "type": "GPS_GLOBAL_ORIGIN"}}}
{"packet_index": 2753, "message": {"header": {"component_id": 1, "sequence": 113, "system_id": 1}, "message": {"altitude": 6860, "approach_x": 0.0, "approach_y": 0.0, "approach_z": 0.0, "latitude": 634405553, "longitude": 103484876, "q": [null, null, null, null], "time_usec": 8219367641, "type": "HOME_POSITION", "x": 0.011131884530186653, "y": 0.01493206899613142, "z": 26.10999870300293}}}
{"packet_index": 2764, "message": {"header": {"component_id": 1, "sequence": 117, "system_id": 1}, "message": {"airspeed": 0.0820000022649765, "alt": 15.299999237060547, "climb": 0.03146992623806, "groundspeed": 0.11876867711544037, "heading": 84, "throttle": 5, "type": "VFR_HUD"}}}
{"packet_index": 2790, "message": {"header": {"component_id": 1, "sequence": 135, "system_id": 1}, "message": {"airspeed": 0.11300000548362732, "alt": 15.299999237060547, "climb": -0.028574282303452492, "groundspeed": 0.10582485049962997, "heading": 84, "throttle": 3, "type": "VFR_HUD"}}}
{"packet_index": 2806, "message": {"header": {"component_id": 1, "sequence": 149, "system_id": 1}, "message": {"autopilot": {"type": "MAV_AUTOPILOT_ARDUPILOTMEGA"}, "base_mode": {"bits": 137}, "custom_mode": 15, "mavlink_version": 3, "mavtype": {"type": "MAV_TYPE_SURFACE_BOAT"}, "system_status": {"type": "MAV_STATE_ACTIVE"}, "type": "HEARTBEAT"}}}
{"packet_index": 2817, "message": {"header": {"component_id": 1, "sequence": 152, "system_id": 1}, "message": {"airspeed": 0.11300000548362732, "alt": 15.309999465942383, "climb": -0.06911971420049667, "groundspeed": 0.10562686622142792, "heading": 85, "throttle": 1, "type": "VFR_HUD"}}}
{"packet_index": 2841, "message": {"header": {"component_id": 1, "sequence": 157, "system_id": 1}, "message": {"airspeed": 0.08000000566244125, "alt": 15.339999198913574, "climb": -0.09592074900865555, "groundspeed": 0.11946731805801392, "heading": 86, "throttle": 2, "type": "VFR_HUD"}}}
{"packet_index": 2860, "message": {"header": {"component_id": 1, "sequence": 162, "system_id": 1}, "message": {"airspeed": 0.08000000566244125, "alt": 15.369999885559082, "climb": -0.08613641560077667, "groundspeed": 0.12017771601676941, "heading": 87, "throttle": 1, "type": "VFR_HUD"}}}
{"packet_index": 2891, "message": {"header": {"component_id": 1, "sequence": 178, "system_id": 1}, "message": {"airspeed": 0.04800000041723251, "alt": 15.399999618530273, "climb": -0.06331159919500351, "groundspeed": 0.11740420013666153, "heading": 89, "throttle": 1, "type": "VFR_HUD"}}}
{"packet_index": 2909, "message": {"header": {"component_id": 1, "sequence": 196, "system_id": 1}, "message": {"airspeed": 0.04800000041723251, "alt": 15.40999984741211, "climb": -0.03142445161938667, "groundspeed": 0.11798778921365738, "heading": 91, "throttle": 2, "type": "VFR_HUD"}}}
{"packet_index": 2930, "message": {"header": {"component_id": 1, "sequence": 201, "system_id": 1}, "message": {"airspeed": 0.07600000500679016, "alt": 15.40999984741211, "climb": 0.0006868984783068299, "groundspeed": 0.12425915151834488, "heading": 94, "throttle": 3, "type": "VFR_HUD"}}}
{"packet_index": 2954, "message": {"header": {"component_id": 1, "sequence": 206, "system_id": 1}, "message": {"airspeed": 0.07600000500679016, "alt": 15.389999389648438, "climb": 0.013355983421206474, "groundspeed": 0.13181233406066895, "heading": 97, "throttle": 3, "type": "VFR_HUD"}}}
{"packet_index": 2980, "message": {"header": {"component_id": 1, "sequence": 224, "system_id": 1}, "message": {"airspeed": 0.11900000274181366, "alt": 15.359999656677246, "climb": 0.009288928471505642, "groundspeed": 0.12493833154439926, "heading": 101, "throttle": 2, "type": "VFR_HUD"}}}
{"packet_index": 3001, "message": {"header": {"component_id": 1, "sequence": 227, "system_id": 1}, "message": {"altitude": 32970, "latitude": 634405552, "longitude": 103484873, "time_usec": 8220367474, "type": "GPS_GLOBAL_ORIGIN"}}}
{"packet_index": 3002, "message": {"header": {"component_id": 1, "sequence": 228, "system_id": 1}, "message": {"altitude": 6860, "approach_x": 0.0, "approach_y": 0.0, "approach_z": 0.0, "latitude": 634405553, "longitude": 103484876, "q": [null, null, null, null], "time_usec": 8220367481, "type": "HOME_POSITION", "x": 0.011131884530186653, "y": 0.01493206899613142, "z": 26.10999870300293}}}
{"packet_index": 3006, "message": {"header": {"component_id": 1, "sequence": 232, "system_id": 1}, "message": {"airspeed": 0.11900000274181366, "alt": 15.329999923706055, "climb": 0.007015599869191647, "groundspeed": 0.12635354697704315, "heading": 104, "throttle": 2, "type": "VFR_HUD"}}}
{"packet_index": 3030, "message": {"header": {"component_id": 1, "sequence": 250, "system_id": 1}, "message": {"airspeed": 0.0860000029206276, "alt": 15.309999465942383, "climb": 0.007402046583592892, "groundspeed": 0.1310853362083435, "heading": 108, "throttle": 2, "type": "VFR_HUD"}}}
{"packet_index": 3055, "message": {"header": {"component_id": 1, "sequence": 11, "system_id": 1}, "message": {"airspeed": 0.0860000029206276, "alt": 15.309999465942383, "climb": 0.03548940271139145, "groundspeed": 0.131801038980484, "heading": 112, "throttle": 2, "type": "VFR_HUD"}}}
{"packet_index": 3143, "message": {"header": {"component_id": 1, "sequence": 49, "system_id": 1}, "message": {"airspeed": 0.09600000083446503, "alt": 15.420000076293945, "climb": 0.10116910189390182, "groundspeed": 0.09320583194494247, "heading": 123, "throttle": 0, "type": "VFR_HUD"}}}
{"packet_index": 3250, "message": {"header": {"component_id": 1, "sequence": 114, "system_id": 1}, "message": {"airspeed": 0.06599999964237213, "alt": 15.469999313354492, "climb": 0.05902096629142761, "groundspeed": 0.10832049697637558, "heading": 135, "throttle": 4, "type": "VFR_HUD"}}}
{"packet_index": 3299, "message": {"header": {"component_id": 1, "sequence": 143, "system_id": 1}, "message": {"altitude": 32970, "latitude": 634405552, "longitude": 103484873, "time_usec": 8221367508, "type": "GPS_GLOBAL_ORIGIN"}}}
{"packet_index": 3300, "message": {"header": {"component_id": 1, "sequence": 144, "system_id": 1}, "message": {"altitude": 6860, "approach_x": 0.0, "approach_y": 0.0, "approach_z": 0.0, "latitude": 634405553, "longitude": 103484876, "q": [null, null, null, null], "time_usec": 8221367512, "type": "HOME_POSITION", "x": 0.011131884530186653, "y": 0.01493206899613142, "z": 26.10999870300293}}}
{"packet_index": 3351, "message": {"header": {"component_id": 1, "sequence": 181, "system_id": 1}, "message": {"airspeed": 0.12800000607967377, "alt": 15.4399995803833, "climb": 0.024257687851786613, "groundspeed": 0.09780768305063248, "heading": 146, "throttle": 4, "type": "VFR_HUD"}}}
{"packet_index": 3366, "message": {"header": {"component_id": 1, "sequence": 193, "system_id": 1}, "message": {"autopilot": {"type": "MAV_AUTOPILOT_ARDUPILOTMEGA"}, "base_mode": {"bits": 137}, "custom_mode": 15, "mavlink_version": 3, "mavtype": {"type": "MAV_TYPE_SURFACE_BOAT"}, "system_status": {"type": "MAV_STATE_ACTIVE"}, "type": "HEARTBEAT"}}}
{"packet_index": 3459, "message": {"header": {"component_id": 1, "sequence": 231, "system_id": 1}, "message": {"airspeed": 0.010000000707805157, "alt": 15.50999927520752, "climb": 0.07674355804920197, "groundspeed": 0.010224978439509869, "heading": 155, "throttle": 1, "type": "VFR_HUD"}}}
{"packet_index": 3567, "message": {"header": {"component_id": 1, "sequence": 40, "system_id": 1}, "message": {"airspeed": 0.009000000543892384, "alt": 15.630000114440918, "climb": 0.08793444186449051, "groundspeed": 0.03533400595188141, "heading": 160, "throttle": 5, "type": "VFR_HUD"}}}
{"packet_index": 3615, "message": {"header": {"component_id": 1, "sequence": 69, "system_id": 1}, "message": {"altitude": 32970, "latitude": 634405552, "longitude": 103484873, "time_usec": 8222367538, "type": "GPS_GLOBAL_ORIGIN"}}}
{"packet_index": 3616, "message": {"header": {"component_id": 1, "sequence": 70, "system_id": 1}, "message": {"altitude": 6860, "approach_x": 0.0, "approach_y": 0.0, "approach_z": 0.0, "latitude": 634405553, "longitude": 103484876, "q": [null, null, null, null], "time_usec": 8222367545, "type": "HOME_POSITION", "x": 0.011131884530186653, "y": 0.01493206899613142, "z": 26.10999870300293}}}
{"packet_index": 3667, "message": {"header": {"component_id": 1, "sequence": 107, "system_id": 1}, "message": {"airspeed": 0.05000000074505806, "alt": 15.630000114440918, "climb": 0.15696090459823608, "groundspeed": 0.02236834168434143, "heading": 164, "throttle": 1, "type": "VFR_HUD"}}}
{"packet_index": 3685, "message": {"header": {"component_id": 1, "sequence": 122, "system_id": 1}, "message": {"autopilot": {"type": "MAV_AUTOPILOT_ARDUPILOTMEGA"}, "base_mode": {"bits": 137}, "custom_mode": 15, "mavlink_version": 3, "mavtype": {"type": "MAV_TYPE_SURFACE_BOAT"}, "system_status": {"type": "MAV_STATE_ACTIVE"}, "type": "HEARTBEAT"}}}
{"packet_index": 3762, "message": {"header": {"component_id": 1, "sequence": 153, "system_id": 1}, "message": {"param_count": 990, "param_id": ["S", "T", "A", "T", "_", "F", "L", "T", "T", "I", "M", "E", "\u0000", "\u0000", "\u0000", "\u0000"], "param_index": 65535, "param_type": {"type": "MAV_PARAM_TYPE_INT32"}, "param_value": 4095.0, "type": "PARAM_VALUE"}}}
{"packet_index": 3763, "message": {"header": {"component_id": 1, "sequence": 154, "system_id": 1}, "message": {"param_count": 990, "param_id": ["S", "T", "A", "T", "_", "R", "U", "N", "T", "I", "M", "E", "\u0000", "\u0000", "\u0000", "\u0000"], "param_index": 65535, "param_type": {"type": "MAV_PARAM_TYPE_INT32"}, "param_value": 50083.0, "type": "PARAM_VALUE"}}}
{"packet_index": 3777, "message": {"header": {"component_id": 1, "sequence": 159, "system_id": 1}, "message": {"airspeed": 0.03700000047683716, "alt": 15.65999984741211, "climb": 0.06443686783313751, "groundspeed": 0.03266482427716255, "heading": 165, "throttle": 5, "type": "VFR_HUD"}}}
{"packet_index": 3885, "message": {"header": {"component_id": 1, "sequence": 224, "system_id": 1}, "message": {"airspeed": 0.05400000140070915, "alt": 15.6899995803833, "climb": -0.012509520165622234, "groundspeed": 0.07417889684438705, "heading": 165, "throttle": 0, "type": "VFR_HUD"}}}
{"packet_index": 3933, "message": {"header": {"component_id": 1, "sequence": 253, "system_id": 1}, "message": {"altitude": 32970, "latitude": 634405552, "longitude": 103484873, "time_usec": 8223367582, "type": "GPS_GLOBAL_ORIGIN"}}}
{"packet_index": 3934, "message": {"header": {"component_id": 1, "sequence": 254, "system_id": 1}, "message": {"altitude": 6860, "approach_x": 0.0, "approach_y": 0.0, "approach_z": 0.0, "latitude": 634405553, "longitude": 103484876, "q": [null, null, null, null], "time_usec": 8223367589, "type": "HOME_POSITION", "x": 0.011131884530186653, "y": 0.01493206899613142, "z": 26.10999870300293}}}
{"packet_index": 3985, "message": {"header": {"component_id": 1, "sequence": 35, "system_id": 1}, "message": {"airspeed": 0.08800000697374344, "alt": 15.65999984741211, "climb": -0.0900479406118393, "groundspeed": 0.14747099578380585, "heading": 164, "throttle": 0, "type": "VFR_HUD"}}}
{"packet_index": 4003, "message": {"header": {"component_id": 1, "sequence": 50, "system_id": 1}, "message": {"autopilot": {"type": "MAV_AUTOPILOT_ARDUPILOTMEGA"}, "base_mode": {"bits": 137}, "custom_mode": 15, "mavlink_version": 3, "mavtype": {"type": "MAV_TYPE_SURFACE_BOAT"}, "system_status": {"type": "MAV_STATE_ACTIVE"}, "type": "HEARTBEAT"}}}
{"packet_index": 4096, "message": {"header": {"component_id": 1, "sequence": 88, "system_id": 1}, "message": {"airspeed": 0.12800000607967377, "alt": 15.59999942779541, "climb": -0.02405651845037937, "groundspeed": 0.14641232788562775, "heading": 162, "throttle": 0, "type": "VFR_HUD"}}}
{"packet_index": 4203, "message": {"header": {"component_id": 1, "sequence": 153, "system_id": 1}, "message": {"airspeed": 0.13700000941753387, "alt": 15.579999923706055, "climb": 0.07610802352428436, "groundspeed": 0.1711670160293579, "heading": 160, "throttle": 1, "type": "VFR_HUD"}}}
{"packet_index": 4249, "message": {"header": {"component_id": 1, "sequence": 179, "system_id": 1}, "message": {"altitude": 32970, "latitude": 634405552, "longitude": 103484873, "time_usec": 8224367416, "type": "GPS_GLOBAL_ORIGIN"}}}
{"packet_index": 4250, "message": {"header": {"component_id": 1, "sequence": 180, "system_id": 1}, "message": {"altitude": 6860, "approach_x": 0.0, "approach_y": 0.0, "approach_z": 0.0, "latitude": 634405553, "longitude": 103484876, "q": [null, null, null, null], "time_usec": 8224367423, "type": "HOME_POSITION", "x": 0.011131884530186653, "y": 0.01493206899613142, "z": 26.10999870300293}}}
{"packet_index": 4304, "message": {"header": {"component_id": 1, "sequence": 220, "system_id": 1}, "message": {"airspeed": 0.15300001204013824, "alt": 15.649999618530273, "climb": 0.1554756611585617, "groundspeed": 0.11094870418310165, "heading": 158, "throttle": 1, "type": "VFR_HUD"}}}
{"packet_index": 4319, "message": {"header": {"component_id": 1, "sequence": 232, "system_id": 1}, "message": {"autopilot": {"type": "MAV_AUTOPILOT_ARDUPILOTMEGA"}, "base_mode": {"bits": 137}, "custom_mode": 15, "mavlink_version": 3, "mavtype": {"type": "MAV_TYPE_SURFACE_BOAT"}, "system_status": {"type": "MAV_STATE_ACTIVE"}, "type": "HEARTBEAT"}}}
{"packet_index": 4412, "message": {"header": {"component_id": 1, "sequence": 14, "system_id": 1}, "message": {"airspeed": 0.05100000277161598, "alt": 15.529999732971191, "climb": 0.05189365893602371, "groundspeed": 0.08156909048557281, "heading": 155, "throttle": 3, "type": "VFR_HUD"}}}
{"packet_index": 4519, "message": {"header": {"component_id": 1, "sequence": 79, "system_id": 1}, "message": {"airspeed": 0.07300000637769699, "alt": 15.489999771118164, "climb": 0.052177149802446365, "groundspeed": 0.07465225458145142, "heading": 153, "throttle": 4, "type": "VFR_HUD"}}}
{"packet_index": 4568, "message": {"header": {"component_id": 1, "sequence": 108, "system_id": 1}, "message": {"altitude": 32970, "latitude": 634405552, "longitude": 103484873, "time_usec": 8225367426, "type": "GPS_GLOBAL_ORIGIN"}}}
{"packet_index": 4569, "message": {"header": {"component_id": 1, "sequence": 109, "system_id": 1}, "message": {"altitude": 6860, "approach_x": 0.0, "approach_y": 0.0, "approach_z": 0.0, "latitude": 634405553, "longitude": 103484876, "q": [null, null, null, null], "time_usec": 8225367431, "type": "HOME_POSITION", "x": 0.011131884530186653, "y": 0.01493206899613142, "z": 26.10999870300293}}}
{"packet_index": 4620, "message": {"header": {"component_id": 1, "sequence": 146, "system_id": 1}, "message": {"airspeed": 0.04500000178813934, "alt": 15.609999656677246, "climb": 0.06614155322313309, "groundspeed": 0.0690474584698677, "heading": 151, "throttle": 4, "type": "VFR_HUD"}}}
{"packet_index": 4635, "message": {"header": {"component_id": 1, "sequence": 158, "system_id": 1}, "message": {"autopilot": {"type": "MAV_AUTOPILOT_ARDUPILOTMEGA"}, "base_mode": {"bits": 137}, "custom_mode": 15, "mavlink_version": 3, "mavtype": {"type": "MAV_TYPE_SURFACE_BOAT"}, "system_status": {"type": "MAV_STATE_ACTIVE"}, "type": "HEARTBEAT"}}}
{"packet_index": 4728, "message": {"header": {"component_id": 1, "sequence": 196, "system_id": 1}, "message": {"airspeed": 0.04700000211596489, "alt": 15.569999694824219, "climb": -0.014237314462661743, "groundspeed": 0.025147797539830208, "heading": 150, "throttle": 0, "type": "VFR_HUD"}}}
{"packet_index": 4835, "message": {"header": {"component_id": 1, "sequence": 5, "system_id": 1}, "message": {"airspeed": 0.03700000047683716, "alt": 15.569999694824219, "climb": -0.00968590471893549, "groundspeed": 0.0035700825974345207, "heading": 150, "throttle": 0, "type": "VFR_HUD"}}}
{"packet_index": 4884, "message": {"header": {"component_id": 1, "sequence": 35, "system_id": 1}, "message": {"altitude": 32970, "latitude": 634405552, "longitude": 103484873, "time_usec": 8226367545, "type": "GPS_GLOBAL_ORIGIN"}}}
{"packet_index": 4885, "message": {"header": {"component_id": 1, "sequence": 36, "system_id": 1}, "message": {"altitude": 6860, "approach_x": 0.0, "approach_y": 0.0, "approach_z": 0.0, "latitude": 634405553, "longitude": 103484876, "q": [null, null, null, null], "time_usec": 8226367553, "type": "HOME_POSITION", "x": 0.011131884530186653, "y": 0.01493206899613142, "z": 26.10999870300293}}}
{"packet_index": 4936, "message": {"header": {"component_id": 1, "sequence": 74, "system_id": 1}, "message": {"airspeed": 0.030000001192092896, "alt": 15.569999694824219, "climb": 0.014383665286004543, "groundspeed": 0.027921034023165703, "heading": 149, "throttle": 0, "type": "VFR_HUD"}}}
{"packet_index": 4954, "message": {"header": {"component_id": 1, "sequence": 89, "system_id": 1}, "message": {"autopilot": {"type": "MAV_AUTOPILOT_ARDUPILOTMEGA"}, "base_mode": {"bits": 137}, "custom_mode": 15, "mavlink_version": 3, "mavtype": {"type": "MAV_TYPE_SURFACE_BOAT"}, "system_status": {"type": "MAV_STATE_ACTIVE"}, "type": "HEARTBEAT"}}}
{"packet_index": 5044, "message": {"header": {"component_id": 1, "sequence": 124, "system_id": 1}, "message": {"airspeed": 0.049000002443790436, "alt": 15.59999942779541, "climb": 0.031758394092321396, "groundspeed": 0.0271870456635952, "heading": 149, "throttle": 0, "type": "VFR_HUD"}}}
{"packet_index": 5147, "message": {"header": {"component_id": 1, "sequence": 186, "system_id": 1}, "message": {"airspeed": 0.05400000140070915, "alt": 15.609999656677246, "climb": -0.0036309605930000544, "groundspeed": 0.03412707895040512, "heading": 149, "throttle": 0, "type": "VFR_HUD"}}}
