packet_index,time_boot_ms,roll_rad,pitch_rad,yaw_rad,roll_deg,pitch_deg,yaw_deg,rollspeed_radps,pitchspeed_radps,yawspeed_radps
10,5482887,-0.05679373815655708,0.004817159380763769,2.6565589904785156,-3.254041499141825,0.2760029017596171,152.2096181819536,0.027658062055706978,0.03859284892678261,-0.0005868962034583092
15,5482927,-0.054909318685531616,0.006869744975119829,2.657377243041992,-3.1460722166197908,0.39360739340557094,152.25650060041656,0.039525508880615234,0.04784845560789108,0.001093040220439434
28,5482967,-0.05281231924891472,0.008938122540712357,2.658398389816284,-3.025922999260331,0.5121166983535663,152.3150080008469,0.0478348508477211,0.05193553864955902,0.00581703707575798
42,5482987,-0.05166744813323021,0.00996337365359068,2.659151792526245,-2.960326716245175,0.570859260062585,152.35817479640136,0.0508861318230629,0.05218087136745453,0.009434521198272705
47,5483027,-0.049397047609090805,0.011768222786486149,2.660884141921997,-2.830242348407697,0.6742694980353416,152.45743110542,0.054824717342853546,0.04949541389942169,0.01814815029501915
60,5483067,-0.047057509422302246,0.013322612270712852,2.6630375385284424,-2.6961966842950233,0.7633294552010487,152.5808116425871,0.057088702917099,0.044033557176589966,0.028911355882883072
73,5483087,-0.04586152732372284,0.014009794220328331,2.6643640995025635,-2.627671957673224,0.8027020806715871,152.65681798767102,0.05793973058462143,0.0406828410923481,0.03473879024386406
78,5483127,-0.043449994176626205,0.015219812281429768,2.667259693145752,-2.489501286188686,0.8720310087073024,152.8227232826106,0.059145525097846985,0.033871471881866455,0.046382129192352295
92,5483167,-0.041027430444955826,0.016320601105690002,2.670375347137451,-2.35069860876251,0.9351015624725819,153.00123710675808,0.0597231350839138,0.028111031278967857,0.05660850554704666
104,5483187,-0.03983604535460472,0.01687040738761425,2.672089099884033,-2.2824372713105796,0.9666031419766212,153.0994279062662,0.05973077565431595,0.026120809838175774,0.060841597616672516
109,5483227,-0.037482790648937225,0.01805230975151062,2.6754703521728516,-2.147605708556531,1.0343211592244184,153.29315939188442,0.05899632349610329,0.024694718420505524,0.06676416099071503
122,5483267,-0.035138219594955444,0.01953098177909851,2.6787333488464355,-2.013271682394836,1.1190428256892566,153.480115329846,0.057731084525585175,0.02734842523932457,0.06860368698835373
135,5483287,-0.034000612795352936,0.020362142473459244,2.680293321609497,-1.9480916140322275,1.1666648255732897,153.5694951853248,0.05699370801448822,0.03010309860110283,0.06779501587152481
141,5483327,-0.0318172350525856,0.02235947921872139,2.683114528656006,-1.822993284288859,1.2811037913432068,153.73113844222232,0.05549578368663788,0.03798806667327881,0.0632564052939415
154,5483367,-0.029830526560544968,0.024769702926278114,2.6854352951049805,-1.7091632725721304,1.4191994374685808,153.86410856498412,0.052791643887758255,0.04815192520618439,0.05522666126489639
169,5483387,-0.028963562101125717,0.026108380407094955,2.686495780944824,-1.6594898680595664,1.495900007248591,153.92486992784055,0.05053423345088959,0.053470127284526825,0.05037058889865875
174,5483427,-0.027515318244695663,0.028972454369068146,2.688242197036743,-1.576511607380374,1.659999357482967,154.02493219918125,0.043944235891103745,0.06335607916116714,0.0397091843187809
187,5483447,-0.02697845548391342,0.030441591516137123,2.6889607906341553,-1.54575163700981,1.74417471553591,154.06610457949807,0.039489131420850754,0.06732302904129028,0.034349098801612854
200,5483487,-0.026302464306354523,0.033293332904577255,2.6902401447296143,-1.5070201955476066,1.9075674613563072,154.13940616967065,0.028506439179182053,0.0716744214296341,0.024879828095436096
205,5483527,-0.026137905195355415,0.03587060049176216,2.6914379596710205,-1.4975916530069329,2.055234016777867,154.20803591045095,0.01582624949514866,0.07041748613119125,0.018275976181030273
218,5483547,-0.026235278695821762,0.03704387694597244,2.6920647621154785,-1.5031707436200696,2.1224578058061905,154.24394904510686,0.00905379094183445,0.06744097173213959,0.016524268314242363
232,5483587,-0.02677556872367859,0.03876814246177673,2.693455457687378,-1.5341270819292714,2.221250942621724,154.32363003196423,-0.003659980371594429,0.057174768298864365,0.01663777232170105
237,5483627,-0.027638351544737816,0.03976381570100784,2.6952321529388428,-1.5835608962123562,2.2782988170037863,154.4254271713541,-0.014822255820035934,0.041773851960897446,0.021107496693730354
250,5483647,-0.028108803555369377,0.0399983674287796,2.696263313293457,-1.6105158108849884,2.2917376410826096,154.48450830767473,-0.019258657470345497,0.03287993744015694,0.024970248341560364
264,5483687,-0.029021356254816055,0.03990112245082855,2.6987574100494385,-1.6628012291465533,2.2861659142671718,154.62740952548972,-0.024671999737620354,0.013985740020871162,0.03528358414769173
269,5483727,-0.029563304036855698,0.039153676480054855,2.7017781734466553,-1.6938525497739005,2.24334041472778,154.80048651905784,-0.023687301203608513,-0.004741743206977844,0.04753671586513519
281,5483747,-0.029576096683740616,0.038568612188100815,2.7034289836883545,-1.6945855144492077,2.209818700055004,154.89507097868417,-0.020163938403129578,-0.013535801321268082,0.05374918133020401
295,5483787,-0.02893391251564026,0.03711612895131111,2.7070586681365967,-1.6577910719469373,2.126597540773453,155.10303657853274,-0.006660314276814461,-0.02864566259086132,0.06550096720457077
300,5483827,-0.027203606441617012,0.035404473543167114,2.711015462875366,-1.5586518366395543,2.0285269099060597,155.3297442174638,0.014771679416298866,-0.03957495838403702,0.07508127391338348
312,5483847,-0.025928443297743797,0.03456537052989006,2.7129693031311035,-1.4855903703049858,1.9804498486685744,155.4416910179603,0.027420852333307266,-0.04275459796190262,0.07843533903360367
326,5483887,-0.02254042774438858,0.03294158726930618,2.716843843460083,-1.2914713781730516,1.8874139209931267,155.66368582636406,0.055080778896808624,-0.04519997537136078,0.08206336945295334
331,5483927,-0.018153512850403786,0.03153833746910095,2.7204840183258057,-1.040119669664642,1.8070136298387909,155.87225248285958,0.08325798809528351,-0.0428338460624218,0.0807860717177391
343,5483947,-0.015665072947740555,0.030950265005230904,2.7221481800079346,-0.8975425656700934,1.7733195596111775,155.96760192367296,0.09640178084373474,-0.0402119979262352,0.07840363681316376
358,5483987,-0.010312538594007492,0.030031800270080566,2.7251298427581787,-0.5908649375024052,1.7206954066554623,156.1384386151933,0.11845029145479202,-0.03266565874218941,0.07055032253265381
366,5484027,-0.00481492979452014,0.0294281467795372,2.727572202682495,-0.2758751558777967,1.686108609358987,156.27837553090853,0.13253231346607208,-0.02374916709959507,0.05907600373029709
375,5484047,-0.0021609393879771233,0.029223846271634102,2.7285518646240234,-0.12381270671467232,1.6744030525037603,156.3345060255077,0.13570109009742737,-0.01926373317837715,0.05239710211753845
389,5484087,0.002606574445962906,0.02895607426762581,2.7300984859466553,0.14934571474032537,1.6590608468023251,156.42312089979944,0.13298547267913818,-0.01149592362344265,0.03807076811790466
393,5484107,0.004611583426594734,0.02885272540152073,2.7306807041168213,0.26422426721635656,1.6531393929570413,156.45647954370577,0.12682466208934784,-0.008640456013381481,0.03067556954920292
406,5484147,0.007750978693366051,0.028604885563254356,2.731480360031128,0.44409836622570015,1.6389392162291732,156.50229645265821,0.10523957014083862,-0.0052987951785326,0.01657789945602417
420,5484187,0.009299453347921371,0.028123019263148308,2.73195219039917,0.5328194286146981,1.6113303109435124,156.52933034139315,0.0745672881603241,-0.006361342966556549,0.0051588499918580055
424,5484207,0.009450974874198437,0.027732575312256813,2.7321503162384033,0.5415009725757546,1.5889595204210165,156.5406821157937,0.05638677626848221,-0.008762639947235584,0.0008415486663579941
437,5484247,0.008480177260935307,0.02656565234065056,2.7324953079223633,0.4858783665744037,1.5220997591311136,156.5604486832517,0.016187889501452446,-0.017108630388975143,-0.004326317459344864
451,5484287,0.005807708483189344,0.024720076471567154,2.7329905033111572,0.33275718472907445,1.4163560510614457,156.58882128906396,-0.02666628733277321,-0.030271785333752632,-0.004844469018280506
456,5484307,0.003873384092003107,0.023507332429289818,2.7333590984344482,0.2219285609048906,1.3468709358093192,156.60994023397762,-0.048250243067741394,-0.038422174751758575,-0.003386054653674364
469,5484347,-0.0009840655839070678,0.020550889894366264,2.7343480587005615,-0.056382804721951965,1.1774792561852412,156.66660348333204,-0.08908363431692123,-0.05636041238903999,0.0026631681248545647
485,5484387,-0.006750987842679024,0.016871027648448944,2.7358269691467285,-0.38680311092963665,0.9666386803046465,156.75133881017524,-0.12288348376750946,-0.0752948597073555,0.012058161199092865
489,5484407,-0.009955001063644886,0.01469025295227766,2.736812114715576,-0.5703795459950974,0.8416894941451075,156.80778349347622,-0.13622866570949554,-0.0849507600069046,0.018027491867542267
502,5484447,-0.01600799150764942,0.010211708955466747,2.739006757736206,-0.9171903518695755,0.585087824764191,156.93352727609616,-0.1514810025691986,-0.10134421288967133,0.029881052672863007
516,5484487,-0.021494964137673378,0.0055763935670256615,2.7415575981140137,-1.2315707258737456,0.31950381629447294,157.07967966395609,-0.15158675611019135,-0.11285437643527985,0.04064328968524933
520,5484507,-0.02388729155063629,0.0033173225820064545,2.7429537773132324,-1.3686409898499714,0.19006858323241077,157.15967483951528,-0.14613084495067596,-0.11588942259550095,0.04515312984585762
534,5484547,-0.027661357074975967,-0.0008629994699731469,2.7457644939422607,-1.5848790160004629,-0.049446227351488334,157.32071703976584,-0.12528331577777863,-0.11539318412542343,0.05184885114431381
548,5484587,-0.029843300580978394,-0.004257567692548037,2.7484989166259766,-1.7098951700303797,-0.24394065977425497,157.47738791894758,-0.09300374984741211,-0.1050984263420105,0.05448323115706444
552,5484607,-0.030247889459133148,-0.005528331734240055,2.749793291091919,-1.7330764051865797,-0.31675007612019423,157.5515501129556,-0.07340817898511887,-0.09616370499134064,0.05407927930355072
566,5484647,-0.029620755463838577,-0.0070432331413030624,2.7521064281463623,-1.6971442740670237,-0.40354753312333447,157.6840831036105,-0.029182566329836845,-0.07098806649446487,0.05034860223531723
580,5484687,-0.027102423831820488,-0.006971509661525488,2.7540981769561768,-1.5528545001380945,-0.39943808044008755,157.7982019042631,0.019145185127854347,-0.036180637776851654,0.0435522086918354
584,5484707,-0.02526741288602352,-0.006284326780587435,2.754939079284668,-1.4477161175836188,-0.36006540160869616,157.84638205866835,0.042228490114212036,-0.016691267490386963,0.03941580653190613
597,5484747,-0.020720379427075386,-0.003574329661205411,2.7562830448150635,-1.1871902910811183,-0.20479400417549545,157.9233856113711,0.08364234119653702,0.025776375085115433,0.03041650727391243
601,5484767,-0.01814332976937294,-0.0015835684025660157,2.7568016052246094,-1.0395362220991347,-0.09073178603730643,157.95309693426063,0.10073486715555191,0.0479009635746479,0.025907758623361588
615,5484807,-0.012732407078146935,0.0036283330991864204,2.757828950881958,-0.7295131886203154,0.2078881732510038,158.0119595045278,0.12541164457798004,0.09203249961137772,0.017872123047709465
628,5484847,-0.007473539561033249,0.010297519154846668,2.7586817741394043,-0.42820227487125906,0.5900043870278365,158.06082267785007,0.13570986688137054,0.13352476060390472,0.012102767825126648
632,5484867,-0.005070413462817669,0.014091016724705696,2.759070873260498,-0.2905132918057654,0.807355787373893,158.083116415301,0.13538682460784912,0.15248896181583405,0.010149795562028885
646,5484907,-0.0009867078624665737,0.02233813889324665,2.760087251663208,-0.05653419613170956,1.279881080760069,158.14135060816452,0.12428275495767593,0.185076504945755,0.00863494724035263
659,5484947,0.0017571899807080626,0.031111322343349457,2.7612900733947754,0.10067956969724653,1.7825474653449822,158.21026721688995,0.10054955631494522,0.20855757594108582,0.010858232155442238
665,5484967,0.0025143285747617483,0.03555048629641533,2.761969566345215,0.14406041564299166,2.0368928244222673,158.24919929515903,0.08441483974456787,0.2161494791507721,0.013285278342664242
678,5485007,0.002713602501899004,0.0443488247692585,2.763744831085205,0.1554779706349539,2.541000485643759,158.35091447227884,0.04459002986550331,0.22215226292610168,0.02000841125845909
691,5485047,0.001179237267933786,0.05212365463376045,2.765836000442505,0.06756531849714378,2.9864654233119907,158.4707296506992,0.0010676849633455276,0.2145201563835144,0.02870369702577591
695,5485067,-0.00017224282782990485,0.05555371567606926,2.7669873237609863,-0.009868787086052029,3.1829934445085293,158.5366956177032,-0.02091345377266407,0.2056027501821518,0.03361239656805992
709,5485107,-0.003812901908531785,0.06120419502258301,2.769674301147461,-0.21846318705624793,3.5067420632896065,158.6906480815953,-0.0619799830019474,0.1779959499835968,0.04352971911430359
722,5485147,-0.008427820168435574,0.06488756090402603,2.7726030349731445,-0.48287852614659293,3.717783382698776,158.85845216912418,-0.0961437076330185,0.13836388289928436,0.053029127418994904
726,5485167,-0.010993116535246372,0.06589819490909576,2.774116039276123,-0.6298591811650956,3.775688445821675,158.94514093006995,-0.1099255308508873,0.11452922970056534,0.05714330077171326
740,5485207,-0.016426807269454002,0.06618622690439224,2.7773280143737793,-0.9411867274145344,3.792191463516895,159.12917354706678,-0.1304619461297989,0.06079203262925148,0.06325457990169525
753,5485247,-0.02204141393303871,0.06412050873041153,2.7804834842681885,-1.2628799928639667,3.673834530484329,159.30996865439704,-0.14215408265590668,0.0023029744625091553,0.06598867475986481
757,5485267,-0.024952959269285202,0.06212112680077553,2.7820584774017334,-1.4296992524918888,3.559278384281464,159.40020911371124,-0.1450011134147644,-0.02897043153643608,0.0659368708729744
772,5485307,-0.030344489961862564,0.05670587345957756,2.7850170135498047,-1.7386112062918173,3.2490072228367026,159.5697207485326,-0.1448463648557663,-0.08738571405410767,0.06273482739925385
785,5485347,-0.03527522087097168,0.04943864792585373,2.787578582763672,-2.021121277298473,2.83262587098462,159.71648785341785,-0.13788674771785736,-0.1411222517490387,0.05555130913853645
789,5485367,-0.037534840404987335,0.04523012414574623,2.7886950969696045,-2.1505879399028878,2.591495220404017,159.7804594051842,-0.13226193189620972,-0.16519656777381897,0.05071736499667168
805,5485407,-0.04150564596056938,0.035926736891269684,2.7906734943389893,-2.3780983395048394,2.0584503955467084,159.8938132246497,-0.11758993566036224,-0.20635253190994263,0.03890520706772804
809,5485427,-0.043223582208156586,0.030941559001803398,2.7914483547210693,-2.4765288359641278,1.772820742358355,159.9382094542548,-0.10884948819875717,-0.2230416089296341,0.032274290919303894
822,5485467,-0.04607765004038811,0.020668890327215195,2.7926042079925537,-2.6400548771950456,1.1842401829682017,160.00443496844724,-0.08983761817216873,-0.24747048318386078,0.018397018313407898
836,5485507,-0.04815446585416794,0.01038093026727438,2.7934696674346924,-2.759047658150658,0.5947834917344356,160.05402214182155,-0.06987199187278748,-0.25912782549858093,0.005280130542814732
840,5485527,-0.048894252628088,0.005393642000854015,2.793736696243286,-2.801434318035876,0.30903292285343187,160.06932176556236,-0.05974406749010086,-0.26010188460350037,-0.0006417259573936462
854,5485567,-0.04977761209011078,-0.004251094069331884,2.794066905975342,-2.852047087002728,-0.24356974848581153,160.0882413895633,-0.038886480033397675,-0.25265026092529297,-0.010331192053854465
868,5485607,-0.0498836375772953,-0.012164059095084667,2.7944040298461914,-2.8581218999392197,-0.6969492478960748,160.1075571645361,-0.019841225817799568,-0.23509636521339417,-0.015785589814186096
882,5485627,-0.0496482253074646,-0.016205212101340294,2.794529914855957,-2.8446337704323255,-0.928490259521127,160.11476984429964,-0.009285612031817436,-0.22093531489372253,-0.017158640548586845
886,5485667,-0.048759568482637405,-0.02233894355595112,2.794905185699463,-2.7937174849342306,-1.2799271845369664,160.13627127980683,0.00868154875934124,-0.18906331062316895,-0.016091089695692062
900,5485707,-0.04746697098016739,-0.026788203045725822,2.7956488132476807,-2.7196571034335477,-1.5348509752595871,160.17887799984936,0.023402661085128784,-0.15074144303798676,-0.010697604157030582
904,5485727,-0.04676042124629021,-0.02835642360150814,2.7961206436157227,-2.679174785666294,-1.624703394451574,160.20591188858427,0.028917860239744186,-0.13001954555511475,-0.006611717864871025
917,5485767,-0.0454019159078598,-0.030191829428076744,2.797313690185547,-2.60133816332824,-1.7298644020076754,160.27426842179776,0.03522969409823418,-0.08702564239501953,0.003533816896378994
931,5485807,-0.04423971101641655,-0.030396312475204468,2.7990188598632812,-2.5347487281190815,-1.7415804175900689,160.37196744768562,0.03539196401834488,-0.04392779618501663,0.01530891377478838
935,5485827,-0.0437760055065155,-0.02988073043525219,2.80002760887146,-2.50818035946479,-1.7120397427080578,160.42976450844228,0.033182527869939804,-0.022127507254481316,0.0216887928545475
948,5485867,-0.04321416839957237,-0.027911607176065445,2.80214524269104,-2.475989464463108,-1.5992172906156121,160.55109598885838,0.02560296282172203,0.016675395891070366,0.03309613838791847
962,5485907,-0.043194547295570374,-0.02483416721224785,2.804525852203369,-2.4748652580144066,-1.422892968983971,160.68749486658353,0.01452458743005991,0.05024508386850357,0.04210280999541283
966,5485927,-0.043399643152952194,-0.02295594848692417,2.8057103157043457,-2.4866163850380016,-1.315278963020483,160.75535962617678,0.007937876507639885,0.06474862992763519,0.0453258641064167
981,5485967,-0.04420417547225952,-0.01869926229119301,2.807969808578491,-2.532712691416183,-1.0713888092934891,160.8848190317052,-0.0061495136469602585,0.08881022036075592,0.04874049499630928
994,5486007,-0.04547850415110588,-0.014045819640159607,2.810127019882202,-2.605726346426562,-0.8047661851831062,161.00841813492576,-0.020075974985957146,0.10585066676139832,0.048157401382923126
998,5486027,-0.046225398778915405,-0.01163911260664463,2.8110716342926025,-2.6485202563410417,-0.6668720296382477,161.06254055390895,-0.0262666754424572,0.11167603731155396,0.04642157256603241
1011,5486067,-0.04782623052597046,-0.006858918350189924,2.812648057937622,-2.7402411591578506,-0.39298707349071627,161.15286297549318,-0.03577043488621712,0.11834336072206497,0.040442269295454025
1024,5486087,-0.0485868975520134,-0.00453481450676918,2.813345193862915,-2.783824169364879,-0.2598257321125741,161.19280592175943,-0.03848956525325775,0.11923259496688843,0.03646525740623474
1029,5486127,-0.04993540421128273,-7.870569788792636e-06,2.8143868446350098,-2.8610879095862978,-0.0004509504312609898,161.252488114727,-0.03890780359506607,0.1165693998336792,0.02671278640627861
1042,5486167,-0.050786834210157394,0.004048411268740892,2.8149430751800537,-2.9098712550726447,0.23195687943205603,161.28435777739426,-0.03295738250017166,0.1099831610918045,0.016333481296896935
1055,5486187,-0.05100267380475998,0.005930118262767792,2.815126895904541,-2.922237952895187,0.3397707484700462,161.29488992909444,-0.027807217091321945,0.10567305982112885,0.01093987375497818
1060,5486227,-0.05096953734755516,0.009470783174037933,2.815244197845459,-2.9203393737493353,0.5426359045558874,161.30161083523774,-0.014512835070490837,0.09666571021080017,0.0009242873638868332
1073,5486267,-0.05020623654127121,0.012805572710931301,2.8151121139526367,-2.876605459050332,0.7337052705842637,161.29404298563736,0.0018057096749544144,0.08904467523097992,-0.007013621274381876
1087,5486287,-0.04955688491463661,0.014426000416278839,2.815070629119873,-2.839400351424215,0.8265489391067462,161.2916660798062,0.01069926843047142,0.08609163761138916,-0.009856083430349827
1092,5486327,-0.047685641795396805,0.01772424392402172,2.814929962158203,-2.7321860182488784,1.0155243719068376,161.28360645658557,0.02936730347573757,0.08268436789512634,-0.013327274471521378
1105,5486367,-0.04509386047720909,0.021290579810738564,2.814883232116699,-2.5836878872958695,1.2198603665417587,161.28092902243094,0.04824452847242355,0.08384403586387634,-0.013223273679614067
1120,5486387,-0.04357949271798134,0.023223919793963432,2.8150243759155273,-2.4969210060614353,1.3306325879444372,161.28901596640821,0.05718429014086723,0.08627218008041382,-0.011716827750205994
1125,5486427,-0.040140338242053986,0.027552098035812378,2.815596103668213,-2.299871969497272,1.5786189341827346,161.3217735536676,0.07321876287460327,0.09457297623157501,-0.0051266346126794815
1139,5486467,-0.03656981885433197,0.032384973019361496,2.8166284561157227,-2.0952962779111655,1.855522273654456,161.3809229918799,0.08406871557235718,0.10639625787734985,0.005305914208292961
1151,5486487,-0.034778743982315063,0.035021670162677765,2.8174188137054443,-1.9926752469526625,2.006593891820679,161.4262071460771,0.08726368844509125,0.11336809396743774,0.011759699322283268
1156,5486527,-0.0313262864947319,0.040742289274930954,2.8194236755371094,-1.7948640039658077,2.3343612231546627,161.54107726753838,0.08898238837718964,0.12813200056552887,0.026217807084321976
1170,5486567,-0.028238050639629364,0.04688567668199539,2.821972608566284,-1.6179211233274573,2.6863513934932732,161.6871203723716,0.08468758314847946,0.1418285369873047,0.04176902398467064
1183,5486587,-0.026921557262539864,0.050050731748342514,2.8235061168670654,-1.542491609063304,2.867695690721462,161.77498392585463,0.0800543874502182,0.14747989177703857,0.04942362383008003
1188,5486627,-0.024872934445738792,0.056428372859954834,2.8268637657165527,-1.4251141678464003,3.2331076096659705,161.9673630340172,0.06591226905584335,0.15537138283252716,0.06354588270187378
1202,5486667,-0.023833148181438446,0.06251989305019379,2.830415964126587,-1.365538803306316,3.582126007385391,162.17088901090526,0.045511551201343536,0.15665996074676514,0.07436983287334442
1215,5486687,-0.023732775822281837,0.06549357622861862,2.8323795795440674,-1.3597878907468712,3.7525055031181824,162.2833958869137,0.032554831355810165,0.15406069159507751,0.0783677026629448
1220,5486727,-0.024453939869999886,0.07044517993927002,2.836050271987915,-1.4011075470176864,4.036211497559825,162.49371107183674,0.004816003143787384,0.14188620448112488,0.08239533007144928
1232,5486747,-0.02524581551551819,0.07247001677751541,2.8378021717071533,-1.4464786794050828,4.152226102593899,162.59408753187924,-0.009943608194589615,0.13216398656368256,0.08246690779924393
1246,5486787,-0.027594076469540596,0.07534927129745483,2.8411264419555664,-1.581024121265931,4.317195234730395,162.7845541870742,-0.039112597703933716,0.10478919744491577,0.0792456716299057
1251,5486827,-0.030690833926200867,0.07642203569412231,2.844090461730957,-1.7584552537082316,4.378660107071339,162.95438001059742,-0.06449683755636215,0.06752932071685791,0.07198180258274078
1263,5486847,-0.03239421918988228,0.07615537196397781,2.8454034328460693,-1.8560520402019554,4.363381400784844,163.02960771411594,-0.07448039948940277,0.04537424072623253,0.06713132560253143
1277,5486887,-0.035856615751981735,0.07397673279047012,2.8477864265441895,-2.05443275021086,4.238554571060983,163.1661431956245,-0.0874752402305603,-0.004736781120300293,0.05633033812046051
1282,5486927,-0.038981884717941284,0.06944012641906738,2.8498528003692627,-2.233497471803557,3.9786261726674477,163.2845376946975,-0.0895518809556961,-0.0603744201362133,0.045063428580760956
1294,5486947,-0.04026582092046738,0.06628435105085373,2.850749969482422,-2.3070615973723565,3.7978135629774616,163.335941698391,-0.08610588312149048,-0.08954382687807083,0.03951658681035042
1309,5486987,-0.04204009473323822,0.058057986199855804,2.8524882793426514,-2.4087199985447105,3.3264775762805145,163.43553951686812,-0.06982243806123734,-0.14989763498306274,0.029492119327187538
1314,5487027,-0.042337607592344284,0.04800589755177498,2.8540291786193848,-2.4257662297223583,2.7505353214541177,163.52382654207972,-0.04271110147237778,-0.20606663823127747,0.021351102739572525
1326,5487047,-0.04187095910310745,0.042377080768346786,2.8547356128692627,-2.399029240772932,2.428027876111279,163.56430224310122,-0.02541819028556347,-0.2317247986793518,0.018030807375907898
1340,5487087,-0.03959903120994568,0.030160702764987946,2.856093645095825,-2.268857361136713,1.7280809755823616,163.642111758126,0.014669381082057953,-0.27593252062797546,0.012750607915222645
1345,5487127,-0.035603489726781845,0.017295021563768387,2.857323169708252,-2.039929697281984,0.9909317421916778,163.71255832922552,0.058704301714897156,-0.3075219988822937,0.008669226430356503
1357,5487147,-0.032992664724588394,0.010806822218000889,2.857858896255493,-1.8903404436090656,0.6191853030396582,163.74325319935554,0.08092306554317474,-0.31753405928611755,0.0070997439324855804
1371,5487187,-0.02670239470899105,-0.0017428473802283406,2.858788013458252,-1.5299345197176473,-0.09985779922251616,163.79648769374663,0.12336688488721848,-0.32454073429107666,0.004175291396677494
1376,5487227,-0.019285637885332108,-0.013118205592036247,2.859530448913574,-1.1049856560471356,-0.7516178152085924,163.83902611189745,0.15997929871082306,-0.3127422332763672,0.0013845060020685196
1388,5487247,-0.015071588568389416,-0.018378732725977898,2.859779119491577,-0.863538415526332,-1.0530238179975,163.85327388650612,0.17597556114196777,-0.2990117073059082,-5.794968456029892e-05
1402,5487287,-0.006718020886182785,-0.02660547010600567,2.860177516937256,-0.38491424345901076,-1.5243811490356038,163.8761003787123,0.19886615872383118,-0.25876447558403015,-0.00269121490418911
1408,5487327,0.0016298001864925027,-0.03204914554953575,2.8604280948638916,0.09338067213565489,-1.836280776988884,163.89045743634765,0.2102441042661667,-0.20168516039848328,-0.005020648241043091
1420,5487347,0.005648109596222639,-0.03362058848142624,2.8605151176452637,0.32361284209089675,-1.926317824731873,163.89544347444178,0.21135102212429047,-0.16794852912425995,-0.005946962162852287
1436,5487387,0.013049869798123837,-0.03435244411230087,2.860743761062622,0.7477024626277354,-1.9682500635938738,163.90854377726984,0.20390354096889496,-0.09319069236516953,-0.006748830433934927
1440,5487407,0.016356009989976883,-0.03351004794239998,2.8608815670013428,0.9371303420994873,-1.9199843183805672,163.9164394759504,0.1956673413515091,-0.05341409519314766,-0.0068127745762467384
1453,5487447,0.021994149312376976,-0.029560603201389313,2.8612258434295654,1.2601719295797624,-1.6936978033005174,163.93616506227337,0.17156730592250824,0.02712271176278591,-0.006345537956804037
1467,5487487,0.026122020557522774,-0.022964881733059883,2.8617687225341797,1.4966815303000287,-1.315790800321411,163.96726974375363,0.13922418653964996,0.10327441990375519,-0.004667137749493122
1471,5487507,0.027565162628889084,-0.01884564757347107,2.8621246814727783,1.5793674802270856,-1.0797760681508533,163.98766468861527,0.12065661698579788,0.13788795471191406,-0.0035330522805452347
1485,5487547,0.02914794348180294,-0.009127868339419365,2.862931966781616,1.6700541429931663,-0.5229883317998169,164.0339187296746,0.0787937268614769,0.1984681487083435,-0.0006547477096319199
1499,5487587,0.028872806578874588,0.0013393881963565946,2.863898992538452,1.654289959667071,0.07674129078087245,164.08932522422174,0.034587759524583817,0.24079197645187378,0.0024116449058055878
1503,5487607,0.028092486783862114,0.006686768494546413,2.8644373416900635,1.6095809287423428,0.3831236133185567,164.12017035851352,0.012089604511857033,0.2549009621143341,0.003975508734583855
1517,5487647,0.025380417704582214,0.017194518819451332,2.865516424179077,1.4541908167516735,0.9851733591128281,164.18199723088048,-0.03171154484152794,0.2686619460582733,0.006940786726772785
1531,5487687,0.02126719243824482,0.026912270113825798,2.8666584491729736,1.2185203688039667,1.5419594946382778,164.24743044312922,-0.0717446506023407,0.26415425539016724,0.009703245013952255
1535,5487707,0.018735429272055626,0.031300973147153854,2.867260217666626,1.0734610246546477,1.7934136559842377,164.28190923805943,-0.09007557481527328,0.2555050253868103,0.011093276552855968
1548,5487747,0.012844862416386604,0.03878533095121384,2.8684654235839844,0.7359564048851647,2.2222357705226754,164.35096245056826,-0.1232900619506836,0.2268669605255127,0.014007856138050556
1562,5487787,0.005987758282572031,0.04425060749053955,2.8698017597198486,0.3430732783358796,2.535373050097903,164.4275288711641,-0.15179243683815002,0.18527647852897644,0.017583157867193222
1566,5487807,0.002282222965732217,0.04611748456954956,2.8705384731292725,0.13076174384428593,2.6423372275948878,164.46973944023478,-0.1641102284193039,0.16043642163276672,0.019724061712622643
1579,5487847,-0.00570662459358573,0.04809838533401489,2.8721845149993896,-0.326965504478021,2.7558344810329896,164.56405069229433,-0.18487507104873657,0.10351435840129852,0.024937685579061508
1593,5487887,-0.013631680980324745,0.04757345840334892,2.874075174331665,-0.7810377878413645,2.725758383353073,164.67237749253073,-0.1972479373216629,0.043295133858919144,0.030885960906744003
1597,5487907,-0.017512494698166847,0.046435028314590454,2.87514066696167,-1.0033920349501908,2.660531143996509,164.7334257233323,-0.20000776648521423,0.012658627703785896,0.033981651067733765
1610,5487947,-0.024865007027983665,0.04259474202990532,2.8775012493133545,-1.4246599602665946,2.4404989477620758,164.86867712927688,-0.19777140021324158,-0.046922773122787476,0.04064777493476868
1625,5487987,-0.03139340505003929,0.03701154515147209,2.880157947540283,-1.7987096139119363,2.120605330437236,165.0208947251198,-0.1856996715068817,-0.1005152016878128,0.04717716947197914
1629,5488007,-0.03423785790801048,0.03373679891228676,2.881556987762451,-1.9616847576976106,1.9329761919555777,165.10105382521905,-0.17596153914928436,-0.12363992631435394,0.0497371107339859
1642,5488047,-0.03890293836593628,0.026545705273747444,2.884378671646118,-2.228974179025716,1.5209568763839,165.26272440287326,-0.14997521042823792,-0.1606857180595398,0.0531105138361454
1646,5488067,-0.04064512252807617,0.02279914729297161,2.885744571685791,-2.3287939786508676,1.306294916384389,165.34098471038328,-0.13379432260990143,-0.1739690750837326,0.05372034013271332
1660,5488107,-0.04281576722860336,0.0152418939396739,2.888479232788086,-2.453162758813514,0.8732961945293415,165.49766924994336,-0.09456604719161987,-0.18880416452884674,0.0520971454679966
1673,5488147,-0.04304622858762741,0.008536702953279018,2.89078950881958,-2.466367222026441,0.4891170501797533,165.6300383160582,-0.05030740052461624,-0.18659630417823792,0.047198064625263214
1677,5488167,-0.04249278083443642,0.005586558487266302,2.8917572498321533,-2.434657001587599,0.32008622332334874,165.68548579174038,-0.026944361627101898,-0.17967937886714935,0.04359196498990059
1691,5488207,-0.04021661356091499,0.000768474186770618,2.893425226211548,-2.304242223349022,0.04403032756670457,165.7810537986072,0.01869017258286476,-0.15535935759544373,0.034590914845466614
1704,5488247,-0.03669187054038048,-0.0023944892454892397,2.894587278366089,-2.1022893244042007,-0.13719412785599833,165.84763448263647,0.05908443033695221,-0.12008795142173767,0.024468926712870598
1709,5488267,-0.03460250422358513,-0.0032804266083985567,2.8949875831604004,-1.9825774525950333,-0.18795459966365216,165.8705702578694,0.07593588531017303,-0.0993441641330719,0.019486762583255768
1723,5488307,-0.030097676441073418,-0.003638221649453044,2.8956828117370605,-1.7244698332238348,-0.2084547454467843,165.9104039211089,0.10124363750219345,-0.05376915633678436,0.010596787557005882
1736,5488347,-0.025638766586780548,-0.0022015611175447702,2.8961219787597656,-1.4689931173435604,-0.12614016037542028,165.93556633801123,0.11352882534265518,-0.0062989406287670135,0.004102439619600773
1740,5488367,-0.023592188954353333,-0.0008628563373349607,2.8962912559509277,-1.3517328565596047,-0.04943802645540969,165.94526520663263,0.11437630653381348,0.016955014318227768,0.001966238021850586
1756,5488407,-0.020179158076643944,0.0030536993872374296,2.8967225551605225,-1.1561805919190258,0.17496408679039036,165.96997683104973,0.10488713532686234,0.06167406961321831,-0.00030711758881807327
1769,5488447,-0.018294349312782288,0.00807272084057331,2.8971807956695557,-1.0481890045604831,0.462532833352153,165.99623207821926,0.0812736377120018,0.09907837957143784,8.524488657712936e-05
1773,5488467,-0.018003618344664574,0.010905647650361061,2.89743971824646,-1.0315313471135856,0.6248475832224517,166.01106724909653,0.06456607580184937,0.11482289433479309,0.001064256764948368
1787,5488507,-0.018875304609537125,0.016924135386943817,2.898167371749878,-1.0814752911503056,0.9696815295798872,166.0527587237903,0.023423615843057632,0.1389068067073822,0.0042109256610274315
1801,5488547,-0.021693840622901917,0.023036226630210876,2.8989880084991455,-1.2429655091217366,1.3198785618179578,166.09977774603666,-0.024307267740368843,0.15198923647403717,0.008323383517563343
1805,5488567,-0.023787319660186768,0.025973379611968994,2.899444341659546,-1.3629130224572694,1.4881650314569632,166.12592371017948,-0.04893461614847183,0.15414419770240784,0.010470966808497906
1819,5488607,-0.02917976677417755,0.0313391350209713,2.9005396366119385,-1.6718774833364425,1.7956001702922881,166.18867948827355,-0.09637913107872009,0.1493344008922577,0.014893731102347374
1833,5488647,-0.03586855158209801,0.035659316927194595,2.901695966720581,-2.0551166229015077,2.0431283602476658,166.25493232322268,-0.1379777491092682,0.13286523520946503,0.018757950514554977
1837,5488667,-0.03956475853919983,0.037357769906520844,2.9023144245147705,-2.2668936817503345,2.14044254766448,166.2903673446367,-0.15557105839252472,0.1207808405160904,0.020555224269628525
1851,5488707,-0.04748058319091797,0.039684195071458817,2.9036865234375,-2.7204370256593986,2.2737368909684523,166.36898282198354,-0.18259717524051666,0.08954551815986633,0.023262567818164825
1855,5488727,-0.051355991512537,0.04024076834321022,2.9043684005737305,-2.942481566378047,2.305626190429596,166.40805150403602,-0.19075648486614227,0.07198747992515564,0.024058274924755096
1868,5488767,-0.05871814116835594,0.04019688442349434,2.9056787490844727,-3.364301669800164,2.303111827041385,166.4831289433928,-0.19567546248435974,0.03403892368078232,0.02428496442735195
1882,5488807,-0.06505339592695236,0.03876393288373947,2.907069444656372,-3.72728502960791,2.2210097515666583,166.56280993025018,-0.1846572905778885,-0.004323944449424744,0.022959012538194656
1886,5488827,-0.06767279654741287,0.03757685050368309,2.907727003097534,-3.8773656300142467,2.152994941255083,166.60048525371195,-0.17332492768764496,-0.022575754672288895,0.021854912862181664
1899,5488867,-0.07156354933977127,0.03441661223769188,2.9089248180389404,-4.100289344145123,1.9719266263580448,166.66911499449225,-0.14025041460990906,-0.055647529661655426,0.018668480217456818
1913,5488907,-0.07347409427165985,0.030540281906723976,2.9101078510284424,-4.209755505312447,1.7498292583950343,166.73689779181547,-0.09628339111804962,-0.08202778548002243,0.014530135318636894
1917,5488927,-0.07367272675037384,0.028451932594180107,2.9106271266937256,-4.221136308016981,1.6301756566372239,166.76665009584002,-0.07175788283348083,-0.0919191986322403,0.012347012758255005
1932,5488967,-0.07250991463661194,0.024037258699536324,2.9115569591522217,-4.154512081531738,1.3772334745475532,166.81992557136613,-0.019167834892868996,-0.10528627038002014,0.008170098066329956
1945,5489007,-0.06962086260318756,0.020070962607860565,2.912461042404175,-3.988981593222833,1.1499814481952988,166.8717257260315,0.030176660045981407,-0.10840896517038345,0.0048521580174565315
1949,5489027,-0.06744213402271271,0.018125124275684357,2.912867546081543,-3.8641496408570952,1.038493124146827,166.89501667110125,0.05506455898284912,-0.10631357133388519,0.003655076026916504
1962,5489067,-0.06239842623472214,0.014976982958614826,2.913635015487671,-3.575166471507971,0.8581179133679865,166.93898942897778,0.09679242968559265,-0.09586910903453827,0.002552838996052742
1976,5489107,-0.05656116455793381,0.01273224875330925,2.914527654647827,-3.240716013514542,0.729504117275324,166.99013388548283,0.12827542424201965,-0.07817405462265015,0.00345466285943985
1980,5489127,-0.05354247987270355,0.011997805908322334,2.9149858951568604,-3.067758121370071,0.6874236419639929,167.01638913265236,0.13928872346878052,-0.06712038815021515,0.004597614519298077
1993,5489167,-0.04764186218380928,0.011272771283984184,2.9159717559814453,-2.729677631276191,0.6458822179885637,167.0728747970884,0.1507014036178589,-0.04262114316225052,0.008124349638819695
2007,5489207,-0.04239107668399811,0.011486299335956573,2.917121648788452,-2.4288297830085206,0.6581164741742317,167.13875880182232,0.14864815771579742,-0.01787184737622738,0.012366038747131824
2011,5489227,-0.03989144042134285,0.011946756392717361,2.9177439212799072,-2.2856111748405197,0.6844987201736407,167.17441238928978,0.14274518191814423,-0.004889005795121193,0.01461213082075119
2024,5489267,-0.03580936789512634,0.013375494629144669,2.91896915435791,-2.051725647422008,0.7663593911498897,167.2446130735792,0.12368134409189224,0.018002783879637718,0.01833060011267662
2039,5489307,-0.03292790800333023,0.015237047336995602,2.920307159423828,-1.8866301567858677,0.8730185046508981,167.32127511682341,0.09872578084468842,0.035596273839473724,0.021019987761974335
2043,5489327,-0.031899839639663696,0.016262630000710487,2.920966386795044,-1.8277261784968546,0.9317800628235459,167.35904606293357,0.08493740856647491,0.04211444780230522,0.0219523087143898
2056,5489367,-0.03057425655424595,0.018327757716178894,2.9222209453582764,-1.751775862308488,1.0501031650753792,167.4309269737588,0.05717658996582031,0.05011691525578499,0.0228655356913805
2071,5489387,-0.030254852026700974,0.019306745380163193,2.9228785037994385,-1.7334753309227908,1.106195026417051,167.46860229722057,0.04390493035316467,0.05159952491521835,0.022906478494405746
2076,5489427,-0.030120939016342163,0.02105863019824028,2.9241068363189697,-1.7258026806073392,1.2065706326859122,167.5389805664284,0.020191732794046402,0.05005521699786186,0.0221283920109272
2089,5489467,-0.030420377850532532,0.022413067519664764,2.9252333641052246,-1.742959262028765,1.2841741748185393,167.603525854085,0.002156490460038185,0.04343204200267792,0.020669568330049515
2102,5489487,-0.030626842752099037,0.02291928045451641,2.9258127212524414,-1.7547888295061098,1.3131780395204695,167.63672057345127,-0.004089873284101486,0.038683995604515076,0.019822586327791214
2107,5489527,-0.03092893585562706,0.02351894974708557,2.926905393600464,-1.7720974893582742,1.3475365590882782,167.6993260873836,-0.0102597177028656,0.027106991037726402,0.01803278550505638
2121,5489567,-0.030901089310646057,0.023656921461224556,2.9279229640960693,-1.7705019998568414,1.3554417560006276,167.75762858213884,-0.008288886398077011,0.014105502516031265,0.01632874459028244
2134,5489587,-0.0307021401822567,0.02355905808508396,2.928462028503418,-1.759103054462325,1.3498345975788701,167.78851469756563,-0.0047736503183841705,0.007948270067572594,0.01570601388812065
2149,5489627,-0.02985057793557644,0.023106340318918228,2.9294886589050293,-1.7103121317348677,1.323895780266983,167.84733628669778,0.00636976957321167,-0.0033572837710380554,0.014742853119969368
2153,5489667,-0.028345666825771332,0.02240542136132717,2.9304676055908203,-1.6240870766006863,1.2837360822163064,167.90342580016193,0.0212535560131073,-0.012325538322329521,0.014356217347085476
2166,5489687,-0.027352625504136086,0.022003551945090294,2.930989980697632,-1.5671899999888934,1.2607106607505472,167.93335568910493,0.02938832901418209,-0.01577155664563179,0.014227990992367268
2171,5489727,-0.024869846180081367,0.021219028159976006,2.9319872856140137,-1.4249372232582147,1.21576075893587,167.99049705170125,0.04636091738939285,-0.01993347331881523,0.013879256322979927
2184,5489767,-0.02185460366308689,0.020524166524410248,2.9329216480255127,-1.2521765528260278,1.1759481198723947,168.0440320744158,0.062414802610874176,-0.020401200279593468,0.01371247973293066
2197,5489787,-0.02021651715040207,0.020271701738238335,2.9334182739257812,-1.1583211091718844,1.1614829531490714,168.0724866424981,0.06942497193813324,-0.019292067736387253,0.013590059243142605
2202,5489827,-0.016791516914963722,0.019991224631667137,2.934391498565674,-0.9620830508499537,1.1454127986925007,168.12824830688206,0.07982990890741348,-0.014278852380812168,0.01345164142549038
2215,5489867,-0.0136143509298563,0.020090674981474876,2.935291051864624,-0.7800448490907739,1.1511108840075839,168.179788914359,0.08313150703907013,-0.00659770704805851,0.013321617618203163
2228,5489887,-0.012157956138253212,0.020280299708247185,2.935792922973633,-0.6965995742270819,1.1619755805429584,168.20854401076474,0.08206355571746826,-0.0020299814641475677,0.01337422989308834
2233,5489927,-0.009635238908231258,0.020936844870448112,2.936734676361084,-0.5520585240418903,1.1995928473968036,168.26250250520783,0.07501626759767532,0.007536608725786209,0.013426669873297215
2248,5489967,-0.007707657292485237,0.02181161940097809,2.9376471042633057,-0.44161623279263523,1.2497137360217092,168.31478077311513,0.06286026537418365,0.016241448000073433,0.013649956323206425
2260,5489987,-0.006960056722164154,0.022246861830353737,2.93812894821167,-0.3987818753516638,1.2746512902899547,168.3423883977403,0.055540792644023895,0.019283508881926537,0.013694369234144688
2265,5490027,-0.005907833110541105,0.02299601025879383,2.93898868560791,-0.33849390330165047,1.3175743334684304,168.39164772203443,0.040332209318876266,0.021693330258131027,0.01310622040182352
2277,5490047,-0.005599799565970898,0.023235974833369255,2.93934965133667,-0.32084488124932264,1.3313232908242547,168.41232953484123,0.03266013786196709,0.02073173224925995,0.012335028499364853
2291,5490087,-0.0053545390255749226,0.023267263546586037,2.9399123191833496,-0.30679248740353543,1.3331160020379713,168.4445680277237,0.01805286668241024,0.013613224029541016,0.00926272477954626
2296,5490127,-0.005518742371350527,0.022549830377101898,2.940187692642212,-0.31620064609840487,1.2920101093438363,168.46034576470643,0.005013728514313698,-0.00018837861716747284,0.0038627050817012787
2308,5490147,-0.005703742150217295,0.021870994940400124,2.940168857574463,-0.3268003526383242,1.2531157038369045,168.45926659481756,-0.00026238150894641876,-0.008973389863967896,0.00028146058320999146
2322,5490187,-0.006115263793617487,0.01986910216510296,2.9398884773254395,-0.3503788059834429,1.1384156967746457,168.4432019898897,-0.007537577301263809,-0.02919740602374077,-0.008024978451430798
2327,5490227,-0.006499097216874361,0.01709127053618431,2.9392077922821045,-0.3723708411721204,0.9792576682396565,168.40420160972891,-0.010541386902332306,-0.0504588708281517,-0.01749730110168457
2339,5490247,-0.0066331229172647,0.01548460777848959,2.9387283325195312,-0.38004994815077164,0.887202673122899,168.37673058888714,-0.010371189564466476,-0.06043919175863266,-0.022407684475183487
2353,5490287,-0.006834577769041061,0.011971617117524147,2.937559127807617,-0.3915924609199907,0.6859231347807057,168.30974009350766,-0.00810633972287178,-0.0772666335105896,-0.031644340604543686
2359,5490327,-0.007012463640421629,0.008425477892160416,2.936265230178833,-0.40178457058510425,0.48274432360157277,168.23560522025633,-0.005446348339319229,-0.08719834685325623,-0.03872384876012802
2371,5490347,-0.007157298270612955,0.0067741163074970245,2.9355874061584473,-0.4100829836224053,0.3881282743503249,168.19676876463564,-0.004927000030875206,-0.08870889246463776,-0.04109128192067146
2387,5490387,-0.007649584207683802,0.003965330775827169,2.934323787689209,-0.4382888901302076,0.22719671782823317,168.1243687594335,-0.006732599809765816,-0.0833602100610733,-0.042766693979501724
2392,5490427,-0.008540600538253784,0.0023020687513053417,2.9334278106689453,-0.489340365349101,0.1318988235987476,168.07303305763168,-0.012809878215193748,-0.06667439639568329,-0.039518631994724274
2404,5490447,-0.009157395921647549,0.0019947863183915615,2.9331307411193848,-0.5246801376407172,0.11429283707427614,168.05601222622002,-0.017376938834786415,-0.05432119965553284,-0.036132678389549255
2418,5490487,-0.01083506178110838,0.002626636065542698,2.932987689971924,-0.6208033108210107,0.15049516087244447,168.047815999216,-0.028927873820066452,-0.022036660462617874,-0.025856928899884224
2423,5490527,-0.013044117949903011,0.004962235223501921,2.933481216430664,-0.7473729060002824,0.2843151352578168,168.07609298237986,-0.04233826324343681,0.017678655683994293,-0.011855247430503368
2436,5490547,-0.014337834902107716,0.0067693195305764675,2.9339466094970703,-0.8214974272461399,0.3878534392775112,168.10275804089957,-0.04930385947227478,0.03894738852977753,-0.003981093876063824
2450,5490587,-0.01725882478058338,0.011562664993107319,2.9353115558624268,-0.9888578192832268,0.6624919040287125,168.18096370689622,-0.0625283345580101,0.0817154124379158,0.012304689735174179
2455,5490627,-0.020434675738215446,0.01770295761525631,2.937174081802368,-1.170820675518125,1.014304756253167,168.2876785824885,-0.07343222200870514,0.12150648981332779,0.02757936529815197
2468,5490647,-0.022049596533179283,0.02116144821047783,2.938223361968994,-1.2633488213174646,1.2124616708450482,168.34779790756295,-0.07742645591497421,0.13909107446670532,0.03435486555099487
2482,5490687,-0.025163015350699425,0.02869834192097187,2.9405298233032227,-1.4417345794179801,1.6442938710950517,168.47994840762436,-0.08087030798196793,0.1678006500005722,0.0455869697034359
2486,5490707,-0.026494601741433144,0.032463476061820984,2.94170880317688,-1.5180288596640803,1.8600201666663212,168.5474989785158,-0.07958729565143585,0.1774059683084488,0.04941435530781746
2499,5490747,-0.028594642877578735,0.039752498269081116,2.943967342376709,-1.6383523535690812,2.277650375919458,168.67690374253087,-0.07060718536376953,0.18618562817573547,0.053411662578582764
2513,5490787,-0.02970239333808422,0.046329595148563385,2.946105480194092,-1.7018217797097188,2.6544902685624563,168.7994100154842,-0.053160443902015686,0.18113331496715546,0.05295981466770172
2517,5490807,-0.029827885329723358,0.04917308688163757,2.947089672088623,-1.7090119411933324,2.817410343947947,168.85580005727184,-0.04161693900823593,0.17328709363937378,0.05134221538901329
2530,5490847,-0.0290767103433609,0.05376717820763588,2.9487788677215576,-1.6659727847989665,3.08063238762531,168.95258383781092,-0.013856606557965279,0.14810791611671448,0.04522325098514557
2544,5490887,-0.026980578899383545,0.05660677328705788,2.9501163959503174,-1.545873299754401,3.2433292012023065,169.02921856029846,0.018605507910251617,0.11211328953504562,0.03628097102046013
2548,5490907,-0.02543901465833187,0.057291608303785324,2.9506771564483643,-1.4575481748938521,3.2825673573235603,169.06134777015419,0.035650596022605896,0.09081871807575226,0.03131724148988724
2561,5490947,-0.02148439548909664,0.057158391922712326,2.951516628265381,-1.2309651869151417,3.274934620926071,169.1094459622894,0.06936522573232651,0.04380764812231064,0.021170828491449356
2576,5490987,-0.016516149044036865,0.05498121306300163,2.9520373344421387,-0.9463056340323416,3.150191461019543,169.13928022858403,0.1000584065914154,-0.0072770509868860245,0.011130300350487232
2578,5491007,-0.013926737941801548,0.053212251514196396,2.9522130489349365,-0.7979433064499394,3.0488374301520778,169.14934792742065,0.11200758814811707,-0.03219449147582054,0.006586684845387936
2589,5491047,-0.00881640613079071,0.04840472713112831,2.9523251056671143,-0.5051428617675717,2.7733865730960416,169.15576830524046,0.12695811688899994,-0.07998070120811462,-0.0014542089775204659
2601,5491087,-0.004268927033990622,0.04222133383154869,2.95219349861145,-0.24459150209696315,2.419104233960657,169.14822777639677,0.12781445682048798,-0.12230648100376129,-0.008164526894688606
2603,5491107,-0.002387516899034381,0.03872015327215195,2.9520606994628906,-0.13679464183083193,2.218501364593971,169.14061894566137,0.1225295215845108,-0.1406543105840683,-0.011167874559760094
2614,5491147,0.00027168949600309134,0.03118043951690197,2.9516425132751465,0.015566661459013581,1.7865075876814143,169.11665864205295,0.10076650977134705,-0.17040207982063293,-0.01613660529255867
2626,5491187,0.0011357525363564491,0.023227162659168243,2.9511163234710693,0.06507382690450313,1.3308183904342026,169.08651018705652,0.06564100831747055,-0.19029749929904938,-0.019675184041261673
2628,5491207,0.0008208787767216563,0.019214916974306107,2.9508299827575684,0.047032889398012756,1.1009336463220256,169.07010407267015,0.04405709728598595,-0.1964048594236374,-0.02103607729077339
2639,5491247,-0.0014162743464112282,0.011137743480503559,2.9502015113830566,-0.0811465426820125,0.6381456947322021,169.03409531536585,-0.00556233711540699,-0.2013910412788391,-0.022943876683712006
2651,5491287,-0.005605274345725775,0.003704303642734885,2.9495720863342285,-0.32115856302304074,0.21224096476364565,168.99803191654817,-0.05709468573331833,-0.1973828673362732,-0.023953497409820557
2656,5491307,-0.008384603075683117,0.00022288989566732198,2.9492621421813965,-0.48040236912905177,0.012770650317848803,168.98027342470616,-0.08249753713607788,-0.19252881407737732,-0.024473009631037712
2667,5491347,-0.014962416142225266,-0.006136222742497921,2.9485955238342285,-0.8572832962679227,-0.3515796652973222,168.94207900686743,-0.1291295886039734,-0.1779680848121643,-0.025536520406603813
2672,5491367,-0.018636144697666168,-0.008971400558948517,2.9482181072235107,-1.067772437571379,-0.5140233883490577,168.92045462795517,-0.14908695220947266,-0.16861078143119812,-0.02617919072508812
2683,5491407,-0.026328787207603455,-0.013878765515983105,2.9474523067474365,-1.50852838669371,-0.7951946889175382,168.876577492727,-0.17899087071418762,-0.14644190669059753,-0.028124060481786728
2694,5491447,-0.03389858454465866,-0.017672937363386154,2.9464783668518066,-1.9422458258763429,-1.0125847225210876,168.820774847208,-0.1930062472820282,-0.12065835297107697,-0.031293533742427826
2697,5491467,-0.03743620216846466,-0.019127756357192993,2.9459164142608643,-2.1449363852515257,-1.0959397108216884,168.78857733546056,-0.19356486201286316,-0.10672947019338608,-0.033173784613609314
2708,5491507,-0.043670929968357086,-0.021059030666947365,2.9446816444396973,-2.502159974598247,-1.206593577852655,168.71783023603757,-0.18222342431545258,-0.07676584273576736,-0.03743068501353264
2745,5491647,-0.05159024894237518,-0.01784650795161724,2.9387595653533936,-2.955903528427357,-1.0225295846743319,168.37852009844968,-0.04310298711061478,0.03648402541875839,-0.05037723481655121
2768,5491747,-0.04364179074764252,-0.008003219962120056,2.934708595275879,-2.500490420233002,-0.4585507263443298,168.1464166100743,0.07386136054992676,0.09926071763038635,-0.04616092890501022
2791,5491847,-0.031253084540367126,0.005032435059547424,2.9328062534332275,-1.7906698409285966,0.2883372895857345,168.03742045129925,0.126014843583107,0.13107717037200928,-0.025314558297395706
2819,5491947,-0.023564381524920464,0.018285945057868958,2.9336307048797607,-1.3501396082139936,1.047707476223997,168.08465803959905,0.08601192384958267,0.13475826382637024,0.0012652846053242683
2840,5492047,-0.026814749464392662,0.029217209666967392,2.93519926071167,-1.5363719730103842,1.674022803066061,168.17452966869809,-0.02290269173681736,0.11295030266046524,0.010741406120359898
2863,5492147,-0.040472712367773056,0.03504408150911331,2.9348719120025635,-2.318915604120325,2.0078779673846414,168.15577396923723,-0.13249444961547852,0.06277261674404144,-0.007478589192032814
2888,5492248,-0.056153107434511185,0.034100938588380814,2.9318859577178955,-3.2173360625421767,1.9538398585490278,167.98469139090673,-0.16157731413841248,-0.00350208580493927,-0.03717669099569321
2913,5492347,-0.06482891738414764,0.027665622532367706,2.927522659301758,-3.714423356513953,1.5851234087067023,167.73469280690594,-0.09605690836906433,-0.06001253426074982,-0.056411392986774445
2940,5492447,-0.06074453145265579,0.01995934173464775,2.923668384552002,-3.4804052807368606,1.1435860432546396,167.51385913066107,0.03222955763339996,-0.07669810950756073,-0.05359998345375061
2963,5492547,-0.04643553867936134,0.01652846671640873,2.921966552734375,-2.6605603857438935,0.9470113846726743,167.41635135007,0.14120332896709442,-0.03925975412130356,-0.030542664229869843
2990,5492647,-0.029345165938138962,0.020477421581745148,2.923095464706421,-1.6813541573664235,1.1732698319441035,167.48103324151,0.17555584013462067,0.03340865671634674,0.0013735806569457054
3014,5492747,-0.017376281321048737,0.031822603195905685,2.9261057376861572,-0.9955875833280993,1.823300856244921,167.65350917843116,0.12653571367263794,0.10890527814626694,0.023547671735286713
3038,5492847,-0.01566934399306774,0.04667774587869644,2.9288229942321777,-0.8977872785414502,2.6744378360334786,167.80919651037243,0.02472788095474243,0.14987321197986603,0.022689878940582275
3066,5492947,-0.024044480174779892,0.05814426764845848,2.929830551147461,-1.377647234600868,3.3314211391357227,167.86692526923738,-0.079496368765831,0.1224077045917511,0.005915660411119461
3088,5493047,-0.0378463938832283,0.0586661659181118,2.9296252727508545,-2.1684386392987163,3.3613237073220383,167.8551636834866,-0.13802318274974823,0.01621222496032715,-0.009242583997547626
3112,5493147,-0.04953325167298317,0.04469025507569313,2.929652214050293,-2.8380462664212596,2.5605630012003218,167.85670730623903,-0.1233806163072586,-0.12995874881744385,-0.013531976379454136
3136,5493247,-0.05292356386780739,0.019116224721074104,2.930001974105835,-3.0322968464164224,1.0952789967411956,167.87674708126386,-0.042460739612579346,-0.25105375051498413,-0.016434703022241592
3162,5493347,-0.044765133410692215,-0.008269080892205238,2.929103374481201,-2.5648532137727362,-0.4737834355756334,167.8252611153003,0.07344125211238861,-0.27978894114494324,-0.028730813413858414
3189,5493447,-0.026616783812642097,-0.027087228372693062,2.9258053302764893,-1.5250293766765204,-1.5519838644623294,167.63629710172273,0.17717859148979187,-0.19949749112129211,-0.04700188711285591
3212,5493547,-0.0035337829031050205,-0.030710751190781593,2.920623779296875,-0.2024708460634052,-1.7595964289081525,167.33941609925895,0.22910867631435394,-0.04659479111433029,-0.06025639921426773
3239,5493647,0.016810785979032516,-0.019076477736234665,2.91536808013916,0.9631870868962629,-1.093001662261525,167.03828671913143,0.20907801389694214,0.10851718485355377,-0.06247274577617645
3263,5493747,0.028070779517292976,0.002192081417888403,2.9112002849578857,1.6083371939831659,0.1255970135940588,166.79948964536945,0.12206097692251205,0.21097451448440552,-0.055439598858356476
3287,5493847,0.026325438171625137,0.02510576695203781,2.908686399459839,1.508336501066715,1.4384544877907872,166.6554546161522,-0.008214311674237251,0.2313052862882614,-0.03989484906196594
3315,5493947,0.012269524857401848,0.041114289313554764,2.9082815647125244,0.7029919909599791,2.3556752553465103,166.63225929373087,-0.13504356145858765,0.16914144158363342,-0.015567820519208908
3337,5494047,-0.009134173393249512,0.04536043480038643,2.909707546234131,-0.523349584773887,2.598961470940487,166.71396201658254,-0.21505194902420044,0.05182269960641861,0.007458198815584183
3361,5494147,-0.030611122027039528,0.038133613765239716,2.91184663772583,-1.7538880983093144,2.1848951263302157,166.83652293104927,-0.21980753540992737,-0.06778446584939957,0.01508013904094696
3385,5494247,-0.043989576399326324,0.025353634729981422,2.913088321685791,-2.520417070249691,1.452656265344242,166.9076661814441,-0.1445240080356598,-0.13037186861038208,0.003978682681918144
3411,5494347,-0.04468723386526108,0.014968004077672958,2.912093162536621,-2.5603898985935443,0.857603461385267,166.85064776225283,-0.016832750290632248,-0.11051824688911438,-0.018908752128481865
3438,5494447,-0.03290874511003494,0.012335386127233505,2.9089457988739014,-1.885532203876788,0.7067655637547053,166.67031710778616,0.11231589317321777,-0.03133425861597061,-0.03870490938425064
3461,5494547,-0.014674833044409752,0.017970239743590355,2.9058682918548584,-0.8408059985037958,1.029618894145982,166.4939889441731,0.18465092778205872,0.05381770431995392,-0.038358889520168304
3488,5494647,0.0011690206592902541,0.02806379273533821,2.904663324356079,0.06697994994093254,1.6079368808647796,166.42494939204263,0.16786347329616547,0.10278574377298355,-0.020433831959962845
3512,5494747,0.006414116360247135,0.0370507687330246,2.9052648544311523,0.36750179674797395,2.122852676117582,166.45941452659451,0.06317448616027832,0.09460090845823288,-0.0017381277866661549
3536,5494847,-0.0024702385999262333,0.03973780944943428,2.9060916900634766,-0.14153424616607863,2.276808768547666,166.5067887186777,-0.07928154617547989,0.03404571861028671,0.0025702472776174545
3564,5494947,-0.02302268147468567,0.034354317933321,2.9061696529388428,-1.319102481573515,1.96835742562989,166.51125566239492,-0.20215483009815216,-0.04854526370763779,-0.004952318966388702
3587,5495047,-0.047536663711071014,0.022761521860957146,2.9056761264801025,-2.7236502027770664,1.304139137927604,166.48297867923105,-0.2473558932542801,-0.1137961745262146,-0.014257919043302536
3610,5495147,-0.06650963425636292,0.01024788897484541,2.9049160480499268,-3.8107213398483166,0.5871607871772898,166.43942939308306,-0.1994916945695877,-0.12821051478385925,-0.020371699705719948
3634,5495247,-0.07362425327301025,0.0016747340559959412,2.903534412384033,-4.218358982345725,0.0959551932153935,166.36026750060262,-0.08092019706964493,-0.08890621364116669,-0.025726892054080963
3660,5495347,-0.06773055344820023,-0.0007193049532361329,2.901353597640991,-3.8806748566671176,-0.04121313800328546,166.2353160199264,0.052184268832206726,-0.026023326441645622,-0.030304238200187683
3687,5495447,-0.05358508601784706,0.0016443767817690969,2.8986217975616455,-3.070199273668116,0.09421584952467406,166.07879540490637,0.1407497227191925,0.024766260758042336,-0.03340364992618561
3710,5495547,-0.03777710720896721,0.005736272316426039,2.8954782485961914,-2.1644688052870578,0.3286641938689443,165.89868331649316,0.16121695935726166,0.0441095232963562,-0.036621835082769394
3737,5495647,-0.026920577511191368,0.008950925432145596,2.89188551902771,-1.542435473446063,0.5128502499982551,165.6928350752873,0.115583635866642,0.03578612580895424,-0.041931115090847015
3761,5495747,-0.02298569865524769,0.010391219519078732,2.8879706859588623,-1.3169835221052244,0.5953730224371724,165.4685316629441,0.044804781675338745,0.016800271347165108,-0.045836180448532104
3785,5495847,-0.025742212310433388,0.011145580559968948,2.88443922996521,-1.4749201207175449,0.6385947263092775,165.26619413897163,-0.024173470214009285,0.007504329085350037,-0.04212258756160736
3813,5495947,-0.03251875564455986,0.013605630025267601,2.882153034210205,-1.863187453450503,0.7795451780643051,165.1352047710691,-0.0677606463432312,0.022082598879933357,-0.02927534282207489
3835,5496047,-0.03971869498491287,0.02018902823328972,2.8807268142700195,-2.2757135904029364,1.1567461102379617,165.05348838783908,-0.07417624443769455,0.062124382704496384,-0.017976896837353706
3859,5496147,-0.04460413381457329,0.030910013243556023,2.879092216491699,-2.5556286164118105,1.7710133035492404,164.95983283393988,-0.0515507310628891,0.10558449476957321,-0.016462303698062897
