packet_index,time_boot_ms,x_m,y_m,z_m,vx_mps,vy_mps,vz_mps
12,5482887,37.550533294677734,19.44818687438965,16.727462768554688,0.00944551918655634,0.03232239559292793,0.04883108660578728
17,5482927,37.55229187011719,19.448888778686523,16.713708877563477,0.011319594457745552,0.0398520864546299,0.03793293982744217
31,5482967,37.55457305908203,19.449796676635742,16.6988582611084,0.014191539026796818,0.04595046117901802,0.027766209095716476
44,5482987,37.55569076538086,19.450428009033203,16.69211196899414,0.0157659649848938,0.04878450557589531,0.02313755452632904
49,5483027,37.557838439941406,19.451812744140625,16.679771423339844,0.018964175134897232,0.05311419814825058,0.015952691435813904
63,5483067,37.559940338134766,19.453447341918945,16.67095184326172,0.022328175604343414,0.05661243572831154,0.011351149529218674
75,5483087,37.56098175048828,19.454345703125,16.66695213317871,0.02391056902706623,0.058400958776474,0.009808527305722237
80,5483127,37.56363296508789,19.455759048461914,16.659704208374023,0.027767028659582138,0.06133275106549263,0.008465695194900036
94,5483167,37.566768646240234,19.456899642944336,16.658483505249023,0.03146127983927727,0.0638701468706131,0.009758150205016136
106,5483187,37.56829833984375,19.457578659057617,16.657981872558594,0.03328297659754753,0.06545596569776535,0.010934676975011826
111,5483227,37.5713005065918,19.459157943725586,16.657224655151367,0.03677239269018173,0.0691085159778595,0.01438882201910019
125,5483267,37.57423400878906,19.461036682128906,16.661659240722656,0.03986087068915367,0.07353055477142334,0.019538655877113342
137,5483287,37.575721740722656,19.46216583251953,16.663795471191406,0.041441723704338074,0.07611977308988571,0.02233363687992096
143,5483327,37.578880310058594,19.464101791381836,16.667829513549805,0.044688060879707336,0.08121206611394882,0.027216175571084023
157,5483367,37.58224868774414,19.466007232666016,16.673572540283203,0.04779708385467529,0.08610432595014572,0.031044976785779
171,5483387,37.58390426635742,19.467100143432617,16.676271438598633,0.04950938746333122,0.08863749355077744,0.03229638561606407
176,5483427,37.587188720703125,19.469552993774414,16.68133544921875,0.05345963314175606,0.09288480132818222,0.03314455226063728
189,5483447,37.588829040527344,19.470895767211914,16.682300567626953,0.055566564202308655,0.09480837732553482,0.0324457623064518
202,5483487,37.592140197753906,19.473787307739258,16.684120178222656,0.06058591231703758,0.09817066043615341,0.02906961739063263
207,5483527,37.595802307128906,19.476573944091797,16.685609817504883,0.0661938264966011,0.1000826433300972,0.02348116785287857
220,5483547,37.59779739379883,19.477876663208008,16.68329429626465,0.06931456923484802,0.10010060667991638,0.01898244395852089
234,5483587,37.60192108154297,19.480682373046875,16.678955078125,0.0761924684047699,0.0984259620308876,0.00875500775873661
239,5483627,37.60608673095703,19.483448028564453,16.674829483032227,0.0831470787525177,0.0947415754199028,-0.003230910049751401
252,5483647,37.60822296142578,19.484817504882812,16.669641494750977,0.08658722788095474,0.09191405028104782,-0.010364512912929058
266,5483687,37.61260223388672,19.487464904785156,16.65986442565918,0.09340237081050873,0.08498457819223404,-0.024691583588719368
271,5483727,37.61751937866211,19.489561080932617,16.650737762451172,0.09956108033657074,0.07644299417734146,-0.039076581597328186
283,5483747,37.620201110839844,19.490354537963867,16.64478874206543,0.10250913351774216,0.07136137038469315,-0.04648420959711075
297,5483787,37.625579833984375,19.49176597595215,16.633481979370117,0.1073584035038948,0.06082135811448097,-0.060872260481119156
302,5483827,37.630958557128906,19.492902755737305,16.622827529907227,0.11085537075996399,0.04959139972925186,-0.07509743422269821
314,5483847,37.63364028930664,19.493362426757812,16.61849594116211,0.11192122101783752,0.04422517865896225,-0.08170679211616516
328,5483887,37.63905715942383,19.49408721923828,16.60989761352539,0.1127820536494255,0.03323056548833847,-0.09557342529296875
333,5483927,37.64445877075195,19.494388580322266,16.601743698120117,0.11247636377811432,0.024134214967489243,-0.10927047580480576
345,5483947,37.64720153808594,19.49440574645996,16.601015090942383,0.11204762756824493,0.019987192004919052,-0.11553493142127991
360,5483987,37.652523040771484,19.494314193725586,16.5988826751709,0.10997883975505829,0.013339824043214321,-0.1287548840045929
368,5484027,37.65760803222656,19.494112014770508,16.59589385986328,0.10704004019498825,0.008567353710532188,-0.1421048492193222
377,5484047,37.66006088256836,19.493989944458008,16.598669052124023,0.10545683652162552,0.007062598131597042,-0.14805418252944946
391,5484087,37.6647834777832,19.49374008178711,16.60276222229004,0.10224892944097519,0.004991562105715275,-0.1594734489917755
395,5484107,37.66706466674805,19.493623733520508,16.604143142700195,0.10080382972955704,0.004446656443178654,-0.16462518274784088
408,5484147,37.67212677001953,19.493087768554688,16.610553741455078,0.09867563843727112,0.0040709953755140305,-0.17236222326755524
422,5484187,37.676856994628906,19.492660522460938,16.61910629272461,0.09702972322702408,0.004254093859344721,-0.17628106474876404
426,5484207,37.67914962768555,19.492488861083984,16.622575759887695,0.09650147706270218,0.004338805563747883,-0.1770065724849701
439,5484247,37.68362045288086,19.49220848083496,16.630754470825195,0.09512793272733688,0.0037968663964420557,-0.1750662475824356
453,5484287,37.687931060791016,19.491962432861328,16.639558792114258,0.0940609872341156,0.0017564756562933326,-0.16849073767662048
458,5484307,37.69003677368164,19.4918270111084,16.643310546875,0.09343178570270538,0.000273972429567948,-0.16360685229301453
471,5484347,37.694332122802734,19.491151809692383,16.650991439819336,0.09138672798871994,-0.0036476105451583862,-0.1499563604593277
487,5484387,37.69841766357422,19.490388870239258,16.657609939575195,0.08852963894605637,-0.009506680071353912,-0.13270196318626404
491,5484407,37.70037841796875,19.489948272705078,16.66059112548828,0.08654636144638062,-0.012862969189882278,-0.12300088256597519
504,5484447,37.704185485839844,19.4888916015625,16.664443969726562,0.08166743069887161,-0.020520001649856567,-0.10222361236810684
518,5484487,37.707611083984375,19.48761558532715,16.66670799255371,0.07540841400623322,-0.028448006138205528,-0.08244767040014267
522,5484507,37.70920181274414,19.486881256103516,16.66783905029297,0.07182502001523972,-0.03258906677365303,-0.07301674038171768
536,5484547,37.712337493896484,19.4847412109375,16.668352127075195,0.06387598067522049,-0.040851663798093796,-0.0566444955766201
550,5484587,37.71506118774414,19.482393264770508,16.666589736938477,0.05561500042676926,-0.04848804324865341,-0.04424121603369713
554,5484607,37.716270446777344,19.48114776611328,16.665863037109375,0.05130627751350403,-0.05179367959499359,-0.03987075015902519
568,5484647,37.7183837890625,19.478519439697266,16.662094116210938,0.04306115582585335,-0.05840033292770386,-0.035408370196819305
582,5484687,37.720123291015625,19.47571563720703,16.656349182128906,0.03566402196884155,-0.06449098885059357,-0.03724042326211929
586,5484707,37.72087097167969,19.47425079345703,16.653640747070312,0.03237146511673927,-0.06731818616390228,-0.040233734995126724
599,5484747,37.723106384277344,19.47113037109375,16.647430419921875,0.027189461514353752,-0.07284965366125107,-0.05086475983262062
604,5484767,37.724082946777344,19.46954917907715,16.643815994262695,0.02573143132030964,-0.07548389583826065,-0.05799964815378189
617,5484807,37.72587203979492,19.466279983520508,16.636611938476562,0.02442876435816288,-0.08028341829776764,-0.07503490895032883
630,5484847,37.7275505065918,19.462865829467773,16.630001068115234,0.026216013357043266,-0.08512300997972488,-0.09398462623357773
635,5484867,37.7283935546875,19.461105346679688,16.62691879272461,0.02810938097536564,-0.08754435181617737,-0.10353709012269974
648,5484907,37.73014831542969,19.457469940185547,16.620407104492188,0.034025948494672775,-0.0922364667057991,-0.12171459197998047
661,5484947,37.73326110839844,19.453277587890625,16.616262435913086,0.043033212423324585,-0.09702122956514359,-0.13652046024799347
667,5484967,37.73487854003906,19.451141357421875,16.615110397338867,0.04799804091453552,-0.09947750717401505,-0.14164119958877563
680,5485007,37.73833465576172,19.446666717529297,16.612104415893555,0.05888703837990761,-0.10496627539396286,-0.14707857370376587
693,5485047,37.742008209228516,19.442138671875,16.611326217651367,0.06954757124185562,-0.11026139557361603,-0.1440904587507248
698,5485067,37.74394226074219,19.4398193359375,16.61198616027832,0.07451418042182922,-0.11272676289081573,-0.13914746046066284
711,5485107,37.747989654541016,19.435070037841797,16.613008499145508,0.08352141827344894,-0.11763858795166016,-0.12329079955816269
724,5485147,37.7527961730957,19.429170608520508,16.615528106689453,0.09044095128774643,-0.12248718738555908,-0.10005869716405869
729,5485167,37.755218505859375,19.42621421813965,16.61713409423828,0.09307444095611572,-0.12463904917240143,-0.08644548058509827
742,5485207,37.76007080078125,19.420299530029297,16.620513916015625,0.09652982652187347,-0.1279458850622177,-0.05723061412572861
755,5485247,37.764862060546875,19.4144229888916,16.62177276611328,0.09724289178848267,-0.1293252557516098,-0.027980947867035866
760,5485267,37.7672119140625,19.41151237487793,16.62148666381836,0.09682043641805649,-0.1294889897108078,-0.013986478559672832
774,5485307,37.77186965942383,19.405654907226562,16.62171173095703,0.09463567286729813,-0.12812580168247223,0.012319051660597324
787,5485347,37.77676773071289,19.400331497192383,16.618562698364258,0.09122536331415176,-0.12461681663990021,0.03319251537322998
792,5485367,37.77909469604492,19.39775276184082,16.61516761779785,0.08921626210212708,-0.1223970353603363,0.04133686423301697
807,5485407,37.78351974487305,19.392797470092773,16.6096248626709,0.08504011482000351,-0.11662708967924118,0.05343295633792877
811,5485427,37.785614013671875,19.390430450439453,16.607379913330078,0.08290591090917587,-0.11366982758045197,0.05735005438327789
825,5485467,37.78959274291992,19.38592529296875,16.59283447265625,0.07871286571025848,-0.10697778314352036,0.05954916030168533
838,5485507,37.79330062866211,19.38173484802246,16.58050537109375,0.07469934970140457,-0.10031331330537796,0.05743315443396568
842,5485527,37.79545211791992,19.3796443939209,16.57488441467285,0.07284381985664368,-0.09703171998262405,0.055241070687770844
856,5485567,37.79949188232422,19.37570571899414,16.558609008789062,0.06904566287994385,-0.0908810943365097,0.047846898436546326
870,5485607,37.80308532714844,19.37222671508789,16.544349670410156,0.06561857461929321,-0.08588326722383499,0.039990317076444626
884,5485627,37.805030822753906,19.370241165161133,16.538042068481445,0.06361136585474014,-0.08315584808588028,0.03553996980190277
889,5485667,37.80833435058594,19.366952896118164,16.527379989624023,0.06036417931318283,-0.07873687148094177,0.02823716774582863
902,5485707,37.81138610839844,19.363872528076172,16.518009185791016,0.05678635835647583,-0.07478764653205872,0.022417891770601273
906,5485727,37.813297271728516,19.362390518188477,16.513591766357422,0.05523279681801796,-0.07240220159292221,0.020053327083587646
919,5485767,37.81685256958008,19.35960578918457,16.51395034790039,0.051603056490421295,-0.06723878532648087,0.018043534830212593
933,5485807,37.8200569152832,19.357088088989258,16.514307022094727,0.04733705148100853,-0.06065338850021362,0.017922163009643555
937,5485827,37.821529388427734,19.3559513092041,16.51451301574707,0.044923651963472366,-0.05645998939871788,0.018590856343507767
950,5485867,37.824249267578125,19.353927612304688,16.526464462280273,0.03939144313335419,-0.04633425176143646,0.02279163897037506
964,5485907,37.82655334472656,19.352418899536133,16.537120819091797,0.032939039170742035,-0.034203942865133286,0.027462974190711975
968,5485927,37.828216552734375,19.351499557495117,16.541868209838867,0.029320120811462402,-0.027401555329561234,0.029852740466594696
983,5485967,37.831111907958984,19.35017204284668,16.559934616088867,0.021360840648412704,-0.012309273704886436,0.036415521055459976
996,5486007,37.83343505859375,19.34955596923828,16.576080322265625,0.012814254499971867,0.0035498349461704493,0.04303578659892082
1000,5486027,37.83438491821289,19.34952163696289,16.583528518676758,0.008113705553114414,0.011960122734308243,0.04643550142645836
1013,5486067,37.835853576660156,19.350006103515625,16.601299285888672,-0.0013306549517437816,0.02880793996155262,0.053479332476854324
1026,5486087,37.83638381958008,19.35051727294922,16.609498977661133,-0.006052239798009396,0.036766283214092255,0.05684966966509819
1031,5486127,37.83757781982422,19.35163116455078,16.624422073364258,-0.014919624663889408,0.05189912021160126,0.06225570663809776
1044,5486167,37.83870315551758,19.353073120117188,16.63566780090332,-0.023059314116835594,0.06514602154493332,0.06565913558006287
1057,5486187,37.83906555175781,19.354000091552734,16.640867233276367,-0.026567472144961357,0.07076878100633621,0.0664457157254219
1062,5486227,37.83943557739258,19.35623550415039,16.6505069732666,-0.03229730948805809,0.07933391630649567,0.06604588031768799
1075,5486267,37.83941650390625,19.358863830566406,16.65289306640625,-0.03575833886861801,0.0852574035525322,0.062264274805784225
1089,5486287,37.83930206298828,19.36028480529785,16.654027938842773,-0.036631979048252106,0.0870332196354866,0.0594954714179039
1094,5486327,37.83955764770508,19.362499237060547,16.65583610534668,-0.035793010145425797,0.08774429559707642,0.052471790462732315
1108,5486367,37.84029006958008,19.364133834838867,16.649511337280273,-0.03125488758087158,0.08528964966535568,0.042251214385032654
1122,5486387,37.840641021728516,19.364988327026367,16.6466007232666,-0.027568673714995384,0.08322546631097794,0.036790717393159866
1127,5486427,37.841392517089844,19.366785049438477,16.641183853149414,-0.017952021211385727,0.07788471132516861,0.02502194419503212
1141,5486467,37.8423957824707,19.368452072143555,16.63026237487793,-0.005162035580724478,0.07189290970563889,0.012284357100725174
1153,5486487,37.84303283691406,19.3692569732666,16.62518882751465,0.0022554737515747547,0.06904444098472595,0.005788806360214949
1158,5486527,37.845088958740234,19.37059211730957,16.61556625366211,0.019005661830306053,0.06396832317113876,-0.007179472595453262
1173,5486567,37.84804153442383,19.3717041015625,16.60382080078125,0.03727227449417114,0.06034667044878006,-0.020615385845303535
1185,5486587,37.849708557128906,19.372276306152344,16.59830093383789,0.04702319577336311,0.059159986674785614,-0.02727414481341839
1190,5486627,37.85345458984375,19.373512268066406,16.587848663330078,0.06619801372289658,0.05906013399362564,-0.04068954661488533
1204,5486667,37.857765197753906,19.374942779541016,16.578832626342773,0.08490678668022156,0.061706673353910446,-0.05368378758430481
1217,5486687,37.86022186279297,19.375818252563477,16.57442855834961,0.09422986209392548,0.06397059559822083,-0.05997266247868538
1222,5486727,37.86534881591797,19.377700805664062,16.566131591796875,0.11041784286499023,0.07001902163028717,-0.07067073881626129
1234,5486747,37.86808776855469,19.378787994384766,16.564456939697266,0.11764198541641235,0.07347431033849716,-0.0745609924197197
1248,5486787,37.87385559082031,19.381261825561523,16.560945510864258,0.1305052787065506,0.08145158737897873,-0.08024664223194122
1253,5486827,37.87995910644531,19.3841552734375,16.55733871459961,0.14056970179080963,0.08944594860076904,-0.08193330466747284
1265,5486847,37.88310623168945,19.38574981689453,16.559226989746094,0.14448143541812897,0.09302473813295364,-0.08049453794956207
1279,5486887,37.88950729370117,19.38917350769043,16.56243133544922,0.1500682830810547,0.09790967404842377,-0.07489584386348724
1284,5486927,37.89596176147461,19.392549514770508,16.565370559692383,0.15214307606220245,0.09979264438152313,-0.06541488319635391
1296,5486947,37.89916229248047,19.394163131713867,16.570995330810547,0.15203699469566345,0.0995546504855156,-0.058763522654771805
1311,5486987,37.905601501464844,19.39751434326172,16.581275939941406,0.14945796132087708,0.09633076190948486,-0.043199941515922546
1316,5487027,37.91166687011719,19.400671005249023,16.59065055847168,0.14458703994750977,0.0894857868552208,-0.026487013325095177
1328,5487047,37.91459655761719,19.40216827392578,16.598766326904297,0.14162485301494598,0.08498769253492355,-0.01747346855700016
1342,5487087,37.92020797729492,19.404937744140625,16.613811492919922,0.1345735341310501,0.07491428405046463,-0.000975564937107265
1347,5487127,37.925567626953125,19.40728759765625,16.627538681030273,0.12693582475185394,0.06361120939254761,0.01277116034179926
1359,5487147,37.92814636230469,19.408288955688477,16.636363983154297,0.12277651578187943,0.057805854827165604,0.018396196886897087
1373,5487187,37.93301773071289,19.410022735595703,16.652591705322266,0.11520008742809296,0.04719264432787895,0.025625741109251976
1378,5487227,37.937530517578125,19.411422729492188,16.66697883605957,0.10767962783575058,0.0375119149684906,0.02665310725569725
1390,5487247,37.93965530395508,19.41200828552246,16.674184799194336,0.10414575785398483,0.033200863748788834,0.024910813197493553
1404,5487287,37.94377136230469,19.413007736206055,16.687089920043945,0.09753881394863129,0.02553435042500496,0.016207272186875343
1410,5487327,37.94772720336914,19.413732528686523,16.69775390625,0.09177655726671219,0.019368566572666168,0.001811347552575171
1422,5487347,37.94970703125,19.414016723632812,16.701078414916992,0.08892304450273514,0.016739973798394203,-0.007502738386392593
1438,5487387,37.95343780517578,19.414478302001953,16.706443786621094,0.08383432030677795,0.012254972942173481,-0.02868938073515892
1442,5487407,37.9552001953125,19.414663314819336,16.70848274230957,0.08139273524284363,0.01029026135802269,-0.04037279635667801
1455,5487447,37.958534240722656,19.414934158325195,16.709074020385742,0.07673271745443344,0.00592581182718277,-0.06448213756084442
1469,5487487,37.961631774902344,19.415067672729492,16.70625114440918,0.07231395691633224,0.0018100384622812271,-0.08870045095682144
1473,5487507,37.963096618652344,19.415081024169922,16.704463958740234,0.07024361193180084,-0.0007315767579711974,-0.1000247374176979
1487,5487547,37.966156005859375,19.414613723754883,16.69771957397461,0.06571123749017715,-0.006075228098779917,-0.12128078937530518
1501,5487587,37.96902084350586,19.413986206054688,16.687898635864258,0.061248376965522766,-0.011799999512732029,-0.13986121118068695
1505,5487607,37.97032928466797,19.413610458374023,16.68301010131836,0.059020351618528366,-0.014730042777955532,-0.14750105142593384
1519,5487647,37.97276306152344,19.4127197265625,16.671031951904297,0.054076794534921646,-0.02082694321870804,-0.15994423627853394
1533,5487687,37.974952697753906,19.411632537841797,16.657339096069336,0.04930545762181282,-0.026971561834216118,-0.16875024139881134
1537,5487707,37.97595977783203,19.411008834838867,16.65072250366211,0.046805016696453094,-0.03012252040207386,-0.17183193564414978
1550,5487747,37.978424072265625,19.409055709838867,16.6378231048584,0.042386043816804886,-0.03673156723380089,-0.17524124681949615
1564,5487787,37.98060607910156,19.406944274902344,16.624507904052734,0.03825901448726654,-0.04311042279005051,-0.17498575150966644
1568,5487807,37.98160171508789,19.40582275390625,16.618181228637695,0.0363926999270916,-0.04657052457332611,-0.17335735261440277
1581,5487847,37.98342514038086,19.403427124023438,16.606456756591797,0.0329483225941658,-0.053606003522872925,-0.16688407957553864
1595,5487887,37.985069274902344,19.400754928588867,16.595766067504883,0.02979125827550888,-0.06098300218582153,-0.15531402826309204
1599,5487907,37.985809326171875,19.39936065673828,16.590892791748047,0.02837056666612625,-0.064463309943676,-0.14817096292972565
1612,5487947,37.98714065551758,19.39573097229004,16.585033416748047,0.02537601627409458,-0.07201328873634338,-0.1304377168416977
1627,5487987,37.988285064697266,19.39193344116211,16.581619262695312,0.022246303036808968,-0.07944923639297485,-0.10990652441978455
1631,5488007,37.988792419433594,19.389972686767578,16.580156326293945,0.020775670185685158,-0.08284609019756317,-0.09899579733610153
1644,5488047,37.98968505859375,19.385927200317383,16.580623626708984,0.01763685792684555,-0.08960887044668198,-0.07619237154722214
1649,5488067,37.99006652832031,19.38384246826172,16.582374572753906,0.015871990472078323,-0.09266707301139832,-0.06459233909845352
1662,5488107,37.99070358276367,19.379568099975586,16.58592987060547,0.012589696794748306,-0.09779507666826248,-0.0421597994863987
1675,5488147,37.99146270751953,19.374794006347656,16.59304428100586,0.009330456145107746,-0.10223429650068283,-0.02070470154285431
1680,5488167,37.991764068603516,19.372438430786133,16.597824096679688,0.00795244611799717,-0.10401225835084915,-0.011173049919307232
1693,5488207,37.99223709106445,19.367698669433594,16.60687828063965,0.005205438006669283,-0.10711879283189774,0.00423203082755208
1706,5488247,37.9925651550293,19.36295509338379,16.6168155670166,0.003359666559845209,-0.10871417075395584,0.015216884203255177
1711,5488267,37.9926872253418,19.360591888427734,16.622196197509766,0.002623650012537837,-0.10922572761774063,0.01895548403263092
1725,5488307,37.99287033081055,19.35590362548828,16.632108688354492,0.002038380363956094,-0.10920081287622452,0.022294962778687477
1738,5488347,37.993099212646484,19.351028442382812,16.64048957824707,0.002171415137127042,-0.107795849442482,0.02091800421476364
1743,5488367,37.993202209472656,19.34865379333496,16.644153594970703,0.0027340867090970278,-0.10658163577318192,0.01852281764149666
1758,5488407,37.9934196472168,19.344066619873047,16.650644302368164,0.0046906257048249245,-0.10290739685297012,0.011560379527509212
1771,5488447,37.993709564208984,19.339632034301758,16.6545352935791,0.00762412091717124,-0.09743911772966385,0.0019449752289801836
1776,5488467,37.9938850402832,19.337581634521484,16.655418395996094,0.009273303672671318,-0.09389383345842361,-0.003161790780723095
1789,5488507,37.99433135986328,19.333749771118164,16.656702041625977,0.013424484059214592,-0.08597515523433685,-0.012330872938036919
1803,5488547,37.99570083618164,19.329397201538086,16.654788970947266,0.018046950921416283,-0.07691648602485657,-0.01993214339017868
1807,5488567,37.99640655517578,19.327423095703125,16.652647018432617,0.020316436886787415,-0.07181278616189957,-0.022567585110664368
1821,5488607,37.99787902832031,19.32390022277832,16.648582458496094,0.024591337889432907,-0.06095009669661522,-0.024374142289161682
1835,5488647,37.999412536621094,19.320947647094727,16.642436981201172,0.028051016852259636,-0.04951463267207146,-0.021993204951286316
1840,5488667,38.00020217895508,19.31968116760254,16.63847541809082,0.029720162972807884,-0.04385202005505562,-0.019135169684886932
1853,5488707,38.00181198120117,19.317554473876953,16.631454467773438,0.03188196197152138,-0.03296040743589401,-0.010077950544655323
1857,5488727,38.00303268432617,19.316133499145508,16.628480911254883,0.03302604705095291,-0.028027186170220375,-0.0036118992138653994
1871,5488767,38.005340576171875,19.313783645629883,16.619735717773438,0.03389739245176315,-0.019382426515221596,0.010943878442049026
1884,5488807,38.007530212402344,19.31192970275879,16.612764358520508,0.03396546095609665,-0.012314344756305218,0.02823806367814541
1888,5488827,38.008583068847656,19.31116485595703,16.609920501708984,0.034151241183280945,-0.009362539276480675,0.037433724850416183
1902,5488867,38.01060104370117,19.309894561767578,16.602970123291016,0.03374661132693291,-0.004733556881546974,0.055496327579021454
1915,5488907,38.01251220703125,19.308923721313477,16.597841262817383,0.03365961089730263,-0.0008417380740866065,0.07227384299039841
1919,5488927,38.01350402832031,19.3083553314209,16.595844268798828,0.03386058285832405,0.0008000012603588402,0.07972744107246399
1934,5488967,38.01543426513672,19.307422637939453,16.592124938964844,0.034919917583465576,0.0036492792423814535,0.09214913100004196
1947,5489007,38.017337799072266,19.306739807128906,16.589733123779297,0.03719331696629524,0.006438388954848051,0.10046105086803436
1951,5489027,38.01833724975586,19.306499481201172,16.58904457092285,0.03885493054986,0.008174611255526543,0.10282383114099503
1965,5489067,38.02032470703125,19.306194305419922,16.588584899902344,0.04309147596359253,0.01202051155269146,0.10382107645273209
1978,5489107,38.02242660522461,19.306154251098633,16.58864974975586,0.048203714191913605,0.016283337026834488,0.09980269521474838
1982,5489127,38.023887634277344,19.305953979492188,16.58840560913086,0.050829701125621796,0.018686512485146523,0.09602465480566025
1996,5489167,38.02684783935547,19.305831909179688,16.589685440063477,0.055915553122758865,0.024603955447673798,0.08550236374139786
2009,5489207,38.02981948852539,19.306074142456055,16.590713500976562,0.060745082795619965,0.031287990510463715,0.07273709774017334
2013,5489227,38.031429290771484,19.306394577026367,16.59122657775879,0.06303106248378754,0.03519551828503609,0.06524422764778137
2026,5489267,38.03456497192383,19.307287216186523,16.594528198242188,0.06656549125909805,0.043184906244277954,0.051242753863334656
2041,5489307,38.03780746459961,19.30866050720215,16.597177505493164,0.06916916370391846,0.05203738063573837,0.03763868287205696
2045,5489327,38.0396842956543,19.309297561645508,16.597867965698242,0.07002894580364227,0.05635394901037216,0.03130773827433586
2058,5489367,38.04336929321289,19.31092643737793,16.60175132751465,0.07094363868236542,0.06471812725067139,0.02053469978272915
2073,5489387,38.045169830322266,19.31191062927246,16.603391647338867,0.07112210988998413,0.06895403563976288,0.01590147241950035
2078,5489427,38.04869079589844,19.314199447631836,16.606155395507812,0.07106773555278778,0.07676618546247482,0.00811694748699665
2091,5489467,38.05208969116211,19.316877365112305,16.61057472229004,0.07022325694561005,0.08355347067117691,0.002714199246838689
2104,5489487,38.053741455078125,19.318342208862305,16.612491607666016,0.06992015987634659,0.08638952672481537,0.00042184884659945965
2109,5489527,38.057167053222656,19.32113265991211,16.615684509277344,0.06916145235300064,0.09069595485925674,-0.00419094692915678
2124,5489567,38.06064224243164,19.3238525390625,16.61844825744629,0.06818076223134995,0.09334410727024078,-0.008637337945401669
2136,5489587,38.0623893737793,19.32539176940918,16.619590759277344,0.06779365986585617,0.094297394156456,-0.011420146562159061
2151,5489627,38.06565475463867,19.328401565551758,16.621444702148438,0.06731115281581879,0.09427359700202942,-0.017594752833247185
2156,5489667,38.068809509277344,19.33148765563965,16.62196922302246,0.06690268218517303,0.09257157891988754,-0.025234106928110123
2168,5489687,38.07035446166992,19.33303451538086,16.622039794921875,0.06673726439476013,0.09126637876033783,-0.02946854755282402
2173,5489727,38.07338333129883,19.336090087890625,16.621776580810547,0.06664915382862091,0.08720296621322632,-0.03902870789170265
2187,5489767,38.07656478881836,19.338764190673828,16.62061882019043,0.06680756062269211,0.08189157396554947,-0.05023256316781044
2199,5489787,38.078125,19.340059280395508,16.619831085205078,0.06700944900512695,0.07885436713695526,-0.05615602433681488
2204,5489827,38.08120346069336,19.342527389526367,16.617830276489258,0.06760568171739578,0.07202406227588654,-0.06858807057142258
2218,5489867,38.084312438964844,19.344863891601562,16.617156982421875,0.06861653923988342,0.06433890759944916,-0.08099385350942612
2230,5489887,38.0858268737793,19.345911026000977,16.616552352905273,0.06936466693878174,0.06039654463529587,-0.08656728267669678
2235,5489927,38.08896255493164,19.34743881225586,16.614974975585938,0.07051699608564377,0.052657827734947205,-0.09568451344966888
2250,5489967,38.092159271240234,19.348424911499023,16.61723518371582,0.07086251676082611,0.04575090855360031,-0.1005931943655014
2262,5489987,38.09373092651367,19.348873138427734,16.617996215820312,0.07062244415283203,0.04267709702253342,-0.10138896852731705
2267,5490027,38.096797943115234,19.349695205688477,16.618961334228516,0.06923530250787735,0.037566546350717545,-0.09975764155387878
2279,5490047,38.09828186035156,19.35008430480957,16.621368408203125,0.0680074691772461,0.03570595383644104,-0.0970677062869072
2293,5490087,38.10111618041992,19.35083770751953,16.62550926208496,0.06385604292154312,0.03262145072221756,-0.08881797641515732
2298,5490127,38.103816986083984,19.351343154907227,16.629314422607422,0.05760151892900467,0.030476650223135948,-0.07760469615459442
2310,5490147,38.10515594482422,19.35152816772461,16.631704330444336,0.053474344313144684,0.0298979040235281,-0.07087396085262299
2324,5490187,38.107421875,19.351905822753906,16.636241912841797,0.0451827310025692,0.02876191772520542,-0.05738738924264908
2329,5490227,38.10928726196289,19.35235595703125,16.640371322631836,0.03656978905200958,0.02772802673280239,-0.04472662881016731
2341,5490247,38.11007308959961,19.35260581970215,16.640655517578125,0.032203979790210724,0.02734045498073101,-0.039490170776844025
2355,5490287,38.11137008666992,19.3531436920166,16.641277313232422,0.024617256596684456,0.025773046538233757,-0.031219681724905968
2361,5490327,38.11254119873047,19.353235244750977,16.642070770263672,0.018579335883259773,0.023766586557030678,-0.026967694982886314
2373,5490347,38.11311340332031,19.353071212768555,16.639686584472656,0.016585664823651314,0.02255854569375515,-0.02676943875849247
2389,5490387,38.114112854003906,19.35279083251953,16.63524055480957,0.014413260854780674,0.01913510449230671,-0.029399439692497253
2394,5490427,38.115020751953125,19.352516174316406,16.631019592285156,0.014844093471765518,0.014565817080438137,-0.035089533776044846
2406,5490447,38.11547088623047,19.35235023498535,16.6265811920166,0.01627260446548462,0.012098095379769802,-0.039191558957099915
2420,5490487,38.1164436340332,19.351947784423828,16.6181640625,0.020989881828427315,0.006241551134735346,-0.04852372035384178
2425,5490527,38.117801666259766,19.351491928100586,16.61033058166504,0.027617843821644783,-0.0006360004772432148,-0.05790635198354721
2438,5490547,38.11865234375,19.351238250732422,16.606111526489258,0.03155127540230751,-0.004318660590797663,-0.062388207763433456
2452,5490587,38.120540618896484,19.350553512573242,16.598007202148438,0.039980676025152206,-0.012296413071453571,-0.07009698450565338
2457,5490627,38.12269973754883,19.349609375,16.590335845947266,0.048671793192625046,-0.02075308747589588,-0.07547066360712051
2470,5490647,38.12388229370117,19.349035263061523,16.588285446166992,0.05280632898211479,-0.025057028979063034,-0.07654474675655365
2484,5490687,38.126441955566406,19.347673416137695,16.58424949645996,0.06059686467051506,-0.033611707389354706,-0.07615837454795837
2488,5490707,38.12788009643555,19.346843719482422,16.582223892211914,0.06407935172319412,-0.03819938749074936,-0.074430912733078
2501,5490747,38.13113021850586,19.344547271728516,16.582382202148438,0.06986367702484131,-0.04658859595656395,-0.06764370948076248
2515,5490787,38.13448715209961,19.342021942138672,16.585613250732422,0.07376205921173096,-0.05476082116365433,-0.05758059397339821
2519,5490807,38.13618469238281,19.340673446655273,16.587093353271484,0.0749274492263794,-0.05883488804101944,-0.051863569766283035
2532,5490847,38.13958740234375,19.337806701660156,16.593307495117188,0.07633031159639359,-0.0662694200873375,-0.03898712620139122
2546,5490887,38.142967224121094,19.33473777770996,16.60216522216797,0.07677377015352249,-0.07269791513681412,-0.025387201458215714
2550,5490907,38.1446418762207,19.333133697509766,16.606279373168945,0.07682181894779205,-0.07560047507286072,-0.018898852169513702
2563,5490947,38.148193359375,19.329206466674805,16.616676330566406,0.07651945948600769,-0.08028306066989899,-0.007130958139896393
2654,5491287,38.17735290527344,19.297372817993164,16.665517807006836,0.07070020586252213,-0.06601574271917343,-0.026890533044934273
2735,5491627,38.18986511230469,19.272796630859375,16.549964904785156,-0.019562428817152977,-0.055847931653261185,-0.04779629036784172
2816,5491947,38.18574523925781,19.25152015686035,16.53868865966797,-0.025347843766212463,-0.03450891003012657,0.03490041568875313
2901,5492287,38.18706130981445,19.245513916015625,16.622684478759766,-0.03583548590540886,0.052179157733917236,0.08568761497735977
2980,5492627,38.19401168823242,19.25286865234375,16.57128143310547,0.018207481130957603,0.0465281680226326,0.028025569394230843
3063,5492947,38.22791290283203,19.26386833190918,16.556867599487305,0.10249345749616623,0.09217020869255066,-0.07386742532253265
3150,5493287,38.274810791015625,19.28944206237793,16.57828712463379,0.09028683602809906,0.10028024762868881,0.06319013237953186
3229,5493627,38.30315017700195,19.30352783203125,16.587039947509766,0.01288539357483387,0.04839311167597771,-0.08174092322587967
3313,5493947,38.32022476196289,19.307369232177734,16.563060760498047,0.012908008880913258,0.024980997666716576,-0.16024374961853027
3400,5494287,38.338172912597656,19.29561996459961,16.504636764526367,0.001999278087168932,-0.04882211610674858,-0.05163571238517761
3478,5494627,38.34957504272461,19.26983070373535,16.492273330688477,0.02327253855764866,-0.09035477787256241,-0.03116842918097973
3561,5494947,38.36894607543945,19.240985870361328,16.51677131652832,0.04011240974068642,-0.06344112753868103,-0.004233460407704115
3648,5495287,38.39219665527344,19.226274490356445,16.477489471435547,0.03463449701666832,-0.019963763654232025,0.03222114220261574
3727,5495627,38.4097785949707,19.22321128845215,16.509706497192383,-0.004412079695612192,0.037560123950242996,0.018329119309782982
3810,5495947,38.41889190673828,19.240962982177734,16.503524780273438,0.0015338552184402943,0.10177135467529297,-0.025604700669646263
3897,5496287,38.440513610839844,19.265457153320312,16.485443115234375,0.03707941249012947,0.10230684280395508,-0.006125618238002062
3975,5496607,38.463844299316406,19.29440689086914,16.549453735351562,0.03988566994667053,0.12669189274311066,0.06824896484613419
4060,5496947,38.486106872558594,19.32436752319336,16.590429306030273,0.05141210928559303,0.0819673091173172,-0.023294225335121155
4146,5497287,38.51459884643555,19.342763900756836,16.576765060424805,0.05258069187402725,0.05676591768860817,-0.13077589869499207
4224,5497607,38.53240203857422,19.336511611938477,16.579185485839844,0.016008157283067703,-0.04893061891198158,-0.08094706386327744
4309,5497947,38.54011917114258,19.307674407958984,16.6203670501709,0.03336802497506142,-0.06729333847761154,-0.1171790063381195
4395,5498287,38.55307388305664,19.283218383789062,16.61400604248047,0.04782046377658844,-0.0245844554156065,0.0647861585021019
4473,5498607,38.557945251464844,19.276533126831055,16.602407455444336,-0.012681952677667141,0.04116004705429077,0.23001857101917267
4558,5498947,38.55351257324219,19.290199279785156,16.705217361450195,-0.026036139577627182,0.07628882676362991,-0.0008194002439267933
4644,5499287,38.55741500854492,19.320966720581055,16.729698181152344,-0.006208148784935474,0.1294347196817398,0.046332649886608124
4722,5499607,38.56220626831055,19.350303649902344,16.61475372314453,0.007505255285650492,0.09319447726011276,-0.016208520159125328
4806,5499947,38.57430648803711,19.37044334411621,16.799007415771484,0.032208461314439774,0.09253028780221939,-0.02834719605743885
4893,5500287,38.57781219482422,19.384214401245117,16.93343734741211,-0.008642191998660564,0.05874413251876831,0.0016890042461454868
4971,5500607,38.57944869995117,19.387619018554688,16.859630584716797,0.019127536565065384,0.025888120755553246,-0.07311621308326721
5056,5500947,38.58567810058594,19.390132904052734,16.897357940673828,0.01661638915538788,0.013379748910665512,0.06937918812036514
5142,5501287,38.591068267822266,19.383403778076172,16.94715118408203,0.011208685114979744,0.014910190366208553,0.09471409767866135
5220,5501607,38.590599060058594,19.375513076782227,16.922822952270508,-0.005081276874989271,-0.014499649405479431,0.06122167408466339
5305,5501947,38.588985443115234,19.37131690979004,16.875816345214844,-0.03531230241060257,0.07514060288667679,0.040802251547575
5393,5502287,38.57661819458008,19.389442443847656,16.851877212524414,-0.061955735087394714,0.08861296623945236,0.04042220115661621
5471,5502607,38.56721115112305,19.4034481048584,16.970947265625,-0.035525575280189514,0.10048487782478333,0.13192909955978394
5556,5502947,38.572853088378906,19.4046630859375,16.937742233276367,0.03573264554142952,-0.01738848350942135,-0.05254067853093147
5633,5503267,38.600257873535156,19.385560989379883,16.939504623413086,0.1017724871635437,-0.05268411338329315,-0.10152404755353928
5720,5503607,38.63487243652344,19.354124069213867,17.05919647216797,0.13122369349002838,-0.08636759966611862,0.009068789891898632
5804,5503947,38.67531967163086,19.305116653442383,17.0413761138916,0.1316152811050415,-0.10729102045297623,0.02056880295276642
5882,5504267,38.70700454711914,19.258302688598633,16.98855972290039,0.09214148670434952,-0.07818777859210968,0.0819263607263565
5969,5504607,38.72998046875,19.220745086669922,16.957406997680664,0.06533711403608322,-0.062134355306625366,0.1084289476275444
6053,5504947,38.7548713684082,19.193143844604492,16.961082458496094,0.060198936611413956,-0.03596259281039238,0.08952844887971878
6131,5505267,38.782386779785156,19.17660140991211,16.887617111206055,0.06472013890743256,-0.026720529422163963,-0.04379737004637718
6218,5505607,38.81214904785156,19.173019409179688,16.87192726135254,0.09025522321462631,0.020621953532099724,-0.046579908579587936
6302,5505947,38.83964157104492,19.177017211914062,16.923154830932617,0.07697207480669022,0.016309568658471107,0.06794171780347824
6380,5506267,38.86111831665039,19.17331886291504,16.920377731323242,0.06306308507919312,-0.0224786177277565,0.02749083936214447
6467,5506607,38.87261962890625,19.158002853393555,16.888574600219727,0.027744542807340622,-0.07840289175510406,-0.09439615160226822
6551,5506947,38.879573822021484,19.139564514160156,16.830413818359375,0.07648611068725586,-0.07527700811624527,-0.05922010913491249
6629,5507267,38.88957977294922,19.122106552124023,16.7956600189209,0.08719605952501297,-0.09644155204296112,-0.05272923782467842
6716,5507607,38.90046310424805,19.1031436920166,16.766786575317383,0.1151859238743782,-0.08118639886379242,0.002386067295446992
6800,5507947,38.91619873046875,19.07975196838379,16.695476531982422,0.0636485293507576,-0.10514865070581436,-0.0322878435254097
6878,5508267,38.91434860229492,19.06069564819336,16.631349563598633,0.022758623585104942,-0.06782682985067368,0.029597895219922066
6965,5508607,38.92040252685547,19.0633487701416,16.637922286987305,0.02524508535861969,-0.023703236132860184,0.15354444086551666
7050,5508947,38.92617416381836,19.084957122802734,16.57086181640625,-0.0006232486921362579,0.0470549538731575,-0.08869193494319916
7128,5509267,38.93134689331055,19.122480392456055,16.60405158996582,0.010660323314368725,0.054220300167798996,0.005261012353003025
7215,5509607,38.939151763916016,19.158302307128906,16.599140167236328,0.03558817878365517,0.0457443967461586,-0.03832576051354408
7290,5509927,38.94924545288086,19.188190460205078,16.62889289855957,0.02696494199335575,0.018332410603761673,-0.18962419033050537
7377,5510267,38.94888687133789,19.20311164855957,16.691471099853516,0.02677881345152855,-0.054464299231767654,-0.08293193578720093
7464,5510607,38.943119049072266,19.19512367248535,16.661357879638672,0.037866223603487015,-0.09586076438426971,0.024406658485531807
7539,5510927,38.94042205810547,19.187454223632812,16.62696075439453,0.05072910338640213,-0.07089652121067047,-0.037594083696603775
7626,5511267,38.94174575805664,19.185033798217773,16.66972541809082,0.09549309313297272,-0.05470578745007515,0.08730346709489822
7713,5511607,38.949981689453125,19.194080352783203,16.63935089111328,0.08317065238952637,-0.019378861412405968,-0.05247152969241142
7790,5511927,38.95756530761719,19.17879867553711,16.701221466064453,0.09724131971597672,-0.15456874668598175,-0.06888409703969955
7877,5512267,38.981475830078125,19.122013092041016,16.81999969482422,0.21495796740055084,-0.2704079747200012,0.11019075661897659
7964,5512607,39.05557632446289,19.023914337158203,16.732568740844727,0.38815823197364807,-0.36311617493629456,0.06996291130781174
8039,5512927,39.15445327758789,18.89724349975586,16.76763153076172,0.41702941060066223,-0.44460752606391907,-0.14175617694854736
8126,5513267,39.25518798828125,18.731876373291016,16.816974639892578,0.46956154704093933,-0.4450831711292267,0.11986814439296722
8213,5513607,39.37668991088867,18.557388305664062,16.725059509277344,0.45458054542541504,-0.4665345847606659,0.0285720843821764
8288,5513927,39.49036407470703,18.383968353271484,16.699853897094727,0.4669136703014374,-0.4933180809020996,-0.12315287441015244
8375,5514267,39.62998962402344,18.185197830200195,16.708749771118164,0.49635007977485657,-0.5408756732940674,-0.07406488060951233
8462,5514607,39.77051544189453,17.983448028564453,16.66370391845703,0.5082631707191467,-0.5256490707397461,-0.052485447376966476
8537,5514927,39.91461181640625,17.793991088867188,16.627777099609375,0.4925041198730469,-0.5528972744941711,0.008295469917356968
8624,5515267,40.07368469238281,17.60242462158203,16.589672088623047,0.5208510160446167,-0.5128709673881531,-0.019767457619309425
8711,5515607,40.23387145996094,17.420774459838867,16.60994529724121,0.4890608787536621,-0.46788790822029114,0.03215085342526436
8786,5515927,40.38661193847656,17.26443862915039,16.599550247192383,0.4847026765346527,-0.46719956398010254,-0.037809599190950394
8873,5516267,40.55706787109375,17.1075496673584,16.592132568359375,0.5305406451225281,-0.44810745120048523,0.12364251911640167
8959,5516587,40.725364685058594,16.95958709716797,16.482608795166016,0.47954729199409485,-0.4785788059234619,-0.18880358338356018
9035,5516927,40.88929748535156,16.79574203491211,16.527034759521484,0.5025458335876465,-0.4707089960575104,0.058181893080472946
9122,5517267,41.06967544555664,16.638072967529297,16.492088317871094,0.5162538886070251,-0.46515247225761414,0.046707089990377426
9208,5517587,41.241790771484375,16.487838745117188,16.410593032836914,0.5085612535476685,-0.49821561574935913,-0.18295350670814514
9284,5517927,41.4288330078125,16.32701301574707,16.506242752075195,0.5458911657333374,-0.49775585532188416,-0.019973594695329666
9371,5518267,41.60758972167969,16.1513729095459,16.425823211669922,0.48826947808265686,-0.5343438386917114,-0.1721644401550293
9457,5518587,41.789398193359375,15.98923397064209,16.46310806274414,0.5695711970329285,-0.509425699710846,0.12897083163261414
9533,5518927,41.989036560058594,15.821136474609375,16.353269577026367,0.5473503470420837,-0.5075491070747375,-0.14400909841060638
9620,5519267,42.191585540771484,15.658403396606445,16.396461486816406,0.5562873482704163,-0.47308385372161865,0.00784240197390318
9706,5519587,42.377845764160156,15.521428108215332,16.40183448791504,0.4932648539543152,-0.44401249289512634,-0.026749202981591225
9782,5519927,42.5553092956543,15.394866943359375,16.35148811340332,0.43026962876319885,-0.3758174777030945,0.08356588333845139
9869,5520267,42.72003936767578,15.298108100891113,16.320898056030273,0.35604310035705566,-0.28941065073013306,-0.06160266697406769
9966,5520607,42.85282897949219,15.238290786743164,16.366540908813477,0.23827719688415527,-0.18188849091529846,-0.06691596657037735
9969,5520647,42.86503601074219,15.232901573181152,16.37668228149414,0.22324900329113007,-0.17395362257957458,-0.064295195043087
9983,5520667,42.8709831237793,15.230079650878906,16.382164001464844,0.21528004109859467,-0.17007504403591156,-0.06280959397554398
9987,5520707,42.881736755371094,15.22485065460205,16.391992568969727,0.20122921466827393,-0.16223834455013275,-0.0602339468896389
10000,5520747,42.893035888671875,15.221063613891602,16.40227508544922,0.18560171127319336,-0.15662811696529388,-0.058949295431375504
10005,5520767,42.89898681640625,15.21981430053711,16.407745361328125,0.17787563800811768,-0.15360386669635773,-0.058549344539642334
10018,5520807,42.90998458862305,15.217220306396484,16.41737937927246,0.1625078320503235,-0.14505064487457275,-0.05876518413424492
10031,5520847,42.919803619384766,15.214446067810059,16.426555633544922,0.14717546105384827,-0.13825896382331848,-0.060548778623342514
10036,5520867,42.924312591552734,15.213037490844727,16.43111801147461,0.13720206916332245,-0.13613751530647278,-0.060489583760499954
10049,5520907,42.93255615234375,15.210166931152344,16.439027786254883,0.12268710881471634,-0.12919917702674866,-0.06395957618951797
10063,5520947,42.942665100097656,15.209758758544922,16.4465274810791,0.10884077847003937,-0.12387681007385254,-0.06499246507883072
10068,5520967,42.9473991394043,15.209322929382324,16.450008392333984,0.10500344634056091,-0.11947102099657059,-0.06556449830532074
10081,5521007,42.95595932006836,15.208474159240723,16.456096649169922,0.09648376703262329,-0.1140865683555603,-0.06558308005332947
10094,5521047,42.9636344909668,15.207345008850098,16.461698532104492,0.09011641889810562,-0.11020758748054504,-0.06509139388799667
10099,5521067,42.96721649169922,15.206707000732422,16.46438980102539,0.08792649954557419,-0.10773618519306183,-0.06462743878364563
10112,5521107,42.97397232055664,15.205240249633789,16.46901512145996,0.08585094660520554,-0.1059364378452301,-0.06260358542203903
10125,5521147,42.982181549072266,15.206090927124023,16.4743709564209,0.08415994048118591,-0.10334381461143494,-0.06061745807528496
10130,5521167,42.98604965209961,15.206323623657227,16.477264404296875,0.08513863384723663,-0.10301872342824936,-0.0583769828081131
10143,5521207,42.993404388427734,15.206369400024414,16.482316970825195,0.08445800840854645,-0.10365842282772064,-0.0541241280734539
10158,5521227,42.99686813354492,15.206168174743652,16.484540939331055,0.08444815129041672,-0.10473519563674927,-0.0521700456738472
10164,5521267,43.003562927246094,15.20523738861084,16.492891311645508,0.08524879068136215,-0.1081782877445221,-0.04892965033650398
10177,5521307,43.0097770690918,15.203816413879395,16.499988555908203,0.08481285721063614,-0.11388514935970306,-0.04981619119644165
10181,5521327,43.01380157470703,15.204029083251953,16.503204345703125,0.0860975980758667,-0.11687377095222473,-0.05014299973845482
10195,5521367,43.02137756347656,15.203850746154785,16.515697479248047,0.08336653560400009,-0.12076450884342194,-0.053277820348739624
10210,5521407,43.02830123901367,15.202987670898438,16.525999069213867,0.07858674228191376,-0.12335214763879776,-0.06007562205195427
10214,5521427,43.031490325927734,15.202330589294434,16.530399322509766,0.07568765431642532,-0.1240263357758522,-0.06442409753799438
10228,5521467,43.03733825683594,15.20073413848877,16.54627799987793,0.06839926540851593,-0.12270474433898926,-0.0714171826839447
10241,5521507,43.042457580566406,15.198787689208984,16.55940818786621,0.05759400874376297,-0.11911138147115707,-0.08129005134105682
10245,5521527,43.04560089111328,15.198858261108398,16.565013885498047,0.055622249841690063,-0.11547747254371643,-0.085637167096138
10260,5521567,43.05107879638672,15.198996543884277,16.58357810974121,0.04291877895593643,-0.10593535006046295,-0.08777974545955658
10274,5521607,43.05564880371094,15.199016571044922,16.599008560180664,0.030841002240777016,-0.09390460699796677,-0.09302351623773575
10278,5521627,43.05760955810547,15.198966026306152,16.605730056762695,0.02894076704978943,-0.09323743730783463,-0.0903325155377388
10292,5521667,43.06107711791992,15.1987886428833,16.62503433227539,0.022087208926677704,-0.08431614935398102,-0.0885130763053894
10305,5521707,43.06385040283203,15.198593139648438,16.641481399536133,0.013915494084358215,-0.0703539177775383,-0.08014262467622757
10309,5521727,43.064971923828125,15.198554992675781,16.648862838745117,0.004121985752135515,-0.065069280564785,-0.07263199985027313
10323,5521767,43.06791305541992,15.201214790344238,16.667938232421875,-0.0026730874087661505,-0.04879903420805931,-0.054366834461688995
10336,5521807,43.07021713256836,15.203752517700195,16.68489646911621,-0.006766175385564566,-0.039160244166851044,-0.0303959883749485
10340,5521827,43.07118225097656,15.204978942871094,16.692760467529297,-0.008096599020063877,-0.0326625220477581,-0.02388809062540531
10354,5521867,43.07296371459961,15.207419395446777,16.70914077758789,-0.007581115234643221,-0.026060009375214577,-0.0007183515699580312
10366,5521887,43.07375717163086,15.208579063415527,16.71685028076172,-0.0018386398442089558,-0.01891186274588108,0.013653680682182312
10381,5521927,43.07600784301758,15.211872100830078,16.731626510620117,0.002184370532631874,-0.012073321267962456,0.0418756827712059
10385,5521967,43.07867431640625,15.215943336486816,16.744258880615234,0.004864939954131842,-0.0018632529536262155,0.07105472683906555
10398,5521987,43.079933166503906,15.217923164367676,16.750438690185547,0.005189456976950169,0.0030290798749774694,0.08512897044420242
10403,5522027,43.08224105834961,15.221652030944824,16.7628116607666,0.007242226041853428,0.009504714049398899,0.11616280674934387
10417,5522067,43.084388732910156,15.225330352783203,16.77080726623535,0.010358018800616264,0.01808788627386093,0.14495137333869934
10429,5522087,43.08540725708008,15.22714614868164,16.775165557861328,0.011438950896263123,0.020906314253807068,0.1535382717847824
10434,5522127,43.087921142578125,15.231919288635254,16.783451080322266,0.012976426631212234,0.03666943311691284,0.1726466715335846
10448,5522167,43.090728759765625,15.237707138061523,16.786317825317383,0.010904710739850998,0.04833387956023216,0.18126708269119263
10460,5522187,43.092010498046875,15.240605354309082,16.78803825378418,0.01133696734905243,0.05486983805894852,0.1879463642835617
10465,5522227,43.09422302246094,15.24644947052002,16.791980743408203,0.0095521816983819,0.06873418390750885,0.19089211523532867
10480,5522267,43.09610366821289,15.252317428588867,16.791915893554688,0.005820267368108034,0.07920222729444504,0.1897323578596115
10492,5522287,43.096900939941406,15.255280494689941,16.792179107666016,0.0017961034318432212,0.08538133651018143,0.18496662378311157
10497,5522327,43.09918212890625,15.262787818908691,16.792306900024414,-0.0011469192104414105,0.09691692143678665,0.17285960912704468
10511,5522367,43.10190200805664,15.271769523620605,16.790958404541016,-0.0037217610515654087,0.10895320773124695,0.16123227775096893
10525,5522387,43.103057861328125,15.276342391967773,16.790542602539062,-0.006360674276947975,0.11597736179828644,0.15027686953544617
10530,5522427,43.104984283447266,15.285083770751953,16.789539337158203,-0.010109221562743187,0.126113161444664,0.13431736826896667
10544,5522467,43.106414794921875,15.293828964233398,16.791240692138672,-0.01749023236334324,0.1362144649028778,0.11807854473590851
10556,5522487,43.106929779052734,15.298189163208008,16.79201316833496,-0.018503835424780846,0.14223694801330566,0.11358912289142609
10561,5522527,43.10854721069336,15.308014869689941,16.792837142944336,-0.023434504866600037,0.15071703493595123,0.10301565378904343
10574,5522547,43.109554290771484,15.31338882446289,16.79598045349121,-0.02802235633134842,0.15518619120121002,0.10150042176246643
10588,5522587,43.11118698120117,15.32400894165039,16.801837921142578,-0.03072749264538288,0.1659521609544754,0.09809034317731857
10594,5522627,43.112308502197266,15.334404945373535,16.807315826416016,-0.032359685748815536,0.17384810745716095,0.09878051280975342
10606,5522647,43.11270523071289,15.339567184448242,16.813379287719727,-0.03335314616560936,0.17935968935489655,0.10314660519361496
10620,5522687,43.11320877075195,15.350024223327637,16.824949264526367,-0.03622369095683098,0.18663837015628815,0.10927487909793854
10625,5522727,43.1134033203125,15.360151290893555,16.835615158081055,-0.03743375837802887,0.19098851084709167,0.11690674722194672
10637,5522747,43.114234924316406,15.36613655090332,16.84246826171875,-0.03791085258126259,0.1946186125278473,0.12167021632194519
10651,5522787,43.115623474121094,15.377889633178711,16.855426788330078,-0.03706766292452812,0.19966210424900055,0.12834182381629944
10656,5522827,43.11660385131836,15.389309883117676,16.86747169494629,-0.03646339848637581,0.20541585981845856,0.1320340484380722
10668,5522847,43.11697006225586,15.39492416381836,16.873516082763672,-0.036989860236644745,0.20861248672008514,0.1334538608789444
10682,5522887,43.11745071411133,15.406059265136719,16.884817123413086,-0.038476720452308655,0.21477243304252625,0.1289341300725937
10687,5522927,43.118385314941406,15.418387413024902,16.894433975219727,-0.04244038835167885,0.22157198190689087,0.11865484714508057
10700,5522947,43.11901092529297,15.42531681060791,16.89726448059082,-0.044987380504608154,0.22621206939220428,0.11125565320253372
10714,5522987,43.11990737915039,15.438517570495605,16.902008056640625,-0.04988933727145195,0.2315778285264969,0.09339272975921631
10719,5523027,43.12018966674805,15.45136547088623,16.90583038330078,-0.05555339157581329,0.2365453690290451,0.07207553088665009
10731,5523047,43.12012481689453,15.457635879516602,16.90546989440918,-0.05871405452489853,0.23649446666240692,0.06195611506700516
10745,5523087,43.11962890625,15.469892501831055,16.904315948486328,-0.06350547820329666,0.23554539680480957,0.037412647157907486
10750,5523127,43.11936950683594,15.482430458068848,16.902137756347656,-0.06724892556667328,0.23033705353736877,0.013036351650953293
10762,5523147,43.11941909790039,15.488826751708984,16.899396896362305,-0.06713847815990448,0.22808435559272766,0.0014054713537916541
10776,5523187,43.11928176879883,15.501069068908691,16.89373016357422,-0.0658678412437439,0.21973516047000885,-0.019727088510990143
10780,5523207,43.11911392211914,15.506861686706543,16.890832901000977,-0.06354594975709915,0.21437537670135498,-0.029435502365231514
10793,5523247,43.11857986450195,15.518030166625977,16.88471221923828,-0.0603499710559845,0.2034626603126526,-0.04591034725308418
10808,5523287,43.11798858642578,15.528190612792969,16.87845230102539,-0.056281182914972305,0.19233541190624237,-0.05807994678616524
10812,5523307,43.11765670776367,15.532968521118164,16.87533187866211,-0.05402509868144989,0.18746019899845123,-0.06387446820735931
10825,5523347,43.117881774902344,15.543475151062012,16.869976043701172,-0.04994945973157883,0.17592793703079224,-0.07167019695043564
10841,5523387,43.117950439453125,15.553116798400879,16.86530303955078,-0.046928007155656815,0.16577380895614624,-0.07591819018125534
10845,5523407,43.11791229248047,15.557584762573242,16.86296272277832,-0.04433663189411163,0.15904361009597778,-0.07811085134744644
10859,5523447,43.117713928222656,15.56584644317627,16.85910415649414,-0.0421273410320282,0.146484375,-0.08230561763048172
10872,5523487,43.117408752441406,15.57327651977539,16.855897903442383,-0.0395333431661129,0.1327822506427765,-0.0877167209982872
10876,5523507,43.11722183227539,15.576659202575684,16.85416603088379,-0.036718714982271194,0.12496450543403625,-0.09089639782905579
10890,5523547,43.11820602416992,15.585065841674805,16.851442337036133,-0.03495430573821068,0.10942710191011429,-0.10067756474018097
10904,5523587,43.118961334228516,15.592236518859863,16.848800659179688,-0.03315086290240288,0.09328700602054596,-0.11151017248630524
10909,5523607,43.11924362182617,15.595398902893066,16.84721565246582,-0.03265206143260002,0.08509688079357147,-0.11681322753429413
10922,5523647,43.11960983276367,15.600849151611328,16.84395980834961,-0.0325685478746891,0.06685212254524231,-0.1271335333585739
10936,5523687,43.119693756103516,15.60529613494873,16.840539932250977,-0.03383350372314453,0.049747806042432785,-0.1320955455303192
10940,5523707,43.119632720947266,15.607145309448242,16.838666915893555,-0.03413377329707146,0.04265013709664345,-0.13300013542175293
10953,5523747,43.120323181152344,15.612554550170898,16.835899353027344,-0.035772692412137985,0.027690816670656204,-0.12996403872966766
10967,5523787,43.12067413330078,15.616902351379395,16.83346939086914,-0.036169908940792084,0.015506215393543243,-0.11851928383111954
10971,5523807,43.12069320678711,15.618731498718262,16.832225799560547,-0.036555156111717224,0.011530731804668903,-0.10851090401411057
10984,5523847,43.12055587768555,15.621733665466309,16.830646514892578,-0.036710601300001144,0.001941386959515512,-0.0845165029168129
10989,5523867,43.120399475097656,15.622990608215332,16.830284118652344,-0.03843819722533226,3.731043034349568e-05,-0.06942251324653625
11002,5523907,43.11989212036133,15.62507438659668,16.830270767211914,-0.03733563795685768,-0.00414049020037055,-0.034730616956949234
11016,5523947,43.12010192871094,15.629015922546387,16.83159637451172,-0.037625543773174286,-0.007415181025862694,0.005160890053957701
11021,5523967,43.1201057434082,15.630745887756348,16.832460403442383,-0.03803743049502373,-0.00838393997400999,0.024935292080044746
11034,5524007,43.119842529296875,15.633736610412598,16.83527183532715,-0.039209164679050446,-0.008954698219895363,0.06612595915794373
11047,5524047,43.11927795410156,15.636189460754395,16.837539672851562,-0.040889937430620193,-0.009263532236218452,0.10513012111186981
11052,5524067,43.11890411376953,15.637287139892578,16.838333129882812,-0.04155290126800537,-0.009324570186436176,0.12326981127262115
11065,5524107,43.11793518066406,15.639192581176758,16.84132194519043,-0.0425775982439518,-0.00897466391324997,0.1536191701889038
11078,5524147,43.11866760253906,15.64378547668457,16.84197425842285,-0.04172220826148987,-0.007023352663964033,0.1769591122865677
11083,5524167,43.118892669677734,15.645873069763184,16.841337203979492,-0.04285450652241707,-0.00664277421310544,0.1829729676246643
11096,5524207,43.11906814575195,15.649521827697754,16.841238021850586,-0.0424184650182724,-0.007622788194566965,0.1939973533153534
11109,5524247,43.11893081665039,15.652615547180176,16.839351654052734,-0.041918881237506866,-0.007696123328059912,0.19380001723766327
11115,5524267,43.118778228759766,15.653982162475586,16.837400436401367,-0.04100257158279419,-0.008332040160894394,0.19099055230617523
11128,5524307,43.11836242675781,15.656399726867676,16.83428955078125,-0.038736261427402496,-0.0064270044676959515,0.1762303113937378
11141,5524347,43.120601654052734,15.66135025024414,16.828611373901367,-0.034105878323316574,-0.00985310971736908,0.15413205325603485
11146,5524367,43.121585845947266,15.663581848144531,16.825214385986328,-0.031830061227083206,-0.005011964589357376,0.14104899764060974
11161,5524407,43.1233024597168,15.667591094970703,16.818952560424805,-0.02638353407382965,-0.006733726244419813,0.11379572749137878
11174,5524447,43.124778747558594,15.671025276184082,16.81298828125,-0.022491199895739555,-0.004984733648598194,0.08486965298652649
11179,5524467,43.125431060791016,15.672558784484863,16.81009864807129,-0.02196800708770752,-0.005696460139006376,0.06984706223011017
11192,5524507,43.126590728759766,15.675305366516113,16.80434226989746,-0.01778957061469555,-0.002529535908252001,0.044006772339344025
11196,5524527,43.12847900390625,15.677927017211914,16.80087661743164,-0.01611228473484516,-0.0026991500053554773,0.03009481355547905
11211,5524567,43.13186264038086,15.682709693908691,16.797285079956055,-0.0130676981061697,0.0023084268905222416,0.009683328680694103
11225,5524607,43.134769439697266,15.686951637268066,16.79350471496582,-0.011004860512912273,0.005117649678140879,-0.007012701127678156
11229,5524627,43.13606643676758,15.688889503479004,16.791561126708984,-0.010212582536041737,0.005535475444048643,-0.014085336588323116
