packet_index,time_boot_ms,roll_rad,pitch_rad,yaw_rad,roll_deg,pitch_deg,yaw_deg,rollspeed_radps,pitchspeed_radps,yawspeed_radps
3,7212467,-0.05437823385000229,0.012849883176386356,-2.167804479598999,-3.115643296980561,0.7362440732430986,-124.20604749057641,0.0639391839504242,0.07919219881296158,0.33810245990753174
9,7212487,-0.05123075470328331,0.014932902529835701,-2.1615612506866455,-2.9353060257681256,0.8555922908398156,-123.8483368233645,0.09131857752799988,0.08282023668289185,0.33402296900749207
21,7212527,-0.043538857251405716,0.019112903624773026,-2.148878812789917,-2.4945927653281075,1.0950887119397872,-123.12168665794519,0.14391672611236572,0.08765635639429092,0.32680025696754456
34,7212567,-0.034650709480047226,0.02282182313501835,-2.13659930229187,-1.9853394103406572,1.3075941464305725,-122.41812253192052,0.18704213201999664,0.08646269142627716,0.32106876373291016
49,7212587,-0.029929611831903458,0.02460891380906105,-2.1305019855499268,-1.7148404404328803,1.4099868996604088,-122.06877201625271,0.20381605625152588,0.08496861904859543,0.31899118423461914
54,7212627,-0.020101284608244896,0.027796538546681404,-2.118434429168701,-1.1517187708437149,1.5926243437975516,-121.37735196657232,0.22804635763168335,0.07998200505971909,0.3151266872882843
67,7212667,-0.010149946436285973,0.030883777886629105,-2.106414556503296,-0.5815490930830368,1.7695101283233088,-120.68866399255992,0.24054062366485596,0.07502466440200806,0.31144070625305176
76,7212687,-0.005246191751211882,0.03226924315094948,-2.100494384765625,-0.3005846458607872,1.8488914406308432,-120.34946313799875,0.24259592592716217,0.0729941874742508,0.30969470739364624
85,7212727,0.003969054669141769,0.034981317818164825,-2.0887091159820557,0.22741008119851672,2.00428187278663,-119.67421697627296,0.23769982159137726,0.06860616058111191,0.30610519647598267
98,7212767,0.011631777510046959,0.03740308806300163,-2.07712721824646,0.6664517595608802,2.143039086766143,-119.0106231172712,0.21682636439800262,0.06678922474384308,0.301730215549469
107,7212787,0.01490257028490305,0.038599785417318344,-2.071233034133911,0.8538543812220175,2.211604794522962,-118.67291124394909,0.199284166097641,0.06519585847854614,0.29850566387176514
116,7212827,0.01949293725192547,0.04064356908202171,-2.06027889251709,1.1168630348486706,2.3287049727482456,-118.04528516111661,0.1551092565059662,0.06160745024681091,0.29061806201934814
128,7212847,0.020922789350152016,0.04148489609360695,-2.0549559593200684,1.198787525404977,2.376909459702434,-117.7403035542972,0.12923794984817505,0.058656416833400726,0.28579413890838623
138,7212887,0.022111106663942337,0.04286991432309151,-2.0446434020996094,1.2668730922074853,2.456265158800581,-117.14943754957774,0.0735909566283226,0.05050761625170708,0.27541977167129517
150,7212927,0.02115107700228691,0.043571457266807556,-2.034677028656006,1.211867444387257,2.4964606086226944,-116.57840641420799,0.016052640974521637,0.03861051797866821,0.2656005620956421
162,7212947,0.019855059683322906,0.04364042356610298,-2.029813051223755,1.1376111218347593,2.5004120865009583,-116.29972103569314,-0.012023398652672768,0.030884595587849617,0.26115038990974426
170,7212987,0.01541122980415821,0.043220579624176025,-2.020268440246582,0.8829984248844918,2.476356800574408,-115.7528551096069,-0.06840476393699646,0.013372266665101051,0.2533528208732605
181,7213027,0.008716579526662827,0.0418679378926754,-2.0108885765075684,0.4994232186679208,2.3988561381661544,-115.2154285049536,-0.126104936003685,-0.007802562788128853,0.24767252802848816
193,7213047,0.004537659697234631,0.04087730869650841,-2.0062031745910645,0.25998874951815526,2.342097266163348,-114.94697474981542,-0.1546662449836731,-0.019296955317258835,0.24569329619407654
205,7213087,-0.005247087683528662,0.038190510123968124,-1.996535301208496,-0.3006359790012681,2.188155047555016,-114.39304640812739,-0.20887473225593567,-0.043597690761089325,0.24390235543251038
212,7213127,-0.0158939640969038,0.03475531190633774,-1.9869413375854492,-0.9106570624850467,1.991332687893932,-113.84335278372477,-0.25057053565979004,-0.066908098757267,0.2452898621559143
224,7213147,-0.021473301574587822,0.032692257314920425,-1.9820466041564941,-1.2303295524355073,1.8731283669006333,-113.56290521640405,-0.26603129506111145,-0.07877108454704285,0.24679094552993774
236,7213187,-0.03288106992840767,0.028212223201990128,-1.972061276435852,-1.8839465327722873,1.6164413201550918,-112.99078808095626,-0.2867105007171631,-0.10122678428888321,0.25110286474227905
243,7213227,-0.0442686602473259,0.023323798552155495,-1.96199631690979,-2.536407396870337,1.33635521925185,-112.41410837914292,-0.29549503326416016,-0.11929869651794434,0.255320280790329
256,7213247,-0.04982882738113403,0.02092994935810566,-1.9570071697235107,-2.854981507024895,1.1991977636420008,-112.12825130199954,-0.29548531770706177,-0.1259153187274933,0.2561120390892029
267,7213287,-0.06031576916575432,0.016443366184830666,-1.9472721815109253,-3.455839011283029,0.9421354833789315,-111.5704775638088,-0.28706714510917664,-0.13096851110458374,0.25370970368385315
275,7213327,-0.069513238966465,0.012534409761428833,-1.9377301931381226,-3.9828152130627807,0.7181687780174533,-111.0237619018843,-0.26538965106010437,-0.12589704990386963,0.24812021851539612
287,7213347,-0.07362149655818939,0.010810143314301968,-1.932767629623413,-4.218201034221169,0.6193755878410665,-110.73942795692584,-0.24886561930179596,-0.11984951794147491,0.24510134756565094
299,7213387,-0.07998529821634293,0.008277807384729385,-1.9234658479690552,-4.582820010891721,0.47428342676721946,-110.20647512617892,-0.20818640291690826,-0.10263848304748535,0.2403603345155716
308,7213427,-0.08432385325431824,0.006302758120000362,-1.9145616292953491,-4.831400903752927,0.36112143956783,-109.69630097631398,-0.15947502851486206,-0.08304758369922638,0.23519572615623474
320,7213447,-0.08566717803478241,0.005564272403717041,-1.9104100465774536,-4.908367744188862,0.3188093247941002,-109.45843280827911,-0.13337963819503784,-0.07423311471939087,0.23086367547512054
332,7213487,-0.08693228662014008,0.004590469878166914,-1.9032576084136963,-4.980853126755623,0.26301455000089735,-109.04862828826752,-0.080595463514328,-0.056680772453546524,0.21396274864673615
338,7213507,-0.08670220524072647,0.004364704247564077,-1.9004113674163818,-4.967670434770675,0.25007913220824524,-108.8855506916443,-0.05361936241388321,-0.047310344874858856,0.19980673491954803
351,7213547,-0.08451241254806519,0.004557790234684944,-1.8961414098739624,-4.842204555472595,0.2611421443533883,-108.64090014576361,0.0020622331649065018,-0.0272402074187994,0.16130021214485168
367,7213587,-0.08029968291521072,0.0061596897430717945,-1.893507719039917,-4.600832927280337,0.35292422538803625,-108.49000077643052,0.05771263688802719,0.0010694507509469986,0.11759289354085922
371,7213607,-0.07738129794597626,0.007447247859090567,-1.89271080493927,-4.433621785548786,0.4266958713137275,-108.44434096182898,0.08448922634124756,0.017866412177681923,0.0970614105463028
384,7213647,-0.07056037336587906,0.01084690261632204,-1.8914908170700073,-4.042811594732173,0.6214817407046634,-108.37444080586307,0.133831188082695,0.052718520164489746,0.06332065165042877
398,7213687,-0.06274668127298355,0.014275646768510342,-1.8907361030578613,-3.5951200153945173,0.8179343096552147,-108.33119887822772,0.17175373435020447,0.07560060918331146,0.04270879179239273
402,7213707,-0.05855492502450943,0.01623133197426796,-1.8904340267181396,-3.3549500736093587,0.9299868180013002,-108.3138911788709,0.18662209808826447,0.0832677111029625,0.0367046557366848
415,7213747,-0.04996684938669205,0.020247168838977814,-1.8896831274032593,-2.8628895854233,1.1600773215622238,-108.270867817289,0.2072320133447647,0.0943644642829895,0.03187118098139763
429,7213787,-0.041095633059740067,0.024541983380913734,-1.8889909982681274,-2.3546063307414036,1.406152068606564,-108.2312117389679,0.21906280517578125,0.10186605155467987,0.032129719853401184
433,7213807,-0.03666616976261139,0.026775047183036804,-1.8887051343917847,-2.100816778307828,1.5340971998516526,-108.21483294533822,0.22221806645393372,0.10476280748844147,0.032189808785915375
446,7213847,-0.027895906940102577,0.03122628852725029,-1.8883897066116333,-1.5983177333575802,1.7891345424692247,-108.19676026479436,0.22388805449008942,0.10936640948057175,0.029897231608629227
456,7213887,-0.019700730219483376,0.03559458255767822,-1.8885202407836914,-1.1287686949022373,2.0394193540849375,-108.20423932193552,0.21861755847930908,0.11065269261598587,0.022404780611395836
465,7213907,-0.01599128171801567,0.03767494112253189,-1.888789176940918,-0.9162329514470101,2.1586151197249452,-108.21964822870306,0.21228764951229095,0.11002734303474426,0.01714857667684555
478,7213947,-0.009487929753959179,0.04150386154651642,-1.8896948099136353,-0.5436183312184585,2.3779961001107006,-108.27153717582766,0.1901041567325592,0.10420724004507065,0.003972379490733147
492,7213987,-0.004805789329111576,0.044619012624025345,-1.8911226987838745,-0.2753514457871007,2.556481109397593,-108.35334918170606,0.15728537738323212,0.09362519532442093,-0.010090822353959084
496,7214007,-0.0030719528440386057,0.04550851508975029,-1.892025351524353,-0.1760099328266221,2.6074458465501125,-108.4050673741014,0.13819605112075806,0.08432753384113312,-0.017122039571404457
509,7214047,-0.0007772555109113455,0.046796638518571854,-1.893957495689392,-0.0445334603785046,2.6812498825135083,-108.51577108016897,0.09800180792808533,0.05805812031030655,-0.029495373368263245
519,7214087,-0.00017474997730460018,0.04796416312456131,-1.8960076570510864,-0.010012436169560511,2.7481441149143784,-108.63323667351486,0.056124597787857056,0.037907879799604416,-0.037528228014707565
527,7214107,-0.00042780814692378044,0.048563506454229355,-1.8970597982406616,-0.02451160126004525,2.7824839581836756,-108.69351992312939,0.03551619499921799,0.03249681368470192,-0.039752326905727386
540,7214147,-0.0018650220008566976,0.049071017652750015,-1.8992201089859009,-0.10685788934813298,2.8115622079145353,-108.81729661126836,-0.0032862313091754913,0.02445964142680168,-0.04247806966304779
544,7214167,-0.003019035328179598,0.0488014779984951,-1.9003071784973145,-0.17297798250558438,2.796118723314313,-108.8795811063097,-0.0203695110976696,0.016552280634641647,-0.043512824922800064
558,7214207,-0.006189753767102957,0.04804280772805214,-1.9026926755905151,-0.3546467670802017,2.752650118775883,-109.01626002179083,-0.05240044742822647,-0.0022408422082662582,-0.0455307699739933
572,7214247,-0.009618389420211315,0.04633216932415962,-1.9051506519317627,-0.5510931194913913,2.654637757959846,-109.15709169228732,-0.07451791316270828,-0.021268948912620544,-0.04840049147605896
576,7214267,-0.011313478462398052,0.045055363327264786,-1.9063516855239868,-0.6482145675075645,2.5814821630807785,-109.2259058481752,-0.08070514351129532,-0.03256003186106682,-0.04989702254533768
590,7214307,-0.014489579014480114,0.04225178807973862,-1.908532977104187,-0.8301917244510373,2.420849133850184,-109.35088464960809,-0.08427412807941437,-0.05413290858268738,-0.049769602715969086
603,7214347,-0.01705668307840824,0.039076123386621475,-1.910239338874817,-0.9772759528850008,2.2388969497858637,-109.44865197738766,-0.0775829553604126,-0.06901590526103973,-0.044017158448696136
607,7214367,-0.01800294779241085,0.0373222790658474,-1.910870909690857,-1.0314929272995041,2.1384090722825206,-109.48483831961038,-0.0708577036857605,-0.07547791302204132,-0.03934456408023834
623,7214407,-0.019460514187812805,0.033583611249923706,-1.9118176698684692,-1.115005330116133,1.9241991854286997,-109.53908368199862,-0.05396410822868347,-0.08644969761371613,-0.027566619217395782
636,7214447,-0.020284779369831085,0.02974444068968296,-1.9122244119644165,-1.162232246245363,1.7042309154960291,-109.56238828744671,-0.03620762377977371,-0.09317266196012497,-0.014264103025197983
640,7214467,-0.02045539580285549,0.027571141719818115,-1.9122861623764038,-1.1720078477732379,1.579710056902644,-109.56592632543678,-0.027730433270335197,-0.09656845033168793,-0.008180300705134869
654,7214507,-0.020504267886281013,0.0230998657643795,-1.9123847484588623,-1.1748080118895314,1.3235248156176869,-109.57157489188037,-0.012310061603784561,-0.10442063212394714,0.0013800207525491714
667,7214547,-0.0203475933521986,0.018577059730887413,-1.912390947341919,-1.1658312223294307,1.0643871183422857,-109.57193006171721,-0.0014722775667905807,-0.10934491455554962,0.006829958409070969
673,7214567,-0.02019226737320423,0.016391191631555557,-1.9123637676239014,-1.1569316992843155,0.9391461016782873,-109.57037277858645,0.0027822013944387436,-0.11141189187765121,0.007945280522108078
687,7214607,-0.019806789234280586,0.012083813548088074,-1.912490725517273,-1.1348454288294332,0.6923515167284513,-109.57764693005251,0.0082632414996624,-0.11160381138324738,0.00851752981543541
700,7214647,-0.019293297082185745,0.008171258494257927,-1.9127517938613892,-1.105424495701309,0.46817862503140323,-109.59260504433485,0.011754021048545837,-0.10747171193361282,0.006300501525402069
704,7214667,-0.019094757735729218,0.006474491208791733,-1.9129433631896973,-1.0940490290820644,0.370961020758321,-109.60358115833105,0.012633295729756355,-0.1027289479970932,0.004480302333831787
718,7214707,-0.018863601610064507,0.0034933595452457666,-1.9136754274368286,-1.0808047586728806,0.20015475826432297,-109.6455253500241,0.011279530823230743,-0.09007709473371506,-0.0009548813104629517
731,7214747,-0.019269874319434166,0.0014893474290147424,-1.9146963357925415,-1.1040824702511072,0.0853333219112047,-109.70401909007609,0.004003345966339111,-0.07152295112609863,-0.00799534097313881
735,7214767,-0.019600775092840195,0.0008211544482037425,-1.9153180122375488,-1.1230416880048875,0.04704868421046841,-109.7396385265977,-0.0013502929359674454,-0.06113092601299286,-0.012016486376523972
749,7214807,-0.020604878664016724,8.655322744743899e-05,-1.9168156385421753,-1.1805725848273165,0.004959134635974129,-109.82544619314058,-0.012720972299575806,-0.0383475199341774,-0.019639866426587105
753,7214827,-0.021176112815737724,6.485734775196761e-05,-1.917604923248291,-1.2133018908346656,0.0037160522966000415,-109.87066887563523,-0.018041841685771942,-0.027013756334781647,-0.022696908563375473
766,7214867,-0.02249639853835106,0.0005296831368468702,-1.9192066192626953,-1.2889486904917897,0.030348608220576084,-109.96243929732353,-0.02634383551776409,-0.005203975364565849,-0.02739599533379078
781,7214907,-0.02397749200463295,0.001559233758598566,-1.920907974243164,-1.3738090951741437,0.08933751364201807,-110.05991975715794,-0.03257886320352554,0.013488123193383217,-0.02997276932001114
785,7214927,-0.024843810126185417,0.0023044785484671593,-1.92173433303833,-1.4234454672548016,0.13203689480560235,-110.10726662848447,-0.03507089987397194,0.021337421610951424,-0.030333589762449265
798,7214967,-0.02680266462266445,0.004148142412304878,-1.9233022928237915,-1.5356795625832742,0.23767105304428573,-110.19710410663765,-0.04081452265381813,0.035869356244802475,-0.029699141159653664
812,7215007,-0.02880537137389183,0.006323917303234339,-1.9248700141906738,-1.6504262070309594,0.36233377146508083,-110.2869279244125,-0.04573417454957962,0.04739128053188324,-0.02794884890317917
816,7215027,-0.02987675368785858,0.007518032565712929,-1.9255869388580322,-1.7118118918662144,0.43075153625726054,-110.32800468208094,-0.04764422029256821,0.05233229324221611,-0.026784904301166534
829,7215067,-0.03184683248400688,0.009883544407784939,-1.9269887208938599,-1.8246890921937262,0.5662853811962036,-110.40832087653112,-0.04896187409758568,0.05832424759864807,-0.024349477142095566
843,7215107,-0.03367353230714798,0.012400421313941479,-1.9284443855285645,-1.929351282497005,0.7104918054729176,-110.49172431648616,-0.04749363660812378,0.061923764646053314,-0.02288743294775486
847,7215127,-0.034541722387075424,0.013747885823249817,-1.9291797876358032,-1.979094909891973,0.7876958348999518,-110.53385975347597,-0.04605032503604889,0.06335590779781342,-0.022602003067731857
860,7215167,-0.03607138246297836,0.01691892370581627,-1.930672287940979,-2.066737976330873,0.9693829222471106,-110.61937372188451,-0.04118610918521881,0.07003241032361984,-0.022836735472083092
874,7215207,-0.03704920783638954,0.02050311490893364,-1.9322144985198975,-2.122763243328137,1.1747419511536528,-110.70773587917698,-0.03364112973213196,0.07989108562469482,-0.023319914937019348
881,7215227,-0.037346482276916504,0.02252950705587864,-1.9329684972763062,-2.139795814127445,1.2908456688120549,-110.7509368256773,-0.028176330029964447,0.08570961654186249,-0.023323075845837593
892,7215267,-0.0375368669629097,0.027038801461458206,-1.934447169303894,-2.150704053118778,1.5492092068337175,-110.83565849214214,-0.015452515333890915,0.09987425804138184,-0.023031551390886307
906,7215307,-0.03691888973116875,0.032036665827035904,-1.9360336065292358,-2.1152965659048437,1.8355657415601483,-110.92655464961668,0.00041265785694122314,0.11385478079319,-0.022997453808784485
910,7215327,-0.036449313163757324,0.034724146127700806,-1.9368374347686768,-2.0883918104339285,1.9895470203127967,-110.97261061519006,0.00865917094051838,0.12075990438461304,-0.02312745898962021
923,7215367,-0.03490833565592766,0.040284495800733566,-1.938551902770996,-2.000100302910701,2.308131589194521,-111.0708423958332,0.026109633967280388,0.13219542801380157,-0.024591412395238876
939,7215407,-0.033045705407857895,0.04563901945948601,-1.9403902292251587,-1.893379450902898,2.614923196143984,-111.17617074302396,0.0405254140496254,0.13681909441947937,-0.027006929740309715
943,7215427,-0.03201732039451599,0.04818550497293472,-1.9412884712219238,-1.8344573299239022,2.7608260686557995,-111.22763621842,0.04607010260224342,0.13668972253799438,-0.02818349376320839
956,7215467,-0.029777608811855316,0.052787333726882935,-1.9431082010269165,-1.7061313089108794,3.024491434298979,-111.33189905610026,0.054790198802948,0.13020047545433044,-0.030374549329280853
965,7215487,-0.028604915365576744,0.054946884512901306,-1.9440479278564453,-1.6389409237764658,3.1482245799819912,-111.38574143732747,0.057848453521728516,0.12460207939147949,-0.031200263649225235
974,7215527,-0.026183849200606346,0.058311644941568375,-1.9459478855133057,-1.5002240506017381,3.3410111516172436,-111.49460099231912,0.06239335611462593,0.10850729048252106,-0.0330338254570961
989,7215567,-0.023956773802638054,0.060783788561820984,-1.9476922750473022,-1.3726220296407368,3.4826545474079103,-111.59454715044392,0.06356799602508545,0.08596273511648178,-0.03367741405963898
1002,7215587,-0.02304687909781933,0.06154288724064827,-1.9485342502593994,-1.3204889032533218,3.5261476979386708,-111.64278877655173,0.06149163842201233,0.07372806966304779,-0.03304169699549675
1007,7215627,-0.021685970947146416,0.061920538544654846,-1.9500969648361206,-1.24251460991481,3.5477855237858593,-111.73232572638142,0.051853395998477936,0.042400673031806946,-0.030741624534130096
1020,7215667,-0.021312689408659935,0.06096857786178589,-1.951280117034912,-1.2211271531893846,3.4932421943950764,-111.8001153538938,0.03444021940231323,0.009337343275547028,-0.026766369119286537
1029,7215687,-0.021352672949433327,0.05997588485479355,-1.9517639875411987,-1.2234180413256892,3.4363650747422647,-111.82783909173487,0.023945145308971405,-0.008333560079336166,-0.02367670089006424
1038,7215727,-0.022092634811997414,0.05722270533442497,-1.9522606134414673,-1.2658147330512508,3.2786195079832927,-111.85629365981715,0.002471957355737686,-0.04164290428161621,-0.014765199273824692
1051,7215767,-0.023395434021949768,0.053436748683452606,-1.9522027969360352,-1.3404596293344988,3.0617001704630926,-111.8529810180697,-0.01677805371582508,-0.07157440483570099,-0.00308257807046175
1058,7215787,-0.02427721582353115,0.051361650228500366,-1.9520288705825806,-1.390982005016554,2.942805786920211,-111.84301577207064,-0.025526998564600945,-0.08388592302799225,0.003155956044793129
1069,7215827,-0.02657492831349373,0.04676031693816185,-1.951293706893921,-1.5226312332259053,2.67916880925077,-111.80089399545918,-0.042679280042648315,-0.10320109128952026,0.015669092535972595
1082,7215867,-0.02933344431221485,0.04197373613715172,-1.9502462148666382,-1.6806825576719409,2.4049179310545408,-111.74087712322228,-0.057832080870866776,-0.11624053120613098,0.02607106603682041
1093,7215887,-0.030801165848970413,0.03957356512546539,-1.9496949911117554,-1.76477680722849,2.267398261975269,-111.70929432850014,-0.06442233920097351,-0.11949113011360168,0.03014172986149788
1101,7215927,-0.03381874039769173,0.03485286608338356,-1.9483327865600586,-1.9376710932363153,1.9969221305125295,-111.6312457568544,-0.07298252731561661,-0.120987169444561,0.03666459769010544
1114,7215967,-0.03661465644836426,0.030611606314778328,-1.9467458724975586,-2.0978652828127364,1.7539158459528177,-111.5403222786232,-0.0747595727443695,-0.11590545624494553,0.0420561358332634
1121,7215987,-0.037781618535518646,0.02863055095076561,-1.9459320306777954,-2.1647272852584605,1.6404097346131359,-111.4936925771595,-0.07263109087944031,-0.11241531372070312,0.044498126953840256
1139,7216027,-0.03987877070903778,0.02513188309967518,-1.9442100524902344,-2.2848852537977944,1.439950832827549,-111.39503049459867,-0.06415031850337982,-0.102243572473526,0.04867120832204819
1145,7216067,-0.0415041409432888,0.022381490096449852,-1.942331075668335,-2.3780121083665677,1.2823649217404263,-111.28737305290093,-0.05273664742708206,-0.08752988278865814,0.05217781662940979
1152,7216087,-0.042209938168525696,0.021304018795490265,-1.9413832426071167,-2.418451310564686,1.220630363648972,-111.23306621881017,-0.04705324023962021,-0.07891905307769775,0.053717028349637985
1163,7216127,-0.043318793177604675,0.01951979286968708,-1.9393110275268555,-2.481984022676852,1.1184017484026274,-111.11433704046783,-0.036501795053482056,-0.061372410506010056,0.05742402374744415
1175,7216147,-0.043783824890851974,0.01885966584086418,-1.9381815195083618,-2.5086283771856603,1.0805792557085645,-111.04962099808196,-0.03172775357961655,-0.0530824214220047,0.0598473995923996
1183,7216187,-0.044351983815431595,0.01769014075398445,-1.9356945753097534,-2.5411814856567645,1.013570404195685,-110.90712959161716,-0.022772982716560364,-0.03949794918298721,0.065845787525177
1194,7216227,-0.04462139308452606,0.016845542937517166,-1.932692527770996,-2.5566174997375817,0.9651785139261446,-110.73512493774872,-0.013421036303043365,-0.030362162739038467,0.07413113117218018
1207,7216247,-0.04465546831488609,0.01654336228966713,-1.9310050010681152,-2.5585698666231473,0.9478648381538086,-110.63843677985803,-0.00949106551706791,-0.026101430878043175,0.07933340221643448
1215,7216287,-0.04434722289443016,0.01605631224811077,-1.9273779392242432,-2.540908704976787,0.9199589263609579,-110.43062144417122,-0.0008382238447666168,-0.020125918090343475,0.09056524932384491
1226,7216327,-0.04404652491211891,0.01608174853026867,-1.9233777523040771,-2.523679979682253,0.9214163179751094,-110.20142761638228,0.0056040044873952866,-0.012622636742889881,0.10199878364801407
1238,7216347,-0.043935343623161316,0.016252053901553154,-1.9212602376937866,-2.5173097610641584,0.9311740969781188,-110.08010296615534,0.006829440593719482,-0.008366566151380539,0.10725340992212296
1254,7216387,-0.04414363577961922,0.016978571191430092,-1.916775107383728,-2.5292440225348747,0.97280047143135,-109.82312392882277,0.003921139985322952,0.001796754077076912,0.11686041951179504
1259,7216427,-0.04449296370148659,0.017876163125038147,-1.9122068881988525,-2.549259038123951,1.0242287009520783,-109.56138424963872,-0.003033747896552086,0.011830475181341171,0.12382375448942184
1271,7216447,-0.04474090039730072,0.01844976283609867,-1.9098392724990845,-2.5634647643805195,1.0570935435257698,-109.42572986253309,-0.006300995126366615,0.015496362000703812,0.12616847455501556
1285,7216487,-0.045176826417446136,0.019377922639250755,-1.9049851894378662,-2.5884414855147866,1.1102731829600776,-109.14761138971934,-0.011247070506215096,0.02001420222222805,0.12939803302288055
1290,7216527,-0.04523025453090668,0.0200424212962389,-1.9002177715301514,-2.591502690923422,1.1483461514976097,-108.8744584644322,-0.009608810767531395,0.0169043131172657,0.13106045126914978
1302,7216547,-0.04514666646718979,0.02028542198240757,-1.8977783918380737,-2.5867134476547733,1.1622690652338574,-108.73469230344622,-0.006994163617491722,0.014772189781069756,0.13155387341976166
1313,7216587,-0.044523149728775024,0.02047669142484665,-1.8928709030151367,-2.5509885700878447,1.1732279970354371,-108.45351390588431,0.002242790535092354,0.007505927234888077,0.13261200487613678
1323,7216627,-0.04367123171687126,0.020657744258642197,-1.8879218101501465,-2.5021772635145836,1.1836015602808057,-108.16995177230206,0.011910174041986465,0.0019850917160511017,0.13419301807880402
1346,7216647,-0.043032169342041016,0.020486826077103615,-1.885448932647705,-2.4655616865912027,1.173808669836594,-108.02826632815932,0.01683693379163742,-0.0013442430645227432,0.13463181257247925
1349,7216687,-0.04148872196674347,0.020269611850380898,-1.880500316619873,-2.377128666086109,1.1613632113951844,-107.74473151533374,0.027645889669656754,-0.008466037921607494,0.13479632139205933
1361,7216727,-0.039411697536706924,0.01991984061896801,-1.8755561113357544,-2.2581239322994495,1.1413227960401324,-107.46144941950746,0.03839123994112015,-0.01156525406986475,0.13478180766105652
1367,7216747,-0.03820718452334404,0.019861139357089996,-1.8730679750442505,-2.1891104202651714,1.13795946148243,-107.31888971115096,0.0447801873087883,-0.012556355446577072,0.1346295177936554
1374,7216787,-0.035395827144384384,0.020103732123970985,-1.8680528402328491,-2.028031507747822,1.1518590031651117,-107.03154365276852,0.05700191110372543,-0.007944339886307716,0.13417725265026093
1384,7216807,-0.03373706340789795,0.02026035264134407,-1.865639567375183,-1.9329913464377986,1.1608326977957448,-106.89327330321079,0.06355873495340347,-0.004803929477930069,0.13380256295204163
1397,7216847,-0.03043091669678688,0.021188348531723022,-1.860837697982788,-1.7435630934400765,1.214002945719944,-106.6181464532535,0.07510334253311157,0.004901345819234848,0.13290216028690338
1404,7216887,-0.026901306584477425,0.022417675703763962,-1.856156587600708,-1.5413313306780483,1.2844382043186426,-106.34993858492544,0.08273891359567642,0.01706906035542488,0.13125400245189667
1416,7216907,-0.02530548721551895,0.023275427520275116,-1.8538424968719482,-1.4498976159714974,1.3335837632744114,-106.21735095275716,0.08437730371952057,0.023236416280269623,0.13026948273181915
1429,7216947,-0.022231057286262512,0.025171611458063126,-1.849316120147705,-1.2737457566163992,1.4422271000901614,-105.95800866997176,0.08211489021778107,0.03590410202741623,0.12801584601402283
1437,7216987,-0.01970471255481243,0.027293086051940918,-1.844903588294983,-1.1289968659091982,1.5637786406635894,-105.70518921784375,0.07427658140659332,0.04443172365427017,0.12518087029457092
1447,7217007,-0.018645700067281723,0.0283717792481184,-1.8427654504776,-1.068319919922038,1.6255832081940365,-105.5826829448904,0.06812205910682678,0.048146527260541916,0.12372568994760513
1460,7217047,-0.016907284036278725,0.0302337184548378,-1.8385237455368042,-0.9687160183076824,1.7322644664489946,-105.33965115384301,0.05460658669471741,0.04991449788212776,0.12056776881217957
1471,7217087,-0.016033215448260307,0.03198492154479027,-1.8343162536621094,-0.9186355772092679,1.8326010125735397,-105.0985796270874,0.0371449775993824,0.047258563339710236,0.11719963699579239
1478,7217107,-0.015919756144285202,0.03253573551774025,-1.8323789834976196,-0.9121348379450025,1.8641603285204067,-104.98758222288552,0.027683967724442482,0.04336543381214142,0.1152200847864151
1491,7217147,-0.01660141348838806,0.0335124172270298,-1.8285194635391235,-0.9511909268361932,1.9201200683903212,-104.76644801831719,0.005275284871459007,0.033211223781108856,0.1110825166106224
1502,7217187,-0.018211819231510162,0.03352110832929611,-1.8248549699783325,-1.0434603792207187,1.9206180318694974,-104.556488003231,-0.01976657472550869,0.018645817413926125,0.10676878690719604
1509,7217207,-0.019453560933470726,0.03326205909252167,-1.8230681419372559,-1.1146069379884507,1.9057756039162366,-104.45411029776169,-0.03261879086494446,0.009469909593462944,0.10469889640808105
1523,7217247,-0.02260771207511425,0.0321170948445797,-1.8195849657058716,-1.295326486350995,1.8401739848157912,-104.25453900040308,-0.05902045965194702,-0.010005882941186428,0.10069683194160461
1535,7217287,-0.02644350565969944,0.02997051365673542,-1.8161609172821045,-1.5151012698310837,1.7171839423701352,-104.0583554768728,-0.08170568943023682,-0.03323506936430931,0.09714393317699432
1541,7217307,-0.02852778695523739,0.028598008677363396,-1.8144465684890747,-1.6345217913834675,1.6385451996914282,-103.96013052641885,-0.09146919846534729,-0.04449416324496269,0.09610013663768768
1554,7217347,-0.0329398550093174,0.025109268724918365,-1.8108675479888916,-1.88731466980675,1.4386551245976564,-103.75506775696755,-0.10530080646276474,-0.06839435547590256,0.09499199688434601
1566,7217387,-0.037247251719236374,0.021225357428193092,-1.8073294162750244,-2.134110321973644,1.2161233992921154,-103.55234774240158,-0.11125335097312927,-0.08706687390804291,0.09525083005428314
1574,7217407,-0.03924219682812691,0.019078588113188744,-1.805561900138855,-2.248412257073338,1.0931225779541756,-103.4510765275778,-0.11086352169513702,-0.09513960033655167,0.09545114636421204
1587,7217447,-0.04296314716339111,0.014719795435667038,-1.8019315004348755,-2.4616070070617653,0.8433821537596542,-103.24306994659423,-0.10509878396987915,-0.10757909715175629,0.09599032998085022
1591,7217467,-0.044518113136291504,0.012588909827172756,-1.8000986576080322,-2.5506999945954116,0.7212914017677655,-103.13805578810528,-0.09988562762737274,-0.1110844835639,0.09645049273967743
1605,7217507,-0.04714508727192879,0.008870208635926247,-1.7965296506881714,-2.7012145254574556,0.5082255182390689,-102.93356675454427,-0.0850638821721077,-0.10976001620292664,0.09708452969789505
1618,7217547,-0.04877055808901787,0.006155556533485651,-1.7931472063064575,-2.7943471429983413,0.3526874099229072,-102.73976696703433,-0.06462809443473816,-0.0959397703409195,0.09593807905912399
1624,7217567,-0.04923410713672638,0.005274736322462559,-1.7915455102920532,-2.8209065470293475,0.3022201293214615,-102.64799654534603,-0.05270448327064514,-0.08450064063072205,0.09432326257228851
1638,7217607,-0.04931901767849922,0.004583247005939484,-1.7886698246002197,-2.8257715627091007,0.26260070990630335,-102.48323189199782,-0.027300208806991577,-0.054719194769859314,0.08944690227508545
1652,7217647,-0.048407647758722305,0.005375113803893328,-1.7859283685684204,-2.7735539127307067,0.30797133536559734,-102.32615803165504,-9.977445006370544e-05,-0.019105784595012665,0.08376187831163406
1655,7217667,-0.047651506960392,0.006319791544228792,-1.784670352935791,-2.7302302362687274,0.36209738288677495,-102.2540790453439,0.012001920491456985,-0.0004149340093135834,0.08116380870342255
1669,7217707,-0.045630697160959244,0.008954149670898914,-1.782265543937683,-2.6144463635625526,0.5130349852709628,-102.11629363921723,0.03404124453663826,0.03468400985002518,0.07730213552713394
1682,7217747,-0.04319785162806511,0.01269998773932457,-1.7798161506652832,-2.4750545823204626,0.7276556973311894,-101.97595374234098,0.050991177558898926,0.06607145816087723,0.0758192166686058
1686,7217767,-0.04182937741279602,0.014866613782942295,-1.7785037755966187,-2.3966467854130666,0.8517942254136125,-101.9007601897683,0.05742029845714569,0.07979200780391693,0.07613613456487656
1700,7217807,-0.03893033042550087,0.019367167726159096,-1.7759076356887817,-2.2305436284309383,1.1096569718308955,-101.75201233002376,0.06729614734649658,0.10015541315078735,0.07853026688098907
1713,7217847,-0.0359264612197876,0.023722315207123756,-1.7730646133422852,-2.0584346007342527,1.3591885416472025,-101.58911914850813,0.07281261682510376,0.1093648225069046,0.08246196806430817
1717,7217867,-0.034489791840314865,0.02574148215353489,-1.771573543548584,-1.9761195087347863,1.4748782858088785,-101.50368714236961,0.0738859474658966,0.10939837992191315,0.08440588414669037
1732,7217907,-0.03193090111017227,0.029230691492557526,-1.7685766220092773,-1.829505869662466,1.6747952547725071,-101.33197618663549,0.07128863036632538,0.10129859298467636,0.08800950646400452
1745,7217947,-0.030083410441875458,0.03174326941370964,-1.7652162313461304,-1.7236524516792546,1.8187553653522774,-101.139439984122,0.06012486293911934,0.08316370844841003,0.09153689444065094
1749,7217967,-0.02955913357436657,0.032499004155397415,-1.7634674310684204,-1.693613599874656,1.8620557764823964,-101.03924110899791,0.05157602205872536,0.0709618628025055,0.09354303777217865
1763,7218007,-0.029014185070991516,0.03281280770897865,-1.759987711906433,-1.6623903505792947,1.8800353956988087,-100.83986788712524,0.03142667934298515,0.04016917943954468,0.09728924930095673
1776,7218047,-0.02931862697005272,0.031643688678741455,-1.7562795877456665,-1.6798335865024494,1.8130498095177896,-100.62740802280283,0.009695811197161674,0.004036178812384605,0.10059740394353867
1780,7218067,-0.029787417501211166,0.030588088557124138,-1.7543343305587769,-1.7066933054135245,1.752568377695621,-100.51595299592655,-0.0013467930257320404,-0.014559859409928322,0.10200858116149902
1794,7218107,-0.0313248410820961,0.027660829946398735,-1.7504960298538208,-1.7947811879221212,1.5848488137577266,-100.29603456503048,-0.022623805329203606,-0.04926089569926262,0.10477886348962784
1798,7218127,-0.032302603125572205,0.025905627757310867,-1.748579502105713,-1.850802826381389,1.4842831361308688,-100.1862256137442,-0.032811153680086136,-0.06418125331401825,0.10554078966379166
1811,7218167,-0.03461933135986328,0.022222721949219704,-1.744787335395813,-1.983541576485063,1.2732681769830272,-99.96895046605692,-0.04953768104314804,-0.08625760674476624,0.10520122945308685
1825,7218207,-0.037073004990816116,0.018827058374881744,-1.7412549257278442,-2.124126719841201,1.0787109855271544,-99.7665583005711,-0.060094259679317474,-0.09372223168611526,0.10166200250387192
1835,7218227,-0.03817249834537506,0.01748969405889511,-1.7396540641784668,-2.1871230486601094,1.00208565454972,-99.674835690207,-0.06189613789319992,-0.09127925336360931,0.09868302941322327
1843,7218267,-0.03991001844406128,0.01579991914331913,-1.7367573976516724,-2.2866756171339837,0.9052686835601415,-99.50886892356486,-0.05782392621040344,-0.07462969422340393,0.0906427875161171
1857,7218307,-0.04080387204885483,0.015525367110967636,-1.7342185974121094,-2.337889656191209,0.8895380108496616,-99.3634063848111,-0.044145893305540085,-0.045052215456962585,0.08221710473299026
1861,7218327,-0.04092387109994888,0.015995729714632034,-1.7329933643341064,-2.344765095364473,0.9164878028804163,-99.29320570052171,-0.03471442684531212,-0.027255361899733543,0.07882454246282578
1874,7218367,-0.0403752401471138,0.01802370883524418,-1.7304940223693848,-2.3133308572567817,1.0326824474321443,-99.15000395438322,-0.012159781530499458,0.011411566287279129,0.07509657740592957
1890,7218407,-0.038804445415735245,0.021187229081988335,-1.7280018329620361,-2.223330948667405,1.213938805974769,-99.00721201959493,0.01367108803242445,0.04801679030060768,0.07514767348766327
1894,7218427,-0.0376608669757843,0.02299751341342926,-1.7266526222229004,-2.1578087305160607,1.3176604578849962,-98.92990793856873,0.02652890793979168,0.06359036266803741,0.07640217989683151
1908,7218467,-0.03465241193771362,0.0266385730355978,-1.7238843441009521,-1.9854369539797416,1.5262778071907517,-98.7712972856627,0.051866620779037476,0.08361131697893143,0.07980640232563019
1921,7218507,-0.03075527213513851,0.03028779849410057,-1.7209762334823608,-1.7621472911197407,1.7353630244546532,-98.60467482086023,0.07535401731729507,0.09124848991632462,0.083576999604702
1925,7218527,-0.02855391427874565,0.03181872144341469,-1.719466209411621,-1.636018776750464,1.8230784482100726,-98.51815681464367,0.08582551777362823,0.08996141701936722,0.08526171743869781
1940,7218567,-0.024063080549240112,0.034562721848487854,-1.7162578105926514,-1.3787129575548014,1.9802980904029532,-98.33432910332196,0.10225696861743927,0.08120005577802658,0.08908388018608093
1954,7218607,-0.01933792419731617,0.035730957984924316,-1.7130969762802124,-1.1079814410501267,2.047233090495432,-98.15322663747907,0.11204506456851959,0.06036355718970299,0.09203291684389114
1958,7218627,-0.017039412632584572,0.035857416689395905,-1.7115254402160645,-0.9762864292289952,2.054478640544346,-98.06318425365079,0.11452531069517136,0.04540164768695831,0.09260164946317673
1971,7218667,-0.012747608125209808,0.035073086619377136,-1.7083934545516968,-0.7303841444611979,2.00953983778707,-97.88373469358704,0.11299466341733932,0.012441493570804596,0.09201698005199432
1985,7218707,-0.009071455337107182,0.03301617503166199,-1.7055803537368774,-0.519756104857667,1.891687484979439,-97.72255588955308,0.10427708923816681,-0.02201036922633648,0.08854825049638748
1989,7218727,-0.007663925178349018,0.03159487619996071,-1.7042827606201172,-0.43911056722344544,1.8102530604960811,-97.6482092804375,0.09646633267402649,-0.03824547678232193,0.0857997015118599
2002,7218767,-0.0055282884277403355,0.02774505503475666,-1.701914668083191,-0.3167475948405348,1.5896745558497523,-97.5125275725752,0.07494843751192093,-0.06904234737157822,0.07777829468250275
2012,7218787,-0.004918551538139582,0.025627387687563896,-1.7009620666503906,-0.28181224445297737,1.4683411544429417,-97.45794753091762,0.06228683143854141,-0.08247929811477661,0.07295235246419907
2020,7218827,-0.004691519308835268,0.02077132649719715,-1.6992816925048828,-0.26880425590039386,1.1901093431776526,-97.36166918437712,0.033579230308532715,-0.10516352951526642,0.06285722553730011
2033,7218867,-0.005553589668124914,0.01573932357132435,-1.6976951360702515,-0.3181972491310171,0.9017968130276593,-97.27076619671342,0.0037806015461683273,-0.12087059020996094,0.054604895412921906
2047,7218887,-0.006229565013200045,0.01322279591113329,-1.696953296661377,-0.3569277834587215,0.7576103990707794,-97.22826192950843,-0.010078486055135727,-0.12482017278671265,0.0520569309592247
2052,7218927,-0.008216495625674725,0.00861196219921112,-1.695275902748108,-0.4707705217388644,0.4934290873409999,-97.13215433769719,-0.03333128243684769,-0.12508952617645264,0.0503680594265461
2065,7218967,-0.01098751649260521,0.004943056032061577,-1.693368911743164,-0.6295383223566637,0.28321624853381167,-97.02289180154449,-0.05379427969455719,-0.11313126236200333,0.05277729779481888
2078,7218987,-0.012704449705779552,0.0035011200234293938,-1.6923521757125854,-0.7279113491773889,0.20059940091124817,-96.96463711811344,-0.06348448991775513,-0.10341669619083405,0.05517116189002991
2083,7219027,-0.016914842650294304,0.0017772017745301127,-1.6900190114974976,-0.9691490949897434,0.10182616102373598,-96.83095665567797,-0.08457227051258087,-0.07656031847000122,0.06184457242488861
2096,7219067,-0.02189771458506584,0.0014157859841361642,-1.6872411966323853,-1.2546466267063394,0.08111856158477793,-96.67179958763832,-0.10599026083946228,-0.042748481035232544,0.07011277973651886
2104,7219087,-0.024472897872328758,0.001809906680136919,-1.6858491897583008,-1.4021937605391301,0.10370001408437973,-96.59204346870008,-0.11487322300672531,-0.024779193103313446,0.07432954013347626
2114,7219127,-0.02998041920363903,0.0037323934957385063,-1.6830015182495117,-1.717751488401481,0.21385039478789603,-96.42888390980681,-0.12922003865242004,0.012049373239278793,0.08125647902488708
2127,7219167,-0.03584514185786247,0.006869495380669832,-1.6801813840866089,-2.0537753445032463,0.3935930926969962,-96.26730212461183,-0.13971948623657227,0.047770220786333084,0.08451087027788162
2140,7219187,-0.03890955075621605,0.008866513147950172,-1.6788878440856934,-2.2293530410812403,0.5080137823747986,-96.19318774192801,-0.14438524842262268,0.06440076231956482,0.08477308601140976
2149,7219227,-0.045341651886701584,0.013365969061851501,-1.676491618156433,-2.597885289259387,0.7658136163465235,-96.05589410942159,-0.15385837852954865,0.09238871932029724,0.08240005373954773
2159,7219267,-0.0518348291516304,0.018311187624931335,-1.6744160652160645,-2.9699169421701077,1.0491537687807473,-95.9369736857825,-0.16116927564144135,0.11173414438962936,0.07666747272014618
2169,7219287,-0.05486857891082764,0.020888665691018105,-1.6735877990722656,-3.1437379994709387,1.1968323837550607,-95.88951753142925,-0.1617884635925293,0.11863894015550613,0.072735495865345
2177,7219327,-0.06032159551978111,0.025972748175263405,-1.6722338199615479,-3.456172836778713,1.4881288527987033,-95.81194024283624,-0.1549740880727768,0.12585967779159546,0.06326542049646378
2190,7219367,-0.06477092951536179,0.031030450016260147,-1.671127438545227,-3.711100896369565,1.7779138223233633,-95.74854925714936,-0.1360102891921997,0.12717823684215546,0.05340064316987991
2198,7219387,-0.06636463105678558,0.033269695937633514,-1.6707568168640137,-3.8024132684966423,1.9062131629099406,-95.72731419901979,-0.12254293262958527,0.1245729923248291,0.04870915412902832
2210,7219427,-0.06861063838005066,0.037254299968481064,-1.670102834701538,-3.931100008875206,2.134514156908321,-95.6898437812331,-0.09041029214859009,0.11360263079404831,0.04054149240255356
2223,7219447,-0.0692487508058548,0.03910344839096069,-1.6697884798049927,-3.9676611577286383,2.2404625572096775,-95.67183257239178,-0.07335701584815979,0.10706483572721481,0.03744598850607872
2229,7219487,-0.06926842033863068,0.042228274047374725,-1.6692479848861694,-3.9687881389416906,2.4195018790363987,-95.64086449469494,-0.03759721666574478,0.09240967035293579,0.032751839607954025
2241,7219527,-0.06748276203870773,0.04459989070892334,-1.6687904596328735,-3.8664774547036,2.5553855043660407,-95.61465022866042,0.0025972742587327957,0.07561252266168594,0.029545515775680542
2253,7219547,-0.06586963683366776,0.04539288580417633,-1.668596863746643,-3.774052188628634,2.6008207764986118,-95.60355800144833,0.024507349357008934,0.06591413915157318,0.02790890261530876
2269,7219587,-0.06129947304725647,0.04637117311358452,-1.6682870388031006,-3.5122010919837394,2.6568725104789097,-95.58580633979547,0.0707329660654068,0.04415379464626312,0.02410081960260868
2274,7219627,-0.055208347737789154,0.04652046039700508,-1.6680370569229126,-3.163205319265945,2.6654260417538813,-95.57148343310595,0.11467467993497849,0.02239825204014778,0.02053828164935112
2286,7219647,-0.05182632431387901,0.0461411327123642,-1.667901635169983,-2.9694296508615095,2.643692166371489,-95.56372433820881,0.1334323287010193,0.010789638385176659,0.01894703134894371
2300,7219687,-0.0445576086640358,0.0447133369743824,-1.6675920486450195,-2.5529629216448018,2.5618854965783653,-95.54598633693429,0.16349457204341888,-0.013885695487260818,0.016987713053822517
2305,7219727,-0.03675423189997673,0.04218779504299164,-1.6671075820922852,-2.1058623671137635,2.4171826029263563,-95.51822844814735,0.18334287405014038,-0.0401092991232872,0.017634466290473938
2317,7219747,-0.03278781473636627,0.0406552292406559,-1.6667438745498657,-1.8786034038506334,2.3293730506264376,-95.49738954098964,0.19032223522663116,-0.05254384130239487,0.019148003309965134
2326,7219787,-0.024930013343691826,0.03721629083156586,-1.6658422946929932,-1.428384547798367,2.1323363937801445,-95.44573282029684,0.19707155227661133,-0.07357203960418701,0.02418489381670952
2336,7219827,-0.017680907621979713,0.0333203561604023,-1.6646543741226196,-1.0130413847001263,1.9091157798637843,-95.37766998521766,0.19355599582195282,-0.0894530713558197,0.031510576605796814
2348,7219847,-0.014515656046569347,0.031359102576971054,-1.6639366149902344,-0.8316858283319776,1.7967442269782652,-95.33654541622502,0.18693304061889648,-0.09462767839431763,0.03548310324549675
2356,7219887,-0.009273014031350613,0.027567163109779358,-1.6624091863632202,-0.5313045673619834,1.579482099339095,-95.24903020238965,0.1629033237695694,-0.09920458495616913,0.04269545525312424
2368,7219927,-0.005692753940820694,0.023868247866630554,-1.6607346534729004,-0.326170774615493,1.3675498671300617,-95.15308653511848,0.12630830705165863,-0.09728635102510452,0.04856939613819122
2380,7219947,-0.004590205382555723,0.02215672843158245,-1.6598615646362305,-0.2629993955186764,1.2694870269471905,-95.1030622296373,0.1054612249135971,-0.09458229690790176,0.05073728412389755
2387,7219987,-0.003733152523636818,0.01883929781615734,-1.658101201057434,-0.21389388388300196,1.0794122538558444,-95.00220082616373,0.061640217900276184,-0.08869563043117523,0.05374108999967575
2399,7220027,-0.00439651170745492,0.015807509422302246,-1.6564366817474365,-0.2519015654170222,0.9057035745112009,-94.90683089478284,0.018290149047970772,-0.08187828212976456,0.05473577231168747
2411,7220047,-0.005332667380571365,0.014426618814468384,-1.6555458307266235,-0.3055393344538232,0.8265843707130656,-94.85578889111534,-0.0022405628114938736,-0.0785304605960846,0.0547216422855854
2422,7220087,-0.008506248705089092,0.011988123878836632,-1.6537933349609375,-0.4873721502902266,0.6868689025373409,-94.75537828012698,-0.04309958964586258,-0.07010123133659363,0.05478335916996002
2429,7220107,-0.010733512230217457,0.010812045074999332,-1.6529206037521362,-0.614984950143512,0.6194845507026694,-94.70537446521331,-0.06385976821184158,-0.0659615769982338,0.055068086832761765
2442,7220147,-0.016464363783597946,0.00883472803980112,-1.650972604751587,-0.9433385571682058,0.506192629826491,-94.59376234398613,-0.10597672313451767,-0.05774572491645813,0.056582458317279816
2453,7220187,-0.0236290842294693,0.007108059246093035,-1.648879885673523,-1.3538468001077237,0.4072617953300727,-94.47385837310657,-0.14731286466121674,-0.04988515377044678,0.0596078559756279
2460,7220207,-0.02780488319694996,0.0063916901126503944,-1.6477254629135132,-1.5931024570394523,0.3662168674103653,-94.40771482118416,-0.1664406955242157,-0.045653410255908966,0.06167313829064369
2474,7220247,-0.036285702139139175,0.005180466454476118,-1.6453768014907837,-2.0790175892414977,0.296818863750583,-94.27314643415656,-0.1963585913181305,-0.03782856464385986,0.06593704223632812
2484,7220287,-0.04503067210316658,0.004456985276192427,-1.642966389656067,-2.5800674601489395,0.2553664456777756,-94.1350400091389,-0.2144940048456192,-0.029633887112140656,0.06937050819396973
2492,7220307,-0.0494498685002327,0.004312868695706129,-1.6417560577392578,-2.8332687625402473,0.2471091738580533,-94.06569309849577,-0.21947556734085083,-0.024597862735390663,0.07071761786937714
2505,7220347,-0.058009132742881775,0.0043565817177295685,-1.6392865180969238,-3.3236784793812784,0.24961374552975882,-93.92419889964978,-0.22219116985797882,-0.013311609625816345,0.07267479598522186
2517,7220387,-0.0661146268248558,0.005060841795057058,-1.636934757232666,-3.7880890811466563,0.289964875640181,-93.78945292770378,-0.2168111950159073,0.00041501596570014954,0.07324820756912231
2525,7220407,-0.06980220973491669,0.00568167632445693,-1.6358340978622437,-3.999372018497715,0.32553607395078427,-93.72638979109705,-0.21054336428642273,0.007930610328912735,0.07284528762102127
2539,7220447,-0.0761113092303276,0.007366242818534374,-1.633725881576538,-4.360856792112878,0.42205462437057156,-93.60559789562537,-0.18917177617549896,0.02376117929816246,0.07063162326812744
2552,7220487,-0.08063998073339462,0.009807076305150986,-1.6317763328552246,-4.620330556039785,0.561904081647905,-93.49389698193897,-0.15434911847114563,0.039726823568344116,0.06716396659612656
2556,7220507,-0.08206629753112793,0.011244779452681541,-1.6309009790420532,-4.702052488798518,0.6442784041940801,-93.44374290286358,-0.13271017372608185,0.04824564605951309,0.06553652882575989
2569,7220547,-0.08298595994710922,0.014745185151696205,-1.6292732954025269,-4.754745263811051,0.8448368773311611,-93.35048349993622,-0.08138088881969452,0.06616976857185364,0.062439821660518646
2585,7220587,-0.08121459931135178,0.019031943753361702,-1.627914309501648,-4.653253775386538,1.0904500529979966,-93.27261934339808,-0.019929716363549232,0.08505330234766006,0.05866030603647232
2589,7220607,-0.07933450490236282,0.02155899815261364,-1.6273859739303589,-4.545532300665329,1.2352396046751002,-93.24234794499658,0.013052701950073242,0.09548403322696686,0.056189678609371185
2602,7220647,-0.0735277608036995,0.026697926223278046,-1.6265696287155151,-4.212830371099423,1.5296784943454775,-93.19557480956033,0.08121088147163391,0.11380551755428314,0.04956332966685295
2614,7220687,-0.06537708640098572,0.032190874218940735,-1.6259702444076538,-3.7458311276386103,1.8444012315817946,-93.16123261841351,0.1474619209766388,0.1277323067188263,0.04212898761034012
2620,7220707,-0.060557201504707336,0.034806687384843826,-1.6257225275039673,-3.4696720653430084,1.9942762859827958,-93.14703948531822,0.17820684611797333,0.13144949078559875,0.038752585649490356
2634,7220747,-0.04986807331442833,0.03974707052111626,-1.625127911567688,-2.85723013336571,2.277339388868811,-93.1129705017382,0.23128414154052734,0.13090328872203827,0.03393736481666565
2637,7220767,-0.044192615896463394,0.04187292978167534,-1.6247727870941162,-2.5320503765101035,2.3991421523376486,-93.09262336820073,0.25180405378341675,0.12679891288280487,0.03279697895050049
2651,7220807,-0.03246869146823883,0.04549646005034447,-1.6239356994628906,-1.8603189874425092,2.606755143670295,-93.0446617798489,0.27925431728363037,0.1098480299115181,0.032760292291641235
2665,7220847,-0.021588603034615517,0.048085328191518784,-1.6228225231170654,-1.2369358394667906,2.755086361875462,-92.98088147337933,0.28471195697784424,0.08707311749458313,0.0356336310505867
2668,7220867,-0.01658668927848339,0.04894881695508957,-1.622158169746399,-0.9503472917519908,2.804560623685038,-92.94281682913484,0.2798515260219574,0.07434773445129395,0.03763160482048988
2683,7220907,-0.007966507226228714,0.04996967688202858,-1.620874285697937,-0.45644724152337746,2.8630515889726764,-92.8692556917738,0.2546350359916687,0.048234496265649796,0.04157619923353195
2696,7220947,-0.0015230776043608785,0.05018731951713562,-1.6194850206375122,-0.08726591860077453,2.8755215934064156,-92.78965666718648,0.21160127222537994,0.023746557533740997,0.044219743460416794
2700,7220967,0.0007285257452167571,0.050068870186805725,-1.6187140941619873,0.0417414504675433,2.8687349466923617,-92.745485833824,0.18494358658790588,0.013325981795787811,0.04533907026052475
2714,7221007,0.003386166412383318,0.04952662065625191,-1.6172964572906494,0.19401304415851958,2.837666337148678,-92.66426122421421,0.12411186099052429,-0.003270454704761505,0.04699196666479111
2727,7221047,0.0037279154639691114,0.04839739203453064,-1.615967869758606,0.2135938224669842,2.7729663030186744,-92.58813876591442,0.061558157205581665,-0.017189903184771538,0.0467403270304203
2731,7221067,0.0029957452788949013,0.047692932188510895,-1.615280032157898,0.17164356097691957,2.732603727005307,-92.54872857440344,0.02963624708354473,-0.023246444761753082,0.04571165144443512
2745,7221107,5.220912134973332e-05,0.04592322185635567,-1.614245891571045,0.0029913623054260794,2.6312067940121175,-92.48947668335359,-0.02826995961368084,-0.033807381987571716,0.04242569953203201
2758,7221147,-0.00453758193179965,0.04369243606925011,-1.6131901741027832,-0.2599842938869389,2.5033921834131996,-92.42898852806395,-0.07918863743543625,-0.04470134899020195,0.03918272256851196
2762,7221167,-0.007284869905561209,0.04243459179997444,-1.6126434803009033,-0.41739229989052384,2.431323015498987,-92.39766528053028,-0.10119965672492981,-0.05047121271491051,0.03812594711780548
2776,7221207,-0.013475249521434307,0.039448563009500504,-1.6115859746932983,-0.7720749254638681,2.2602361683002763,-92.33707467240309,-0.1368168145418167,-0.06251130253076553,0.03750140219926834
2790,7221247,-0.02008371241390705,0.03604671359062195,-1.6104198694229126,-1.1507119582713727,2.065324554059503,-92.27026176194202,-0.1595919132232666,-0.07485292851924896,0.03807951509952545
2794,7221267,-0.02342589758336544,0.03434211388230324,-1.6098175048828125,-1.3422050628325544,1.96765818501361,-92.23574881606595,-0.16582712531089783,-0.07970235496759415,0.0383358970284462
2808,7221307,-0.029776765033602715,0.030840225517749786,-1.6087162494659424,-1.7060829639781605,1.7670147613987268,-92.17265152851337,-0.1695297658443451,-0.08582457900047302,0.03859149292111397
2821,7221347,-0.035684142261743546,0.027591275051236153,-1.6076879501342773,-2.044550747142321,1.5808636118204358,-92.11373431673285,-0.16212129592895508,-0.08587129414081573,0.037020936608314514
2825,7221367,-0.03826344013214111,0.026012025773525238,-1.6072449684143066,-2.192333629223183,1.4903792934085167,-92.08835333377708,-0.15507572889328003,-0.08435137569904327,0.0355396643280983
2841,7221407,-0.04255053400993347,0.023143790662288666,-1.6065822839736938,-2.437966014797059,1.326041526883425,-92.05038431218098,-0.1346438080072403,-0.07944189012050629,0.03155330568552017
2845,7221427,-0.044300150126218796,0.021891366690397263,-1.6063592433929443,-2.5382116340282783,1.2542829191330362,-92.03760502824387,-0.12255383282899857,-0.07556869834661484,0.028943805024027824
2858,7221467,-0.046737927943468094,0.019659550860524178,-1.606112003326416,-2.677886014347277,1.126409291430821,-92.02343921590527,-0.09352020919322968,-0.06583040207624435,0.02225041203200817
2872,7221507,-0.04774017632007599,0.018180714920163155,-1.6062690019607544,-2.7353106163507475,1.0416782334558743,-92.03243457504217,-0.05982388183474541,-0.053256042301654816,0.014577602967619896
2876,7221527,-0.04763013869524002,0.01752650924026966,-1.6064447164535522,-2.7290059248600027,1.0041950090644904,-92.04250227387878,-0.04195728152990341,-0.04631855711340904,0.010684097185730934
2890,7221567,-0.04649076610803604,0.016538133844733238,-1.6069151163101196,-2.6637246843203135,0.94756527032568,-92.06945420034366,-0.004924256354570389,-0.03398170322179794,0.003679683431982994
2905,7221607,-0.043939679861068726,0.01563425548374653,-1.607729434967041,-2.5175582091952173,0.8957768550479394,-92.116111222564,0.03133244812488556,-0.02467067912220955,-0.002836521714925766
2909,7221627,-0.04217161610722542,0.015156292356550694,-1.6081793308258057,-2.4162556181899384,0.8683915850967434,-92.14188835649163,0.04910804331302643,-0.022937173023819923,-0.005906959995627403
2922,7221667,-0.037923987954854965,0.01402219943702221,-1.6092455387115479,-2.17288445211816,0.8034128472320916,-92.20297756842822,0.08115395158529282,-0.0224954541772604,-0.011470679193735123
2936,7221707,-0.033115874975919724,0.01239747554063797,-1.6106393337249756,-1.8973998710030968,0.7103230250952242,-92.28283614020401,0.1055721566081047,-0.02961362525820732,-0.017761757597327232
2940,7221727,-0.03059329092502594,0.011444219388067722,-1.6114190816879272,-1.7528664514198686,0.6557054707580702,-92.32751240756507,0.11453086137771606,-0.034038253128528595,-0.0210346058011055
2953,7221767,-0.02515922300517559,0.008882792666554451,-1.6131101846694946,-1.4415172940250092,0.5089465300833285,-92.42440547113087,0.12784890830516815,-0.04673682153224945,-0.027813918888568878
2967,7221807,-0.019760150462388992,0.005912443157285452,-1.6149842739105225,-1.1321732240383715,0.33875803952345956,-92.53178287507264,0.1353585571050644,-0.061041079461574554,-0.03344518691301346
2971,7221827,-0.01709250919520855,0.004029195290058851,-1.6159090995788574,-0.9793286381740013,0.2308558849543617,-92.58477148265361,0.13664689660072327,-0.06940940767526627,-0.03537087142467499
2984,7221867,-0.012337563559412956,-6.628043774981052e-05,-1.617571473121643,-0.7068903214287638,-0.0037975893473437216,-92.68001847062943,0.13221877813339233,-0.08706049621105194,-0.036239948123693466
2999,7221907,-0.0083460733294487,-0.004868399817496538,-1.6190017461776733,-0.4781947772841096,-0.27893876252481187,-92.76196708029124,0.11864159256219864,-0.10436508059501648,-0.032774947583675385
3003,7221927,-0.006632467266172171,-0.007607697043567896,-1.6195803880691528,-0.38001238211033656,-0.4358889324105944,-92.79512081852249,0.10919329524040222,-0.1131991371512413,-0.02926860749721527
3016,7221967,-0.004068251699209213,-0.013061867095530033,-1.6204078197479248,-0.23309365236161358,-0.7483898571346738,-92.84252916155154,0.08661285787820816,-0.1274528205394745,-0.020701158791780472
3030,7222007,-0.0027280403301119804,-0.018756849691271782,-1.621051549911499,-0.15630519725689235,-1.0746883242711343,-92.87941218306962,0.060753513127565384,-0.1380041390657425,-0.012122618034482002
3034,7222027,-0.0026023953687399626,-0.02158757485449314,-1.6212908029556274,-0.14910627125319145,-1.2368769290851993,-92.89312037273383,0.04598651081323624,-0.14085528254508972,-0.008302402682602406
3047,7222067,-0.0032828436233103275,-0.02700674533843994,-1.621639370918274,-0.1880930844171168,-1.5473725262772187,-92.91309184586694,0.013599012978374958,-0.14169694483280182,-0.0024705398827791214
3057,7222087,-0.004256078973412514,-0.02948027104139328,-1.621849775314331,-0.24385536245090914,-1.6890951095735751,-92.92514712975202,-0.003913840278983116,-0.13901038467884064,-0.0005897916853427887
3065,7222127,-0.0070711588487029076,-0.03386553004384041,-1.6222765445709229,-0.40514755829726284,-1.940351942485545,-92.94959920698066,-0.03930894285440445,-0.12709803879261017,0.0012139808386564255
3078,7222167,-0.011079328134655952,-0.03723602369427681,-1.6228121519088745,-0.6347987419563371,-2.133467003531193,-92.98028724692153,-0.07346479594707489,-0.10829511284828186,-0.0003001447767019272
3084,7222187,-0.013475674204528332,-0.0385126955807209,-1.6232285499572754,-0.7720992580127863,-2.206614914447445,-93.00414509769239,-0.0891023725271225,-0.09619861096143723,-0.0021851155906915665
3103,7222227,-0.018822867423295975,-0.040119439363479614,-1.6242790222167969,-1.078470861689146,-2.298674551958404,-93.06433272465854,-0.1153097003698349,-0.06794675439596176,-0.008094158954918385
3110,7222267,-0.024575933814048767,-0.040348466485738754,-1.625593900680542,-1.4080972851378424,-2.3117968394578794,-93.13966971120378,-0.13446804881095886,-0.03571892902255058,-0.015502901747822762
3120,7222287,-0.02758699096739292,-0.04006509482860565,-1.626436710357666,-1.5806181518971385,-2.2955608394705243,-93.18795914863577,-0.14162229001522064,-0.01967771351337433,-0.019506825134158134
3128,7222327,-0.03369704261422157,-0.03840252757072449,-1.628285527229309,-1.9306983238673785,-2.2003027524372953,-93.29388855247349,-0.151361882686615,0.012889793142676353,-0.02734425663948059
3141,7222367,-0.03973735496401787,-0.035718102008104324,-1.6303356885910034,-2.276782728451455,-2.0464964972821282,-93.41135414581937,-0.1553926169872284,0.04358043149113655,-0.03401957452297211
3151,7222387,-0.04267089068889618,-0.03396822139620781,-1.6314680576324463,-2.444861944537833,-1.946235723568688,-93.47623411274533,-0.15513460338115692,0.05818825215101242,-0.03670509159564972
3161,7222427,-0.04820515215396881,-0.029857909306883812,-1.633792757987976,-2.7619517692083826,-1.7107321883688236,-93.60942963174975,-0.15025147795677185,0.08463804423809052,-0.040595974773168564
3174,7222467,-0.05319222807884216,-0.02491394802927971,-1.6361004114151,-3.047690171814927,-1.427464073086002,-93.74164843370285,-0.1401594877243042,0.10821712017059326,-0.042445335537195206
3182,7222487,-0.05534819886088371,-0.02227157913148403,-1.6373050212860107,-3.171218198379427,-1.2760674873256745,-93.81066749526583,-0.1328973025083542,0.11819520592689514,-0.04253638535737991
3192,7222527,-0.05904315784573555,-0.01628689095377922,-1.6396673917770386,-3.3829237536853807,-0.9331701130413492,-93.94602135404797,-0.11332665383815765,0.1358301341533661,-0.0414113774895668
