{"packet_index": 37, "message": {"header": {"component_id": 1, "sequence": 55, "system_id": 1}, "message": {"airspeed": 0.10600000619888306, "alt": 15.460000038146973, "climb": -0.12847812473773956, "groundspeed": 0.1483880579471588, "heading": 237, "throttle": 0, "type": "VFR_HUD"}}}
{"packet_index": 45, "message": {"header": {"component_id": 1, "sequence": 64, "system_id": 1}, "message": {"autopilot": {"type": "MAV_AUTOPILOT_ARDUPILOTMEGA"}, "base_mode": {"bits": 137}, "custom_mode": 10, "mavlink_version": 3, "mavtype": {"type": "MAV_TYPE_SURFACE_BOAT"}, "system_status": {"type": "MAV_STATE_ACTIVE"}, "type": "HEARTBEAT"}}}
{"packet_index": 132, "message": {"header": {"component_id": 1, "sequence": 101, "system_id": 1}, "message": {"param_count": 990, "param_id": ["S", "T", "A", "T", "_", "F", "L", "T", "T", "I", "M", "E", "\u0000", "\u0000", "\u0000", "\u0000"], "param_index": 65535, "param_type": {"type": "MAV_PARAM_TYPE_INT32"}, "param_value": 3486.0, "type": "PARAM_VALUE"}}}
{"packet_index": 133, "message": {"header": {"component_id": 1, "sequence": 102, "system_id": 1}, "message": {"param_count": 990, "param_id": ["S", "T", "A", "T", "_", "R", "U", "N", "T", "I", "M", "E", "\u0000", "\u0000", "\u0000", "\u0000"], "param_index": 65535, "param_type": {"type": "MAV_PARAM_TYPE_INT32"}, "param_value": 49073.0, "type": "PARAM_VALUE"}}}
{"packet_index": 148, "message": {"header": {"component_id": 1, "sequence": 107, "system_id": 1}, "message": {"airspeed": 0.1420000046491623, "alt": 15.529999732971191, "climb": -0.043192412704229355, "groundspeed": 0.14823241531848907, "heading": 243, "throttle": 0, "type": "VFR_HUD"}}}
{"packet_index": 246, "message": {"header": {"component_id": 1, "sequence": 172, "system_id": 1}, "message": {"airspeed": 0.1420000046491623, "alt": 15.609999656677246, "climb": 0.1784995198249817, "groundspeed": 0.11532610654830933, "heading": 247, "throttle": 0, "type": "VFR_HUD"}}}
{"packet_index": 291, "message": {"header": {"component_id": 1, "sequence": 198, "system_id": 1}, "message": {"altitude": 32970, "latitude": 634405552, "longitude": 103484873, "time_usec": 7213367436, "type": "GPS_GLOBAL_ORIGIN"}}}
{"packet_index": 292, "message": {"header": {"component_id": 1, "sequence": 199, "system_id": 1}, "message": {"altitude": 6860, "approach_x": 0.0, "approach_y": 0.0, "approach_z": 0.0, "latitude": 634405553, "longitude": 103484876, "q": [null, null, null, null], "time_usec": 7213367442, "type": "HOME_POSITION", "x": 0.011131884530186653, "y": 0.01493206899613142, "z": 26.10999870300293}}}
{"packet_index": 355, "message": {"header": {"component_id": 1, "sequence": 239, "system_id": 1}, "message": {"airspeed": 0.07900000363588333, "alt": 15.579999923706055, "climb": 0.08462110906839371, "groundspeed": 0.04953031986951828, "heading": 251, "throttle": 2, "type": "VFR_HUD"}}}
{"packet_index": 360, "message": {"header": {"component_id": 1, "sequence": 248, "system_id": 1}, "message": {"autopilot": {"type": "MAV_AUTOPILOT_ARDUPILOTMEGA"}, "base_mode": {"bits": 137}, "custom_mode": 10, "mavlink_version": 3, "mavtype": {"type": "MAV_TYPE_SURFACE_BOAT"}, "system_status": {"type": "MAV_STATE_ACTIVE"}, "type": "HEARTBEAT"}}}
{"packet_index": 464, "message": {"header": {"component_id": 1, "sequence": 33, "system_id": 1}, "message": {"airspeed": 0.04700000211596489, "alt": 15.519999504089355, "climb": -0.09816504269838333, "groundspeed": 0.04724134877324104, "heading": 251, "throttle": 11, "type": "VFR_HUD"}}}
{"packet_index": 562, "message": {"header": {"component_id": 1, "sequence": 98, "system_id": 1}, "message": {"airspeed": 0.03500000014901161, "alt": 15.619999885559082, "climb": 0.04554063081741333, "groundspeed": 0.11565225571393967, "heading": 250, "throttle": 26, "type": "VFR_HUD"}}}
{"packet_index": 610, "message": {"header": {"component_id": 1, "sequence": 127, "system_id": 1}, "message": {"altitude": 32970, "latitude": 634405552, "longitude": 103484873, "time_usec": 7214367453, "type": "GPS_GLOBAL_ORIGIN"}}}
{"packet_index": 611, "message": {"header": {"component_id": 1, "sequence": 128, "system_id": 1}, "message": {"altitude": 6860, "approach_x": 0.0, "approach_y": 0.0, "approach_z": 0.0, "latitude": 634405553, "longitude": 103484876, "q": [null, null, null, null], "time_usec": 7214367458, "type": "HOME_POSITION", "x": 0.011131884530186653, "y": 0.01493206899613142, "z": 26.10999870300293}}}
{"packet_index": 671, "message": {"header": {"component_id": 1, "sequence": 166, "system_id": 1}, "message": {"airspeed": 0.16100001335144043, "alt": 15.559999465942383, "climb": 0.05762054771184921, "groundspeed": 0.3573790192604065, "heading": 250, "throttle": 25, "type": "VFR_HUD"}}}
{"packet_index": 685, "message": {"header": {"component_id": 1, "sequence": 178, "system_id": 1}, "message": {"autopilot": {"type": "MAV_AUTOPILOT_ARDUPILOTMEGA"}, "base_mode": {"bits": 137}, "custom_mode": 10, "mavlink_version": 3, "mavtype": {"type": "MAV_TYPE_SURFACE_BOAT"}, "system_status": {"type": "MAV_STATE_ACTIVE"}, "type": "HEARTBEAT"}}}
{"packet_index": 779, "message": {"header": {"component_id": 1, "sequence": 216, "system_id": 1}, "message": {"airspeed": 0.44700002670288086, "alt": 15.539999961853027, "climb": 0.019499704241752625, "groundspeed": 0.529752790927887, "heading": 249, "throttle": 21, "type": "VFR_HUD"}}}
{"packet_index": 878, "message": {"header": {"component_id": 1, "sequence": 25, "system_id": 1}, "message": {"airspeed": 0.5270000100135803, "alt": 15.719999313354492, "climb": 0.003320101648569107, "groundspeed": 0.6127784252166748, "heading": 249, "throttle": 22, "type": "VFR_HUD"}}}
{"packet_index": 926, "message": {"header": {"component_id": 1, "sequence": 54, "system_id": 1}, "message": {"altitude": 32970, "latitude": 634405552, "longitude": 103484873, "time_usec": 7215367432, "type": "GPS_GLOBAL_ORIGIN"}}}
{"packet_index": 927, "message": {"header": {"component_id": 1, "sequence": 55, "system_id": 1}, "message": {"altitude": 6860, "approach_x": 0.0, "approach_y": 0.0, "approach_z": 0.0, "latitude": 634405553, "longitude": 103484876, "q": [null, null, null, null], "time_usec": 7215367436, "type": "HOME_POSITION", "x": 0.011131884530186653, "y": 0.01493206899613142, "z": 26.10999870300293}}}
{"packet_index": 987, "message": {"header": {"component_id": 1, "sequence": 92, "system_id": 1}, "message": {"airspeed": 0.5980000495910645, "alt": 15.839999198913574, "climb": 0.11071736365556717, "groundspeed": 0.6185235381126404, "heading": 248, "throttle": 24, "type": "VFR_HUD"}}}
{"packet_index": 1001, "message": {"header": {"component_id": 1, "sequence": 104, "system_id": 1}, "message": {"autopilot": {"type": "MAV_AUTOPILOT_ARDUPILOTMEGA"}, "base_mode": {"bits": 137}, "custom_mode": 10, "mavlink_version": 3, "mavtype": {"type": "MAV_TYPE_SURFACE_BOAT"}, "system_status": {"type": "MAV_STATE_ACTIVE"}, "type": "HEARTBEAT"}}}
{"packet_index": 1098, "message": {"header": {"component_id": 1, "sequence": 145, "system_id": 1}, "message": {"airspeed": 0.6550000309944153, "alt": 15.699999809265137, "climb": 0.07369458675384521, "groundspeed": 0.6177414059638977, "heading": 248, "throttle": 25, "type": "VFR_HUD"}}}
{"packet_index": 1197, "message": {"header": {"component_id": 1, "sequence": 210, "system_id": 1}, "message": {"airspeed": 0.6600000262260437, "alt": 15.719999313354492, "climb": 0.08588385581970215, "groundspeed": 0.6302156448364258, "heading": 249, "throttle": 25, "type": "VFR_HUD"}}}
{"packet_index": 1242, "message": {"header": {"component_id": 1, "sequence": 236, "system_id": 1}, "message": {"altitude": 32970, "latitude": 634405552, "longitude": 103484873, "time_usec": 7216367428, "type": "GPS_GLOBAL_ORIGIN"}}}
{"packet_index": 1243, "message": {"header": {"component_id": 1, "sequence": 237, "system_id": 1}, "message": {"altitude": 6860, "approach_x": 0.0, "approach_y": 0.0, "approach_z": 0.0, "latitude": 634405553, "longitude": 103484876, "q": [null, null, null, null], "time_usec": 7216367435, "type": "HOME_POSITION", "x": 0.011131884530186653, "y": 0.01493206899613142, "z": 26.10999870300293}}}
{"packet_index": 1306, "message": {"header": {"component_id": 1, "sequence": 21, "system_id": 1}, "message": {"airspeed": 0.6360000371932983, "alt": 15.929999351501465, "climb": 0.09874222427606583, "groundspeed": 0.6503199338912964, "heading": 251, "throttle": 24, "type": "VFR_HUD"}}}
{"packet_index": 1312, "message": {"header": {"component_id": 1, "sequence": 30, "system_id": 1}, "message": {"autopilot": {"type": "MAV_AUTOPILOT_ARDUPILOTMEGA"}, "base_mode": {"bits": 137}, "custom_mode": 10, "mavlink_version": 3, "mavtype": {"type": "MAV_TYPE_SURFACE_BOAT"}, "system_status": {"type": "MAV_STATE_ACTIVE"}, "type": "HEARTBEAT"}}}
{"packet_index": 1414, "message": {"header": {"component_id": 1, "sequence": 71, "system_id": 1}, "message": {"airspeed": 0.6840000152587891, "alt": 16.059999465942383, "climb": 0.0035910801962018013, "groundspeed": 0.6599076986312866, "heading": 253, "throttle": 23, "type": "VFR_HUD"}}}
{"packet_index": 1513, "message": {"header": {"component_id": 1, "sequence": 136, "system_id": 1}, "message": {"airspeed": 0.6720000505447388, "alt": 16.170000076293945, "climb": 0.11372509598731995, "groundspeed": 0.6535558700561523, "heading": 255, "throttle": 25, "type": "VFR_HUD"}}}
{"packet_index": 1558, "message": {"header": {"component_id": 1, "sequence": 162, "system_id": 1}, "message": {"altitude": 32970, "latitude": 634405552, "longitude": 103484873, "time_usec": 7217367435, "type": "GPS_GLOBAL_ORIGIN"}}}
{"packet_index": 1559, "message": {"header": {"component_id": 1, "sequence": 163, "system_id": 1}, "message": {"altitude": 6860, "approach_x": 0.0, "approach_y": 0.0, "approach_z": 0.0, "latitude": 634405553, "longitude": 103484876, "q": [null, null, null, null], "time_usec": 7217367442, "type": "HOME_POSITION", "x": 0.011131884530186653, "y": 0.01493206899613142, "z": 26.10999870300293}}}
{"packet_index": 1622, "message": {"header": {"component_id": 1, "sequence": 203, "system_id": 1}, "message": {"airspeed": 0.6930000185966492, "alt": 16.079999923706055, "climb": 0.05003580078482628, "groundspeed": 0.6784034371376038, "heading": 257, "throttle": 23, "type": "VFR_HUD"}}}
{"packet_index": 1631, "message": {"header": {"component_id": 1, "sequence": 215, "system_id": 1}, "message": {"autopilot": {"type": "MAV_AUTOPILOT_ARDUPILOTMEGA"}, "base_mode": {"bits": 137}, "custom_mode": 10, "mavlink_version": 3, "mavtype": {"type": "MAV_TYPE_SURFACE_BOAT"}, "system_status": {"type": "MAV_STATE_ACTIVE"}, "type": "HEARTBEAT"}}}
{"packet_index": 1730, "message": {"header": {"component_id": 1, "sequence": 253, "system_id": 1}, "message": {"airspeed": 0.6910000443458557, "alt": 16.059999465942383, "climb": 0.07335637509822845, "groundspeed": 0.6616504192352295, "heading": 258, "throttle": 25, "type": "VFR_HUD"}}}
{"packet_index": 1829, "message": {"header": {"component_id": 1, "sequence": 62, "system_id": 1}, "message": {"airspeed": 0.6820000410079956, "alt": 16.170000076293945, "climb": 0.07919102907180786, "groundspeed": 0.7041161060333252, "heading": 260, "throttle": 22, "type": "VFR_HUD"}}}
{"packet_index": 1877, "message": {"header": {"component_id": 1, "sequence": 91, "system_id": 1}, "message": {"altitude": 32970, "latitude": 634405552, "longitude": 103484873, "time_usec": 7218367437, "type": "GPS_GLOBAL_ORIGIN"}}}
{"packet_index": 1878, "message": {"header": {"component_id": 1, "sequence": 92, "system_id": 1}, "message": {"altitude": 6860, "approach_x": 0.0, "approach_y": 0.0, "approach_z": 0.0, "latitude": 634405553, "longitude": 103484876, "q": [null, null, null, null], "time_usec": 7218367441, "type": "HOME_POSITION", "x": 0.011131884530186653, "y": 0.01493206899613142, "z": 26.10999870300293}}}
{"packet_index": 1938, "message": {"header": {"component_id": 1, "sequence": 129, "system_id": 1}, "message": {"airspeed": 0.7320000529289246, "alt": 16.299999237060547, "climb": 0.1431071013212204, "groundspeed": 0.6832448840141296, "heading": 261, "throttle": 24, "type": "VFR_HUD"}}}
{"packet_index": 1947, "message": {"header": {"component_id": 1, "sequence": 141, "system_id": 1}, "message": {"autopilot": {"type": "MAV_AUTOPILOT_ARDUPILOTMEGA"}, "base_mode": {"bits": 137}, "custom_mode": 10, "mavlink_version": 3, "mavtype": {"type": "MAV_TYPE_SURFACE_BOAT"}, "system_status": {"type": "MAV_STATE_ACTIVE"}, "type": "HEARTBEAT"}}}
{"packet_index": 2044, "message": {"header": {"component_id": 1, "sequence": 179, "system_id": 1}, "message": {"airspeed": 0.7380000352859497, "alt": 16.260000228881836, "climb": 0.0769856870174408, "groundspeed": 0.7034192085266113, "heading": 262, "throttle": 22, "type": "VFR_HUD"}}}
{"packet_index": 2145, "message": {"header": {"component_id": 1, "sequence": 244, "system_id": 1}, "message": {"airspeed": 0.753000020980835, "alt": 16.25, "climb": 0.17484305799007416, "groundspeed": 0.6937825083732605, "heading": 263, "throttle": 24, "type": "VFR_HUD"}}}
{"packet_index": 2193, "message": {"header": {"component_id": 1, "sequence": 17, "system_id": 1}, "message": {"altitude": 32970, "latitude": 634405552, "longitude": 103484873, "time_usec": 7219367434, "type": "GPS_GLOBAL_ORIGIN"}}}
{"packet_index": 2194, "message": {"header": {"component_id": 1, "sequence": 18, "system_id": 1}, "message": {"altitude": 6860, "approach_x": 0.0, "approach_y": 0.0, "approach_z": 0.0, "latitude": 634405553, "longitude": 103484876, "q": [null, null, null, null], "time_usec": 7219367439, "type": "HOME_POSITION", "x": 0.011131884530186653, "y": 0.01493206899613142, "z": 26.10999870300293}}}
{"packet_index": 2257, "message": {"header": {"component_id": 1, "sequence": 58, "system_id": 1}, "message": {"airspeed": 0.6940000057220459, "alt": 16.270000457763672, "climb": -0.0030178632587194443, "groundspeed": 0.6858428120613098, "heading": 264, "throttle": 24, "type": "VFR_HUD"}}}
{"packet_index": 2262, "message": {"header": {"component_id": 1, "sequence": 67, "system_id": 1}, "message": {"autopilot": {"type": "MAV_AUTOPILOT_ARDUPILOTMEGA"}, "base_mode": {"bits": 137}, "custom_mode": 10, "mavlink_version": 3, "mavtype": {"type": "MAV_TYPE_SURFACE_BOAT"}, "system_status": {"type": "MAV_STATE_ACTIVE"}, "type": "HEARTBEAT"}}}
{"packet_index": 2365, "message": {"header": {"component_id": 1, "sequence": 108, "system_id": 1}, "message": {"airspeed": 0.7200000286102295, "alt": 16.369998931884766, "climb": -0.049496348947286606, "groundspeed": 0.6843516826629639, "heading": 264, "throttle": 24, "type": "VFR_HUD"}}}
{"packet_index": 2464, "message": {"header": {"component_id": 1, "sequence": 173, "system_id": 1}, "message": {"airspeed": 0.7070000171661377, "alt": 16.459999084472656, "climb": 0.1710333228111267, "groundspeed": 0.7188241481781006, "heading": 265, "throttle": 22, "type": "VFR_HUD"}}}
{"packet_index": 2509, "message": {"header": {"component_id": 1, "sequence": 199, "system_id": 1}, "message": {"altitude": 32970, "latitude": 634405552, "longitude": 103484873, "time_usec": 7220367420, "type": "GPS_GLOBAL_ORIGIN"}}}
{"packet_index": 2510, "message": {"header": {"component_id": 1, "sequence": 200, "system_id": 1}, "message": {"altitude": 6860, "approach_x": 0.0, "approach_y": 0.0, "approach_z": 0.0, "latitude": 634405553, "longitude": 103484876, "q": [null, null, null, null], "time_usec": 7220367427, "type": "HOME_POSITION", "x": 0.011131884530186653, "y": 0.01493206899613142, "z": 26.10999870300293}}}
{"packet_index": 2573, "message": {"header": {"component_id": 1, "sequence": 240, "system_id": 1}, "message": {"airspeed": 0.7010000348091125, "alt": 16.389999389648438, "climb": 0.08577743172645569, "groundspeed": 0.7068470120429993, "heading": 266, "throttle": 23, "type": "VFR_HUD"}}}
{"packet_index": 2577, "message": {"header": {"component_id": 1, "sequence": 249, "system_id": 1}, "message": {"autopilot": {"type": "MAV_AUTOPILOT_ARDUPILOTMEGA"}, "base_mode": {"bits": 137}, "custom_mode": 10, "mavlink_version": 3, "mavtype": {"type": "MAV_TYPE_SURFACE_BOAT"}, "system_status": {"type": "MAV_STATE_ACTIVE"}, "type": "HEARTBEAT"}}}
{"packet_index": 2674, "message": {"header": {"component_id": 1, "sequence": 34, "system_id": 1}, "message": {"airspeed": 0.6890000104904175, "alt": 16.369998931884766, "climb": -0.015032154507935047, "groundspeed": 0.6788317561149597, "heading": 267, "throttle": 26, "type": "VFR_HUD"}}}
{"packet_index": 2780, "message": {"header": {"component_id": 1, "sequence": 99, "system_id": 1}, "message": {"airspeed": 0.706000030040741, "alt": 16.44999885559082, "climb": 0.12250226736068726, "groundspeed": 0.6969830393791199, "heading": 267, "throttle": 26, "type": "VFR_HUD"}}}
{"packet_index": 2828, "message": {"header": {"component_id": 1, "sequence": 128, "system_id": 1}, "message": {"altitude": 32970, "latitude": 634405552, "longitude": 103484873, "time_usec": 7221367443, "type": "GPS_GLOBAL_ORIGIN"}}}
{"packet_index": 2829, "message": {"header": {"component_id": 1, "sequence": 129, "system_id": 1}, "message": {"altitude": 6860, "approach_x": 0.0, "approach_y": 0.0, "approach_z": 0.0, "latitude": 634405553, "longitude": 103484876, "q": [null, null, null, null], "time_usec": 7221367447, "type": "HOME_POSITION", "x": 0.011131884530186653, "y": 0.01493206899613142, "z": 26.10999870300293}}}
{"packet_index": 2888, "message": {"header": {"component_id": 1, "sequence": 166, "system_id": 1}, "message": {"airspeed": 0.7140000462532043, "alt": 16.420000076293945, "climb": 0.11995289474725723, "groundspeed": 0.708098828792572, "heading": 267, "throttle": 24, "type": "VFR_HUD"}}}
{"packet_index": 2896, "message": {"header": {"component_id": 1, "sequence": 178, "system_id": 1}, "message": {"autopilot": {"type": "MAV_AUTOPILOT_ARDUPILOTMEGA"}, "base_mode": {"bits": 137}, "custom_mode": 10, "mavlink_version": 3, "mavtype": {"type": "MAV_TYPE_SURFACE_BOAT"}, "system_status": {"type": "MAV_STATE_ACTIVE"}, "type": "HEARTBEAT"}}}
{"packet_index": 2992, "message": {"header": {"component_id": 1, "sequence": 216, "system_id": 1}, "message": {"airspeed": 0.7230000495910645, "alt": 16.399999618530273, "climb": 0.1782146692276001, "groundspeed": 0.7468219995498657, "heading": 267, "throttle": 19, "type": "VFR_HUD"}}}
{"packet_index": 3096, "message": {"header": {"component_id": 1, "sequence": 25, "system_id": 1}, "message": {"airspeed": 0.7750000357627869, "alt": 16.350000381469727, "climb": 0.19046936929225922, "groundspeed": 0.8127855062484741, "heading": 266, "throttle": 12, "type": "VFR_HUD"}}}
{"packet_index": 3144, "message": {"header": {"component_id": 1, "sequence": 54, "system_id": 1}, "message": {"altitude": 32970, "latitude": 634405552, "longitude": 103484873, "time_usec": 7222367444, "type": "GPS_GLOBAL_ORIGIN"}}}
{"packet_index": 3145, "message": {"header": {"component_id": 1, "sequence": 55, "system_id": 1}, "message": {"altitude": 6860, "approach_x": 0.0, "approach_y": 0.0, "approach_z": 0.0, "latitude": 634405553, "longitude": 103484876, "q": [null, null, null, null], "time_usec": 7222367448, "type": "HOME_POSITION", "x": 0.011131884530186653, "y": 0.01493206899613142, "z": 26.10999870300293}}}
{"packet_index": 3204, "message": {"header": {"component_id": 1, "sequence": 92, "system_id": 1}, "message": {"airspeed": 0.8020000457763672, "alt": 16.399999618530273, "climb": 0.07569539546966553, "groundspeed": 0.8135237693786621, "heading": 265, "throttle": 11, "type": "VFR_HUD"}}}
{"packet_index": 3220, "message": {"header": {"component_id": 1, "sequence": 104, "system_id": 1}, "message": {"autopilot": {"type": "MAV_AUTOPILOT_ARDUPILOTMEGA"}, "base_mode": {"bits": 137}, "custom_mode": 10, "mavlink_version": 3, "mavtype": {"type": "MAV_TYPE_SURFACE_BOAT"}, "system_status": {"type": "MAV_STATE_ACTIVE"}, "type": "HEARTBEAT"}}}
{"packet_index": 3314, "message": {"header": {"component_id": 1, "sequence": 142, "system_id": 1}, "message": {"airspeed": 0.7580000162124634, "alt": 16.520000457763672, "climb": -0.10446595400571823, "groundspeed": 0.7474262118339539, "heading": 264, "throttle": 16, "type": "VFR_HUD"}}}
{"packet_index": 3415, "message": {"header": {"component_id": 1, "sequence": 210, "system_id": 1}, "message": {"airspeed": 0.7270000576972961, "alt": 16.529998779296875, "climb": -0.10279760509729385, "groundspeed": 0.6725037693977356, "heading": 264, "throttle": 25, "type": "VFR_HUD"}}}
{"packet_index": 3460, "message": {"header": {"component_id": 1, "sequence": 236, "system_id": 1}, "message": {"altitude": 32970, "latitude": 634405552, "longitude": 103484873, "time_usec": 7223367443, "type": "GPS_GLOBAL_ORIGIN"}}}
{"packet_index": 3461, "message": {"header": {"component_id": 1, "sequence": 237, "system_id": 1}, "message": {"altitude": 6860, "approach_x": 0.0, "approach_y": 0.0, "approach_z": 0.0, "latitude": 634405553, "longitude": 103484876, "q": [null, null, null, null], "time_usec": 7223367449, "type": "HOME_POSITION", "x": 0.011131884530186653, "y": 0.01493206899613142, "z": 26.10999870300293}}}
{"packet_index": 3524, "message": {"header": {"component_id": 1, "sequence": 21, "system_id": 1}, "message": {"airspeed": 0.6060000061988831, "alt": 16.44999885559082, "climb": -0.08911607414484024, "groundspeed": 0.6304301023483276, "heading": 264, "throttle": 31, "type": "VFR_HUD"}}}
{"packet_index": 3531, "message": {"header": {"component_id": 1, "sequence": 30, "system_id": 1}, "message": {"autopilot": {"type": "MAV_AUTOPILOT_ARDUPILOTMEGA"}, "base_mode": {"bits": 137}, "custom_mode": 10, "mavlink_version": 3, "mavtype": {"type": "MAV_TYPE_SURFACE_BOAT"}, "system_status": {"type": "MAV_STATE_ACTIVE"}, "type": "HEARTBEAT"}}}
{"packet_index": 3632, "message": {"header": {"component_id": 1, "sequence": 71, "system_id": 1}, "message": {"airspeed": 0.5879999995231628, "alt": 16.440000534057617, "climb": -0.07537052780389786, "groundspeed": 0.6706405878067017, "heading": 263, "throttle": 29, "type": "VFR_HUD"}}}
{"packet_index": 3731, "message": {"header": {"component_id": 1, "sequence": 136, "system_id": 1}, "message": {"airspeed": 0.6410000324249268, "alt": 16.559999465942383, "climb": 0.22491435706615448, "groundspeed": 0.7117327451705933, "heading": 263, "throttle": 27, "type": "VFR_HUD"}}}
{"packet_index": 3779, "message": {"header": {"component_id": 1, "sequence": 165, "system_id": 1}, "message": {"altitude": 32970, "latitude": 634405552, "longitude": 103484873, "time_usec": 7224367469, "type": "GPS_GLOBAL_ORIGIN"}}}
{"packet_index": 3780, "message": {"header": {"component_id": 1, "sequence": 166, "system_id": 1}, "message": {"altitude": 6860, "approach_x": 0.0, "approach_y": 0.0, "approach_z": 0.0, "latitude": 634405553, "longitude": 103484876, "q": [null, null, null, null], "time_usec": 7224367474, "type": "HOME_POSITION", "x": 0.011131884530186653, "y": 0.01493206899613142, "z": 26.10999870300293}}}
{"packet_index": 3839, "message": {"header": {"component_id": 1, "sequence": 204, "system_id": 1}, "message": {"airspeed": 0.7170000076293945, "alt": 16.56999969482422, "climb": 0.1147548109292984, "groundspeed": 0.7900317311286926, "heading": 263, "throttle": 17, "type": "VFR_HUD"}}}
{"packet_index": 3849, "message": {"header": {"component_id": 1, "sequence": 216, "system_id": 1}, "message": {"autopilot": {"type": "MAV_AUTOPILOT_ARDUPILOTMEGA"}, "base_mode": {"bits": 137}, "custom_mode": 10, "mavlink_version": 3, "mavtype": {"type": "MAV_TYPE_SURFACE_BOAT"}, "system_status": {"type": "MAV_STATE_ACTIVE"}, "type": "HEARTBEAT"}}}
{"packet_index": 3948, "message": {"header": {"component_id": 1, "sequence": 254, "system_id": 1}, "message": {"airspeed": 0.8020000457763672, "alt": 16.59000015258789, "climb": 0.33469289541244507, "groundspeed": 0.7939573526382446, "heading": 262, "throttle": 16, "type": "VFR_HUD"}}}
{"packet_index": 4047, "message": {"header": {"component_id": 1, "sequence": 63, "system_id": 1}, "message": {"airspeed": 0.7830000519752502, "alt": 16.529998779296875, "climb": 0.08344163000583649, "groundspeed": 0.7898949384689331, "heading": 261, "throttle": 16, "type": "VFR_HUD"}}}
{"packet_index": 4095, "message": {"header": {"component_id": 1, "sequence": 92, "system_id": 1}, "message": {"altitude": 32970, "latitude": 634405552, "longitude": 103484873, "time_usec": 7225367510, "type": "GPS_GLOBAL_ORIGIN"}}}
{"packet_index": 4096, "message": {"header": {"component_id": 1, "sequence": 93, "system_id": 1}, "message": {"altitude": 6860, "approach_x": 0.0, "approach_y": 0.0, "approach_z": 0.0, "latitude": 634405553, "longitude": 103484876, "q": [null, null, null, null], "time_usec": 7225367517, "type": "HOME_POSITION", "x": 0.011131884530186653, "y": 0.01493206899613142, "z": 26.10999870300293}}}
{"packet_index": 4156, "message": {"header": {"component_id": 1, "sequence": 130, "system_id": 1}, "message": {"airspeed": 0.7670000195503235, "alt": 16.56999969482422, "climb": -0.016627537086606026, "groundspeed": 0.7565566897392273, "heading": 260, "throttle": 19, "type": "VFR_HUD"}}}
{"packet_index": 4170, "message": {"header": {"component_id": 1, "sequence": 142, "system_id": 1}, "message": {"autopilot": {"type": "MAV_AUTOPILOT_ARDUPILOTMEGA"}, "base_mode": {"bits": 137}, "custom_mode": 10, "mavlink_version": 3, "mavtype": {"type": "MAV_TYPE_SURFACE_BOAT"}, "system_status": {"type": "MAV_STATE_ACTIVE"}, "type": "HEARTBEAT"}}}
{"packet_index": 4264, "message": {"header": {"component_id": 1, "sequence": 180, "system_id": 1}, "message": {"airspeed": 0.6760000586509705, "alt": 16.639999389648438, "climb": -0.018718596547842026, "groundspeed": 0.7042068839073181, "heading": 259, "throttle": 25, "type": "VFR_HUD"}}}
{"packet_index": 4363, "message": {"header": {"component_id": 1, "sequence": 245, "system_id": 1}, "message": {"airspeed": 0.6950000524520874, "alt": 16.670000076293945, "climb": -0.014039019122719765, "groundspeed": 0.7501928806304932, "heading": 258, "throttle": 21, "type": "VFR_HUD"}}}
{"packet_index": 4411, "message": {"header": {"component_id": 1, "sequence": 18, "system_id": 1}, "message": {"altitude": 32970, "latitude": 634405552, "longitude": 103484873, "time_usec": 7226367423, "type": "GPS_GLOBAL_ORIGIN"}}}
{"packet_index": 4412, "message": {"header": {"component_id": 1, "sequence": 19, "system_id": 1}, "message": {"altitude": 6860, "approach_x": 0.0, "approach_y": 0.0, "approach_z": 0.0, "latitude": 634405553, "longitude": 103484876, "q": [null, null, null, null], "time_usec": 7226367429, "type": "HOME_POSITION", "x": 0.011131884530186653, "y": 0.01493206899613142, "z": 26.10999870300293}}}
{"packet_index": 4472, "message": {"header": {"component_id": 1, "sequence": 56, "system_id": 1}, "message": {"airspeed": 0.7090000510215759, "alt": 16.75, "climb": 0.07836166024208069, "groundspeed": 0.7477911710739136, "heading": 258, "throttle": 22, "type": "VFR_HUD"}}}
{"packet_index": 4486, "message": {"header": {"component_id": 1, "sequence": 68, "system_id": 1}, "message": {"autopilot": {"type": "MAV_AUTOPILOT_ARDUPILOTMEGA"}, "base_mode": {"bits": 137}, "custom_mode": 10, "mavlink_version": 3, "mavtype": {"type": "MAV_TYPE_SURFACE_BOAT"}, "system_status": {"type": "MAV_STATE_ACTIVE"}, "type": "HEARTBEAT"}}}
{"packet_index": 4583, "message": {"header": {"component_id": 1, "sequence": 109, "system_id": 1}, "message": {"airspeed": 0.7120000123977661, "alt": 16.809999465942383, "climb": 0.015617388300597668, "groundspeed": 0.7411985397338867, "heading": 260, "throttle": 23, "type": "VFR_HUD"}}}
{"packet_index": 4682, "message": {"header": {"component_id": 1, "sequence": 174, "system_id": 1}, "message": {"airspeed": 0.7050000429153442, "alt": 16.889999389648438, "climb": 0.027995724231004715, "groundspeed": 0.7302231192588806, "heading": 261, "throttle": 23, "type": "VFR_HUD"}}}
{"packet_index": 4727, "message": {"header": {"component_id": 1, "sequence": 200, "system_id": 1}, "message": {"altitude": 32970, "latitude": 634405552, "longitude": 103484873, "time_usec": 7227367421, "type": "GPS_GLOBAL_ORIGIN"}}}
{"packet_index": 4728, "message": {"header": {"component_id": 1, "sequence": 201, "system_id": 1}, "message": {"altitude": 6860, "approach_x": 0.0, "approach_y": 0.0, "approach_z": 0.0, "latitude": 634405553, "longitude": 103484876, "q": [null, null, null, null], "time_usec": 7227367427, "type": "HOME_POSITION", "x": 0.011131884530186653, "y": 0.01493206899613142, "z": 26.10999870300293}}}
{"packet_index": 4791, "message": {"header": {"component_id": 1, "sequence": 241, "system_id": 1}, "message": {"airspeed": 0.7010000348091125, "alt": 16.889999389648438, "climb": 0.06849564611911774, "groundspeed": 0.696153998374939, "heading": 260, "throttle": 27, "type": "VFR_HUD"}}}
{"packet_index": 4801, "message": {"header": {"component_id": 1, "sequence": 253, "system_id": 1}, "message": {"autopilot": {"type": "MAV_AUTOPILOT_ARDUPILOTMEGA"}, "base_mode": {"bits": 137}, "custom_mode": 10, "mavlink_version": 3, "mavtype": {"type": "MAV_TYPE_SURFACE_BOAT"}, "system_status": {"type": "MAV_STATE_ACTIVE"}, "type": "HEARTBEAT"}}}
{"packet_index": 4899, "message": {"header": {"component_id": 1, "sequence": 35, "system_id": 1}, "message": {"airspeed": 0.6690000295639038, "alt": 16.8799991607666, "climb": -0.011970074847340584, "groundspeed": 0.7007361650466919, "heading": 260, "throttle": 26, "type": "VFR_HUD"}}}
{"packet_index": 4997, "message": {"header": {"component_id": 1, "sequence": 97, "system_id": 1}, "message": {"airspeed": 0.7020000219345093, "alt": 16.899999618530273, "climb": 0.1608676165342331, "groundspeed": 0.7233595252037048, "heading": 260, "throttle": 24, "type": "VFR_HUD"}}}
{"packet_index": 5046, "message": {"header": {"component_id": 1, "sequence": 129, "system_id": 1}, "message": {"altitude": 32970, "latitude": 634405552, "longitude": 103484873, "time_usec": 7228367447, "type": "GPS_GLOBAL_ORIGIN"}}}
{"packet_index": 5047, "message": {"header": {"component_id": 1, "sequence": 130, "system_id": 1}, "message": {"altitude": 6860, "approach_x": 0.0, "approach_y": 0.0, "approach_z": 0.0, "latitude": 634405553, "longitude": 103484876, "q": [null, null, null, null], "time_usec": 7228367451, "type": "HOME_POSITION", "x": 0.011131884530186653, "y": 0.01493206899613142, "z": 26.10999870300293}}}
{"packet_index": 5107, "message": {"header": {"component_id": 1, "sequence": 167, "system_id": 1}, "message": {"airspeed": 0.7240000367164612, "alt": 17.010000228881836, "climb": 0.09876389056444168, "groundspeed": 0.7201958894729614, "heading": 259, "throttle": 25, "type": "VFR_HUD"}}}
{"packet_index": 5121, "message": {"header": {"component_id": 1, "sequence": 179, "system_id": 1}, "message": {"autopilot": {"type": "MAV_AUTOPILOT_ARDUPILOTMEGA"}, "base_mode": {"bits": 137}, "custom_mode": 10, "mavlink_version": 3, "mavtype": {"type": "MAV_TYPE_SURFACE_BOAT"}, "system_status": {"type": "MAV_STATE_ACTIVE"}, "type": "HEARTBEAT"}}}
{"packet_index": 5216, "message": {"header": {"component_id": 1, "sequence": 217, "system_id": 1}, "message": {"airspeed": 0.7470000386238098, "alt": 17.139999389648438, "climb": 0.1079351156949997, "groundspeed": 0.7792125344276428, "heading": 258, "throttle": 19, "type": "VFR_HUD"}}}
{"packet_index": 5313, "message": {"header": {"component_id": 1, "sequence": 23, "system_id": 1}, "message": {"airspeed": 0.7620000243186951, "alt": 17.239999771118164, "climb": 0.1698792278766632, "groundspeed": 0.7665260434150696, "heading": 258, "throttle": 20, "type": "VFR_HUD"}}}
{"packet_index": 5362, "message": {"header": {"component_id": 1, "sequence": 55, "system_id": 1}, "message": {"altitude": 32970, "latitude": 634405552, "longitude": 103484873, "time_usec": 7229367425, "type": "GPS_GLOBAL_ORIGIN"}}}
{"packet_index": 5363, "message": {"header": {"component_id": 1, "sequence": 56, "system_id": 1}, "message": {"altitude": 6860, "approach_x": 0.0, "approach_y": 0.0, "approach_z": 0.0, "latitude": 634405553, "longitude": 103484876, "q": [null, null, null, null], "time_usec": 7229367431, "type": "HOME_POSITION", "x": 0.011131884530186653, "y": 0.01493206899613142, "z": 26.10999870300293}}}
{"packet_index": 5422, "message": {"header": {"component_id": 1, "sequence": 93, "system_id": 1}, "message": {"airspeed": 0.7520000338554382, "alt": 17.19999885559082, "climb": 0.15617536008358002, "groundspeed": 0.7669972777366638, "heading": 259, "throttle": 20, "type": "VFR_HUD"}}}
{"packet_index": 5437, "message": {"header": {"component_id": 1, "sequence": 105, "system_id": 1}, "message": {"autopilot": {"type": "MAV_AUTOPILOT_ARDUPILOTMEGA"}, "base_mode": {"bits": 137}, "custom_mode": 10, "mavlink_version": 3, "mavtype": {"type": "MAV_TYPE_SURFACE_BOAT"}, "system_status": {"type": "MAV_STATE_ACTIVE"}, "type": "HEARTBEAT"}}}
{"packet_index": 5529, "message": {"header": {"component_id": 1, "sequence": 143, "system_id": 1}, "message": {"airspeed": 0.7860000133514404, "alt": 17.25, "climb": 0.22775574028491974, "groundspeed": 0.7769338488578796, "heading": 259, "throttle": 19, "type": "VFR_HUD"}}}
{"packet_index": 5629, "message": {"header": {"component_id": 1, "sequence": 205, "system_id": 1}, "message": {"airspeed": 0.7870000600814819, "alt": 17.31999969482422, "climb": 0.055878378450870514, "groundspeed": 0.7792131900787354, "heading": 260, "throttle": 18, "type": "VFR_HUD"}}}
{"packet_index": 5678, "message": {"header": {"component_id": 1, "sequence": 237, "system_id": 1}, "message": {"altitude": 32970, "latitude": 634405552, "longitude": 103484873, "time_usec": 7230367401, "type": "GPS_GLOBAL_ORIGIN"}}}
{"packet_index": 5679, "message": {"header": {"component_id": 1, "sequence": 238, "system_id": 1}, "message": {"altitude": 6860, "approach_x": 0.0, "approach_y": 0.0, "approach_z": 0.0, "latitude": 634405553, "longitude": 103484876, "q": [null, null, null, null], "time_usec": 7230367408, "type": "HOME_POSITION", "x": 0.011131884530186653, "y": 0.01493206899613142, "z": 26.10999870300293}}}
{"packet_index": 5742, "message": {"header": {"component_id": 1, "sequence": 22, "system_id": 1}, "message": {"airspeed": 0.7870000600814819, "alt": 17.43000030517578, "climb": 0.09293173253536224, "groundspeed": 0.7664112448692322, "heading": 260, "throttle": 19, "type": "VFR_HUD"}}}
{"packet_index": 5845, "message": {"header": {"component_id": 1, "sequence": 79, "system_id": 1}, "message": {"airspeed": 0.734000027179718, "alt": 17.459999084472656, "climb": -0.0231278445571661, "groundspeed": 0.7264758348464966, "heading": 260, "throttle": 23, "type": "VFR_HUD"}}}
{"packet_index": 5947, "message": {"header": {"component_id": 1, "sequence": 141, "system_id": 1}, "message": {"airspeed": 0.7140000462532043, "alt": 17.459999084472656, "climb": -0.08725001662969589, "groundspeed": 0.6890428066253662, "heading": 259, "throttle": 27, "type": "VFR_HUD"}}}
{"packet_index": 5996, "message": {"header": {"component_id": 1, "sequence": 173, "system_id": 1}, "message": {"altitude": 32970, "latitude": 634405552, "longitude": 103484873, "time_usec": 7231367438, "type": "GPS_GLOBAL_ORIGIN"}}}
{"packet_index": 5997, "message": {"header": {"component_id": 1, "sequence": 174, "system_id": 1}, "message": {"altitude": 6860, "approach_x": 0.0, "approach_y": 0.0, "approach_z": 0.0, "latitude": 634405553, "longitude": 103484876, "q": [null, null, null, null], "time_usec": 7231367443, "type": "HOME_POSITION", "x": 0.011131884530186653, "y": 0.01493206899613142, "z": 26.10999870300293}}}
{"packet_index": 6056, "message": {"header": {"component_id": 1, "sequence": 211, "system_id": 1}, "message": {"airspeed": 0.659000039100647, "alt": 17.44999885559082, "climb": -0.014120493084192276, "groundspeed": 0.6954882740974426, "heading": 258, "throttle": 27, "type": "VFR_HUD"}}}
{"packet_index": 6068, "message": {"header": {"component_id": 1, "sequence": 223, "system_id": 1}, "message": {"autopilot": {"type": "MAV_AUTOPILOT_ARDUPILOTMEGA"}, "base_mode": {"bits": 137}, "custom_mode": 10, "mavlink_version": 3, "mavtype": {"type": "MAV_TYPE_SURFACE_BOAT"}, "system_status": {"type": "MAV_STATE_ACTIVE"}, "type": "HEARTBEAT"}}}
{"packet_index": 6160, "message": {"header": {"component_id": 1, "sequence": 5, "system_id": 1}, "message": {"airspeed": 0.6740000247955322, "alt": 17.350000381469727, "climb": 0.14364060759544373, "groundspeed": 0.6928549408912659, "heading": 258, "throttle": 28, "type": "VFR_HUD"}}}
{"packet_index": 6263, "message": {"header": {"component_id": 1, "sequence": 67, "system_id": 1}, "message": {"airspeed": 0.6800000071525574, "alt": 17.279998779296875, "climb": 0.15123336017131805, "groundspeed": 0.718069314956665, "heading": 258, "throttle": 26, "type": "VFR_HUD"}}}
{"packet_index": 6312, "message": {"header": {"component_id": 1, "sequence": 99, "system_id": 1}, "message": {"altitude": 32970, "latitude": 634405552, "longitude": 103484873, "time_usec": 7232367450, "type": "GPS_GLOBAL_ORIGIN"}}}
{"packet_index": 6313, "message": {"header": {"component_id": 1, "sequence": 100, "system_id": 1}, "message": {"altitude": 6860, "approach_x": 0.0, "approach_y": 0.0, "approach_z": 0.0, "latitude": 634405553, "longitude": 103484876, "q": [null, null, null, null], "time_usec": 7232367455, "type": "HOME_POSITION", "x": 0.011131884530186653, "y": 0.01493206899613142, "z": 26.10999870300293}}}
{"packet_index": 6372, "message": {"header": {"component_id": 1, "sequence": 137, "system_id": 1}, "message": {"airspeed": 0.7580000162124634, "alt": 17.219999313354492, "climb": 0.07832203060388565, "groundspeed": 0.7656649351119995, "heading": 259, "throttle": 21, "type": "VFR_HUD"}}}
{"packet_index": 6387, "message": {"header": {"component_id": 1, "sequence": 149, "system_id": 1}, "message": {"autopilot": {"type": "MAV_AUTOPILOT_ARDUPILOTMEGA"}, "base_mode": {"bits": 137}, "custom_mode": 10, "mavlink_version": 3, "mavtype": {"type": "MAV_TYPE_SURFACE_BOAT"}, "system_status": {"type": "MAV_STATE_ACTIVE"}, "type": "HEARTBEAT"}}}
{"packet_index": 6481, "message": {"header": {"component_id": 1, "sequence": 187, "system_id": 1}, "message": {"airspeed": 0.7680000066757202, "alt": 17.190000534057617, "climb": 0.23590201139450073, "groundspeed": 0.7698550820350647, "heading": 258, "throttle": 20, "type": "VFR_HUD"}}}
{"packet_index": 6579, "message": {"header": {"component_id": 1, "sequence": 249, "system_id": 1}, "message": {"airspeed": 0.7900000214576721, "alt": 17.059999465942383, "climb": 0.06653498113155365, "groundspeed": 0.8068000078201294, "heading": 257, "throttle": 16, "type": "VFR_HUD"}}}
{"packet_index": 6628, "message": {"header": {"component_id": 1, "sequence": 25, "system_id": 1}, "message": {"altitude": 32970, "latitude": 634405552, "longitude": 103484873, "time_usec": 7233367420, "type": "GPS_GLOBAL_ORIGIN"}}}
{"packet_index": 6629, "message": {"header": {"component_id": 1, "sequence": 26, "system_id": 1}, "message": {"altitude": 6860, "approach_x": 0.0, "approach_y": 0.0, "approach_z": 0.0, "latitude": 634405553, "longitude": 103484876, "q": [null, null, null, null], "time_usec": 7233367426, "type": "HOME_POSITION", "x": 0.011131884530186653, "y": 0.01493206899613142, "z": 26.10999870300293}}}
{"packet_index": 6688, "message": {"header": {"component_id": 1, "sequence": 63, "system_id": 1}, "message": {"airspeed": 0.8540000319480896, "alt": 17.049999237060547, "climb": 0.0014836157206445932, "groundspeed": 0.7867108583450317, "heading": 256, "throttle": 17, "type": "VFR_HUD"}}}
{"packet_index": 6699, "message": {"header": {"component_id": 1, "sequence": 75, "system_id": 1}, "message": {"autopilot": {"type": "MAV_AUTOPILOT_ARDUPILOTMEGA"}, "base_mode": {"bits": 137}, "custom_mode": 10, "mavlink_version": 3, "mavtype": {"type": "MAV_TYPE_SURFACE_BOAT"}, "system_status": {"type": "MAV_STATE_ACTIVE"}, "type": "HEARTBEAT"}}}
{"packet_index": 6794, "message": {"header": {"component_id": 1, "sequence": 113, "system_id": 1}, "message": {"airspeed": 0.7430000305175781, "alt": 17.10999870300293, "climb": -0.006269873585551977, "groundspeed": 0.7665596008300781, "heading": 255, "throttle": 19, "type": "VFR_HUD"}}}
{"packet_index": 6898, "message": {"header": {"component_id": 1, "sequence": 178, "system_id": 1}, "message": {"airspeed": 0.7630000114440918, "alt": 17.100000381469727, "climb": -0.06908031553030014, "groundspeed": 0.7425649166107178, "heading": 255, "throttle": 23, "type": "VFR_HUD"}}}
{"packet_index": 6948, "message": {"header": {"component_id": 1, "sequence": 210, "system_id": 1}, "message": {"altitude": 32970, "latitude": 634405552, "longitude": 103484873, "time_usec": 7234367536, "type": "GPS_GLOBAL_ORIGIN"}}}
{"packet_index": 6949, "message": {"header": {"component_id": 1, "sequence": 211, "system_id": 1}, "message": {"altitude": 6860, "approach_x": 0.0, "approach_y": 0.0, "approach_z": 0.0, "latitude": 634405553, "longitude": 103484876, "q": [null, null, null, null], "time_usec": 7234367543, "type": "HOME_POSITION", "x": 0.011131884530186653, "y": 0.01493206899613142, "z": 26.10999870300293}}}
{"packet_index": 7007, "message": {"header": {"component_id": 1, "sequence": 249, "system_id": 1}, "message": {"airspeed": 0.7100000381469727, "alt": 17.100000381469727, "climb": -0.1253131628036499, "groundspeed": 0.7339653968811035, "heading": 256, "throttle": 24, "type": "VFR_HUD"}}}
{"packet_index": 7022, "message": {"header": {"component_id": 1, "sequence": 5, "system_id": 1}, "message": {"autopilot": {"type": "MAV_AUTOPILOT_ARDUPILOTMEGA"}, "base_mode": {"bits": 137}, "custom_mode": 10, "mavlink_version": 3, "mavtype": {"type": "MAV_TYPE_SURFACE_BOAT"}, "system_status": {"type": "MAV_STATE_ACTIVE"}, "type": "HEARTBEAT"}}}
{"packet_index": 7106, "message": {"header": {"component_id": 1, "sequence": 43, "system_id": 1}, "message": {"airspeed": 0.7310000061988831, "alt": 17.079999923706055, "climb": -0.06536387652158737, "groundspeed": 0.7205442786216736, "heading": 257, "throttle": 25, "type": "VFR_HUD"}}}
{"packet_index": 7214, "message": {"header": {"component_id": 1, "sequence": 105, "system_id": 1}, "message": {"airspeed": 0.6930000185966492, "alt": 17.03999900817871, "climb": 0.008270482532680035, "groundspeed": 0.734178364276886, "heading": 258, "throttle": 24, "type": "VFR_HUD"}}}
{"packet_index": 7263, "message": {"header": {"component_id": 1, "sequence": 137, "system_id": 1}, "message": {"altitude": 32970, "latitude": 634405552, "longitude": 103484873, "time_usec": 7235367429, "type": "GPS_GLOBAL_ORIGIN"}}}
{"packet_index": 7264, "message": {"header": {"component_id": 1, "sequence": 138, "system_id": 1}, "message": {"altitude": 6860, "approach_x": 0.0, "approach_y": 0.0, "approach_z": 0.0, "latitude": 634405553, "longitude": 103484876, "q": [null, null, null, null], "time_usec": 7235367434, "type": "HOME_POSITION", "x": 0.011131884530186653, "y": 0.01493206899613142, "z": 26.10999870300293}}}
{"packet_index": 7323, "message": {"header": {"component_id": 1, "sequence": 175, "system_id": 1}, "message": {"airspeed": 0.7270000576972961, "alt": 17.020000457763672, "climb": -0.011922837235033512, "groundspeed": 0.7413702011108398, "heading": 258, "throttle": 22, "type": "VFR_HUD"}}}
{"packet_index": 7332, "message": {"header": {"component_id": 1, "sequence": 187, "system_id": 1}, "message": {"autopilot": {"type": "MAV_AUTOPILOT_ARDUPILOTMEGA"}, "base_mode": {"bits": 137}, "custom_mode": 10, "mavlink_version": 3, "mavtype": {"type": "MAV_TYPE_SURFACE_BOAT"}, "system_status": {"type": "MAV_STATE_ACTIVE"}, "type": "HEARTBEAT"}}}
{"packet_index": 7422, "message": {"header": {"component_id": 1, "sequence": 225, "system_id": 1}, "message": {"airspeed": 0.7440000176429749, "alt": 16.979999542236328, "climb": 0.08750844746828079, "groundspeed": 0.7215883135795593, "heading": 258, "throttle": 25, "type": "VFR_HUD"}}}
{"packet_index": 7530, "message": {"header": {"component_id": 1, "sequence": 31, "system_id": 1}, "message": {"airspeed": 0.7170000076293945, "alt": 16.899999618530273, "climb": -0.04316385090351105, "groundspeed": 0.7144576907157898, "heading": 257, "throttle": 25, "type": "VFR_HUD"}}}
{"packet_index": 7579, "message": {"header": {"component_id": 1, "sequence": 63, "system_id": 1}, "message": {"altitude": 32970, "latitude": 634405552, "longitude": 103484873, "time_usec": 7236367416, "type": "GPS_GLOBAL_ORIGIN"}}}
{"packet_index": 7581, "message": {"header": {"component_id": 1, "sequence": 64, "system_id": 1}, "message": {"altitude": 6860, "approach_x": 0.0, "approach_y": 0.0, "approach_z": 0.0, "latitude": 634405553, "longitude": 103484876, "q": [null, null, null, null], "time_usec": 7236367423, "type": "HOME_POSITION", "x": 0.011131884530186653, "y": 0.01493206899613142, "z": 26.10999870300293}}}
{"packet_index": 7639, "message": {"header": {"component_id": 1, "sequence": 101, "system_id": 1}, "message": {"airspeed": 0.7160000205039978, "alt": 16.869998931884766, "climb": 0.023108191788196564, "groundspeed": 0.7095489501953125, "heading": 256, "throttle": 26, "type": "VFR_HUD"}}}
{"packet_index": 7654, "message": {"header": {"component_id": 1, "sequence": 113, "system_id": 1}, "message": {"autopilot": {"type": "MAV_AUTOPILOT_ARDUPILOTMEGA"}, "base_mode": {"bits": 137}, "custom_mode": 10, "mavlink_version": 3, "mavtype": {"type": "MAV_TYPE_SURFACE_BOAT"}, "system_status": {"type": "MAV_STATE_ACTIVE"}, "type": "HEARTBEAT"}}}
{"packet_index": 7738, "message": {"header": {"component_id": 1, "sequence": 151, "system_id": 1}, "message": {"airspeed": 0.7400000095367432, "alt": 16.850000381469727, "climb": 0.017671063542366028, "groundspeed": 0.756460964679718, "heading": 256, "throttle": 22, "type": "VFR_HUD"}}}
{"packet_index": 7846, "message": {"header": {"component_id": 1, "sequence": 213, "system_id": 1}, "message": {"airspeed": 0.7730000615119934, "alt": 16.889999389648438, "climb": 0.07966869324445724, "groundspeed": 0.8191849589347839, "heading": 256, "throttle": 16, "type": "VFR_HUD"}}}
{"packet_index": 7898, "message": {"header": {"component_id": 1, "sequence": 248, "system_id": 1}, "message": {"altitude": 32970, "latitude": 634405552, "longitude": 103484873, "time_usec": 7237367446, "type": "GPS_GLOBAL_ORIGIN"}}}
{"packet_index": 7899, "message": {"header": {"component_id": 1, "sequence": 249, "system_id": 1}, "message": {"altitude": 6860, "approach_x": 0.0, "approach_y": 0.0, "approach_z": 0.0, "latitude": 634405553, "longitude": 103484876, "q": [null, null, null, null], "time_usec": 7237367451, "type": "HOME_POSITION", "x": 0.011131884530186653, "y": 0.01493206899613142, "z": 26.10999870300293}}}
{"packet_index": 7955, "message": {"header": {"component_id": 1, "sequence": 27, "system_id": 1}, "message": {"airspeed": 0.8080000281333923, "alt": 16.940000534057617, "climb": -0.002864087698981166, "groundspeed": 0.8032047748565674, "heading": 257, "throttle": 17, "type": "VFR_HUD"}}}
{"packet_index": 7968, "message": {"header": {"component_id": 1, "sequence": 42, "system_id": 1}, "message": {"autopilot": {"type": "MAV_AUTOPILOT_ARDUPILOTMEGA"}, "base_mode": {"bits": 137}, "custom_mode": 10, "mavlink_version": 3, "mavtype": {"type": "MAV_TYPE_SURFACE_BOAT"}, "system_status": {"type": "MAV_STATE_ACTIVE"}, "type": "HEARTBEAT"}}}
{"packet_index": 8057, "message": {"header": {"component_id": 1, "sequence": 80, "system_id": 1}, "message": {"airspeed": 0.7780000567436218, "alt": 16.969999313354492, "climb": -0.09012086689472198, "groundspeed": 0.7820360660552979, "heading": 258, "throttle": 18, "type": "VFR_HUD"}}}
{"packet_index": 8165, "message": {"header": {"component_id": 1, "sequence": 142, "system_id": 1}, "message": {"airspeed": 0.7730000615119934, "alt": 16.959999084472656, "climb": -0.05766809731721878, "groundspeed": 0.7493592500686646, "heading": 258, "throttle": 21, "type": "VFR_HUD"}}}
{"packet_index": 8214, "message": {"header": {"component_id": 1, "sequence": 174, "system_id": 1}, "message": {"altitude": 32970, "latitude": 634405552, "longitude": 103484873, "time_usec": 7238367548, "type": "GPS_GLOBAL_ORIGIN"}}}
{"packet_index": 8215, "message": {"header": {"component_id": 1, "sequence": 175, "system_id": 1}, "message": {"altitude": 6860, "approach_x": 0.0, "approach_y": 0.0, "approach_z": 0.0, "latitude": 634405553, "longitude": 103484876, "q": [null, null, null, null], "time_usec": 7238367554, "type": "HOME_POSITION", "x": 0.011131884530186653, "y": 0.01493206899613142, "z": 26.10999870300293}}}
{"packet_index": 8274, "message": {"header": {"component_id": 1, "sequence": 212, "system_id": 1}, "message": {"airspeed": 0.7350000143051147, "alt": 16.829999923706055, "climb": -0.04243701696395874, "groundspeed": 0.690912663936615, "heading": 257, "throttle": 27, "type": "VFR_HUD"}}}
{"packet_index": 8285, "message": {"header": {"component_id": 1, "sequence": 224, "system_id": 1}, "message": {"autopilot": {"type": "MAV_AUTOPILOT_ARDUPILOTMEGA"}, "base_mode": {"bits": 137}, "custom_mode": 10, "mavlink_version": 3, "mavtype": {"type": "MAV_TYPE_SURFACE_BOAT"}, "system_status": {"type": "MAV_STATE_ACTIVE"}, "type": "HEARTBEAT"}}}
{"packet_index": 8373, "message": {"header": {"component_id": 1, "sequence": 6, "system_id": 1}, "message": {"airspeed": 0.6930000185966492, "alt": 16.75, "climb": -0.08144481480121613, "groundspeed": 0.7220357656478882, "heading": 257, "throttle": 24, "type": "VFR_HUD"}}}
{"packet_index": 8481, "message": {"header": {"component_id": 1, "sequence": 68, "system_id": 1}, "message": {"airspeed": 0.7270000576972961, "alt": 16.78999900817871, "climb": 0.025137223303318024, "groundspeed": 0.741449236869812, "heading": 256, "throttle": 23, "type": "VFR_HUD"}}}
{"packet_index": 8530, "message": {"header": {"component_id": 1, "sequence": 100, "system_id": 1}, "message": {"altitude": 32970, "latitude": 634405552, "longitude": 103484873, "time_usec": 7239367433, "type": "GPS_GLOBAL_ORIGIN"}}}
{"packet_index": 8531, "message": {"header": {"component_id": 1, "sequence": 101, "system_id": 1}, "message": {"altitude": 6860, "approach_x": 0.0, "approach_y": 0.0, "approach_z": 0.0, "latitude": 634405553, "longitude": 103484876, "q": [null, null, null, null], "time_usec": 7239367439, "type": "HOME_POSITION", "x": 0.011131884530186653, "y": 0.01493206899613142, "z": 26.10999870300293}}}
{"packet_index": 8590, "message": {"header": {"component_id": 1, "sequence": 138, "system_id": 1}, "message": {"airspeed": 0.7200000286102295, "alt": 16.78999900817871, "climb": -0.05429051071405411, "groundspeed": 0.734151303768158, "heading": 256, "throttle": 24, "type": "VFR_HUD"}}}
{"packet_index": 8605, "message": {"header": {"component_id": 1, "sequence": 150, "system_id": 1}, "message": {"autopilot": {"type": "MAV_AUTOPILOT_ARDUPILOTMEGA"}, "base_mode": {"bits": 137}, "custom_mode": 10, "mavlink_version": 3, "mavtype": {"type": "MAV_TYPE_SURFACE_BOAT"}, "system_status": {"type": "MAV_STATE_ACTIVE"}, "type": "HEARTBEAT"}}}
{"packet_index": 8689, "message": {"header": {"component_id": 1, "sequence": 188, "system_id": 1}, "message": {"airspeed": 0.734000027179718, "alt": 16.729999542236328, "climb": -0.07345578819513321, "groundspeed": 0.7251916527748108, "heading": 256, "throttle": 24, "type": "VFR_HUD"}}}
{"packet_index": 8797, "message": {"header": {"component_id": 1, "sequence": 250, "system_id": 1}, "message": {"airspeed": 0.7130000591278076, "alt": 16.709999084472656, "climb": -0.004789403639733791, "groundspeed": 0.7280845046043396, "heading": 256, "throttle": 25, "type": "VFR_HUD"}}}
{"packet_index": 8846, "message": {"header": {"component_id": 1, "sequence": 26, "system_id": 1}, "message": {"altitude": 32970, "latitude": 634405552, "longitude": 103484873, "time_usec": 7240367436, "type": "GPS_GLOBAL_ORIGIN"}}}
{"packet_index": 8847, "message": {"header": {"component_id": 1, "sequence": 27, "system_id": 1}, "message": {"altitude": 6860, "approach_x": 0.0, "approach_y": 0.0, "approach_z": 0.0, "latitude": 634405553, "longitude": 103484876, "q": [null, null, null, null], "time_usec": 7240367442, "type": "HOME_POSITION", "x": 0.011131884530186653, "y": 0.01493206899613142, "z": 26.10999870300293}}}
{"packet_index": 8906, "message": {"header": {"component_id": 1, "sequence": 64, "system_id": 1}, "message": {"airspeed": 0.7280000448226929, "alt": 16.600000381469727, "climb": -0.060581985861063004, "groundspeed": 0.7513512969017029, "heading": 256, "throttle": 22, "type": "VFR_HUD"}}}
{"packet_index": 8921, "message": {"header": {"component_id": 1, "sequence": 79, "system_id": 1}, "message": {"autopilot": {"type": "MAV_AUTOPILOT_ARDUPILOTMEGA"}, "base_mode": {"bits": 137}, "custom_mode": 10, "mavlink_version": 3, "mavtype": {"type": "MAV_TYPE_SURFACE_BOAT"}, "system_status": {"type": "MAV_STATE_ACTIVE"}, "type": "HEARTBEAT"}}}
{"packet_index": 9005, "message": {"header": {"component_id": 1, "sequence": 114, "system_id": 1}, "message": {"airspeed": 0.7470000386238098, "alt": 16.549999237060547, "climb": -0.011862250044941902, "groundspeed": 0.7431830763816833, "heading": 256, "throttle": 23, "type": "VFR_HUD"}}}
{"packet_index": 9113, "message": {"header": {"component_id": 1, "sequence": 176, "system_id": 1}, "message": {"airspeed": 0.7040000557899475, "alt": 16.529998779296875, "climb": -0.04900128394365311, "groundspeed": 0.7573791146278381, "heading": 256, "throttle": 21, "type": "VFR_HUD"}}}
{"packet_index": 9165, "message": {"header": {"component_id": 1, "sequence": 211, "system_id": 1}, "message": {"altitude": 32970, "latitude": 634405552, "longitude": 103484873, "time_usec": 7241367444, "type": "GPS_GLOBAL_ORIGIN"}}}
{"packet_index": 9166, "message": {"header": {"component_id": 1, "sequence": 212, "system_id": 1}, "message": {"altitude": 6860, "approach_x": 0.0, "approach_y": 0.0, "approach_z": 0.0, "latitude": 634405553, "longitude": 103484876, "q": [null, null, null, null], "time_usec": 7241367449, "type": "HOME_POSITION", "x": 0.011131884530186653, "y": 0.01493206899613142, "z": 26.10999870300293}}}
{"packet_index": 9216, "message": {"header": {"component_id": 1, "sequence": 249, "system_id": 1}, "message": {"airspeed": 0.7670000195503235, "alt": 16.559999465942383, "climb": 0.08225945383310318, "groundspeed": 0.7646440863609314, "heading": 255, "throttle": 21, "type": "VFR_HUD"}}}
{"packet_index": 9238, "message": {"header": {"component_id": 1, "sequence": 5, "system_id": 1}, "message": {"autopilot": {"type": "MAV_AUTOPILOT_ARDUPILOTMEGA"}, "base_mode": {"bits": 137}, "custom_mode": 10, "mavlink_version": 3, "mavtype": {"type": "MAV_TYPE_SURFACE_BOAT"}, "system_status": {"type": "MAV_STATE_ACTIVE"}, "type": "HEARTBEAT"}}}
{"packet_index": 9324, "message": {"header": {"component_id": 1, "sequence": 43, "system_id": 1}, "message": {"airspeed": 0.7550000548362732, "alt": 16.489999771118164, "climb": -0.04042147472500801, "groundspeed": 0.7787910103797913, "heading": 255, "throttle": 19, "type": "VFR_HUD"}}}
{"packet_index": 9432, "message": {"header": {"component_id": 1, "sequence": 105, "system_id": 1}, "message": {"airspeed": 0.7900000214576721, "alt": 16.520000457763672, "climb": -0.030348319560289383, "groundspeed": 0.7604638934135437, "heading": 255, "throttle": 21, "type": "VFR_HUD"}}}
{"packet_index": 9481, "message": {"header": {"component_id": 1, "sequence": 137, "system_id": 1}, "message": {"altitude": 32970, "latitude": 634405552, "longitude": 103484873, "time_usec": 7242367449, "type": "GPS_GLOBAL_ORIGIN"}}}
{"packet_index": 9482, "message": {"header": {"component_id": 1, "sequence": 138, "system_id": 1}, "message": {"altitude": 6860, "approach_x": 0.0, "approach_y": 0.0, "approach_z": 0.0, "latitude": 634405553, "longitude": 103484876, "q": [null, null, null, null], "time_usec": 7242367453, "type": "HOME_POSITION", "x": 0.011131884530186653, "y": 0.01493206899613142, "z": 26.10999870300293}}}
{"packet_index": 9532, "message": {"header": {"component_id": 1, "sequence": 175, "system_id": 1}, "message": {"airspeed": 0.7630000114440918, "alt": 16.529998779296875, "climb": -0.13556769490242004, "groundspeed": 0.7644309997558594, "heading": 255, "throttle": 21, "type": "VFR_HUD"}}}
{"packet_index": 9547, "message": {"header": {"component_id": 1, "sequence": 187, "system_id": 1}, "message": {"autopilot": {"type": "MAV_AUTOPILOT_ARDUPILOTMEGA"}, "base_mode": {"bits": 137}, "custom_mode": 10, "mavlink_version": 3, "mavtype": {"type": "MAV_TYPE_SURFACE_BOAT"}, "system_status": {"type": "MAV_STATE_ACTIVE"}, "type": "HEARTBEAT"}}}
{"packet_index": 9640, "message": {"header": {"component_id": 1, "sequence": 225, "system_id": 1}, "message": {"airspeed": 0.7510000467300415, "alt": 16.489999771118164, "climb": -0.05959651246666908, "groundspeed": 0.7455419301986694, "heading": 255, "throttle": 22, "type": "VFR_HUD"}}}
{"packet_index": 9748, "message": {"header": {"component_id": 1, "sequence": 31, "system_id": 1}, "message": {"airspeed": 0.6970000267028809, "alt": 16.420000076293945, "climb": -0.09352392703294754, "groundspeed": 0.7529646158218384, "heading": 255, "throttle": 21, "type": "VFR_HUD"}}}
{"packet_index": 9797, "message": {"header": {"component_id": 1, "sequence": 63, "system_id": 1}, "message": {"altitude": 32970, "latitude": 634405552, "longitude": 103484873, "time_usec": 7243367421, "type": "GPS_GLOBAL_ORIGIN"}}}
{"packet_index": 9798, "message": {"header": {"component_id": 1, "sequence": 64, "system_id": 1}, "message": {"altitude": 6860, "approach_x": 0.0, "approach_y": 0.0, "approach_z": 0.0, "latitude": 634405553, "longitude": 103484876, "q": [null, null, null, null], "time_usec": 7243367428, "type": "HOME_POSITION", "x": 0.011131884530186653, "y": 0.01493206899613142, "z": 26.10999870300293}}}
{"packet_index": 9848, "message": {"header": {"component_id": 1, "sequence": 101, "system_id": 1}, "message": {"airspeed": 0.7460000514984131, "alt": 16.350000381469727, "climb": -0.11789308488368988, "groundspeed": 0.7566512823104858, "heading": 255, "throttle": 21, "type": "VFR_HUD"}}}
{"packet_index": 9863, "message": {"header": {"component_id": 1, "sequence": 113, "system_id": 1}, "message": {"autopilot": {"type": "MAV_AUTOPILOT_ARDUPILOTMEGA"}, "base_mode": {"bits": 137}, "custom_mode": 10, "mavlink_version": 3, "mavtype": {"type": "MAV_TYPE_SURFACE_BOAT"}, "system_status": {"type": "MAV_STATE_ACTIVE"}, "type": "HEARTBEAT"}}}
{"packet_index": 9956, "message": {"header": {"component_id": 1, "sequence": 150, "system_id": 1}, "message": {"param_count": 990, "param_id": ["S", "T", "A", "T", "_", "F", "L", "T", "T", "I", "M", "E", "\u0000", "\u0000", "\u0000", "\u0000"], "param_index": 65535, "param_type": {"type": "MAV_PARAM_TYPE_INT32"}, "param_value": 3517.0, "type": "PARAM_VALUE"}}}
{"packet_index": 9957, "message": {"header": {"component_id": 1, "sequence": 151, "system_id": 1}, "message": {"param_count": 990, "param_id": ["S", "T", "A", "T", "_", "R", "U", "N", "T", "I", "M", "E", "\u0000", "\u0000", "\u0000", "\u0000"], "param_index": 65535, "param_type": {"type": "MAV_PARAM_TYPE_INT32"}, "param_value": 49104.0, "type": "PARAM_VALUE"}}}
{"packet_index": 9958, "message": {"header": {"component_id": 1, "sequence": 153, "system_id": 1}, "message": {"airspeed": 0.7900000214576721, "alt": 16.369998931884766, "climb": -0.005695161409676075, "groundspeed": 0.7285143136978149, "heading": 255, "throttle": 24, "type": "VFR_HUD"}}}
{"packet_index": 10066, "message": {"header": {"component_id": 1, "sequence": 215, "system_id": 1}, "message": {"airspeed": 0.718000054359436, "alt": 16.329999923706055, "climb": -0.11313978582620621, "groundspeed": 0.7107254266738892, "heading": 255, "throttle": 26, "type": "VFR_HUD"}}}
{"packet_index": 10118, "message": {"header": {"component_id": 1, "sequence": 250, "system_id": 1}, "message": {"altitude": 32970, "latitude": 634405552, "longitude": 103484873, "time_usec": 7244367439, "type": "GPS_GLOBAL_ORIGIN"}}}
{"packet_index": 10119, "message": {"header": {"component_id": 1, "sequence": 251, "system_id": 1}, "message": {"altitude": 6860, "approach_x": 0.0, "approach_y": 0.0, "approach_z": 0.0, "latitude": 634405553, "longitude": 103484876, "q": [null, null, null, null], "time_usec": 7244367443, "type": "HOME_POSITION", "x": 0.011131884530186653, "y": 0.01493206899613142, "z": 26.10999870300293}}}
