packet_index,time_boot_ms,x_m,y_m,z_m,vx_mps,vy_mps,vz_mps
5,7212467,51.63929748535156,42.462196350097656,17.51854705810547,0.0830635130405426,-0.09599142521619797,0.06809794157743454
16,7212487,51.64002227783203,42.45998001098633,17.516376495361328,0.08742278814315796,-0.09841983020305634,0.08158361166715622
23,7212527,51.640472412109375,42.45494842529297,17.513690948486328,0.09515927731990814,-0.10181425511837006,0.1085217297077179
36,7212567,51.6416015625,42.45002365112305,17.50763702392578,0.1052413135766983,-0.1046101525425911,0.12847812473773956
51,7212587,51.642425537109375,42.44757080078125,17.50543975830078,0.10938440263271332,-0.10454269498586655,0.13671381771564484
56,7212627,51.644596099853516,42.442710876464844,17.50247573852539,0.11905699223279953,-0.10570281744003296,0.15075397491455078
69,7212667,51.64736557006836,42.43796920776367,17.495361328125,0.12497414648532867,-0.10287091135978699,0.15568701922893524
82,7212687,51.648929595947266,42.435691833496094,17.492509841918945,0.12785063683986664,-0.09866680949926376,0.15452811121940613
87,7212727,51.651222229003906,42.43097686767578,17.487003326416016,0.13087581098079681,-0.09579167515039444,0.14645546674728394
100,7212767,51.65397644042969,42.42652130126953,17.476774215698242,0.13343104720115662,-0.09060046821832657,0.13060808181762695
113,7212787,51.655487060546875,42.42442321777344,17.4721736907959,0.13349127769470215,-0.08617185056209564,0.11889803409576416
118,7212827,51.65890121459961,42.420413970947266,17.463829040527344,0.1351650506258011,-0.07967523485422134,0.09691472351551056
130,7212847,51.6606559753418,42.41859436035156,17.45744514465332,0.13556988537311554,-0.07545115053653717,0.08423737436532974
146,7212887,51.664329528808594,42.415245056152344,17.445518493652344,0.13370554149150848,-0.06753216683864594,0.05739670246839523
152,7212927,51.66709518432617,42.412025451660156,17.433582305908203,0.13300704956054688,-0.06035301834344864,0.028284113854169846
164,7212947,51.6685791015625,42.410552978515625,17.426807403564453,0.13165579736232758,-0.05679260194301605,0.01332060992717743
178,7212987,51.67169189453125,42.407859802246094,17.413803100585938,0.12971368432044983,-0.05058259889483452,-0.01735970564186573
183,7213027,51.675018310546875,42.405494689941406,17.401273727416992,0.12814219295978546,-0.04381263256072998,-0.04843597859144211
195,7213047,51.67673873901367,42.40443801879883,17.39590835571289,0.12685036659240723,-0.04073208197951317,-0.06313791871070862
209,7213087,51.68027877807617,42.40253448486328,17.385156631469727,0.12513931095600128,-0.03511393815279007,-0.09232892096042633
214,7213127,51.68328094482422,42.400489807128906,17.374216079711914,0.12296469509601593,-0.0283541027456522,-0.1195775717496872
226,7213147,51.68479919433594,42.39960861206055,17.37068748474121,0.1219380721449852,-0.025923889130353928,-0.13203662633895874
238,7213187,51.68794250488281,42.39804458618164,17.363113403320312,0.11876136064529419,-0.02113799937069416,-0.15617364645004272
245,7213227,51.69115447998047,42.39667892456055,17.354923248291016,0.11348032206296921,-0.02055058442056179,-0.1784995198249817
258,7213247,51.69273376464844,42.3960075378418,17.353376388549805,0.10924915969371796,-0.022184288129210472,-0.18776220083236694
272,7213287,51.695762634277344,42.394569396972656,17.349401473999023,0.1014646589756012,-0.026397759094834328,-0.2029874175786972
277,7213327,51.69692611694336,42.392208099365234,17.345476150512695,0.09273558109998703,-0.029921947047114372,-0.21035774052143097
289,7213347,51.697513580322266,42.391021728515625,17.34714126586914,0.08806254714727402,-0.032429855316877365,-0.21104733645915985
305,7213387,51.69875717163086,42.38861846923828,17.349163055419922,0.08031349629163742,-0.033978577703237534,-0.20712968707084656
310,7213427,51.69989013671875,42.38636016845703,17.350467681884766,0.0735405758023262,-0.03387768566608429,-0.19293928146362305
322,7213447,51.7004508972168,42.38526153564453,17.355253219604492,0.06885980814695358,-0.03467447683215141,-0.18279719352722168
336,7213487,51.7014045715332,42.383052825927734,17.36387062072754,0.0580720454454422,-0.03757959604263306,-0.15626506507396698
340,7213507,51.70070266723633,42.38158416748047,17.368574142456055,0.04997333884239197,-0.03724444657564163,-0.13901112973690033
353,7213547,51.699214935302734,42.378684997558594,17.380861282348633,0.03508593887090683,-0.04214094206690788,-0.10147452354431152
369,7213587,51.697540283203125,42.375797271728516,17.39545249938965,0.02706066146492958,-0.04644862934947014,-0.06672666221857071
373,7213607,51.69673538208008,42.37436294555664,17.40241813659668,0.020084181800484657,-0.04426896199584007,-0.046797554939985275
386,7213647,51.69514083862305,42.37178039550781,17.416027069091797,0.017904361709952354,-0.0384676568210125,-0.00996854156255722
400,7213687,51.693687438964844,42.369510650634766,17.429264068603516,0.01251376885920763,-0.03360125049948692,0.02273174747824669
404,7213707,51.69218826293945,42.368186950683594,17.43598175048828,0.011130081489682198,-0.028592798858880997,0.03729882463812828
417,7213747,51.68949508666992,42.36576461791992,17.44529151916504,0.009673859924077988,-0.02815004624426365,0.06189410015940666
431,7213787,51.68703842163086,42.363529205322266,17.45110321044922,0.004139370284974575,-0.028262710198760033,0.08153946697711945
435,7213807,51.68584442138672,42.3624382019043,17.454130172729492,9.301445243181661e-05,-0.03050302341580391,0.08892347663640976
448,7213847,51.6834831237793,42.36023712158203,17.454439163208008,-0.008750149980187416,-0.03413543477654457,0.09905193746089935
462,7213887,51.68105697631836,42.357948303222656,17.449975967407227,-0.01596657559275627,-0.0398649126291275,0.09871533513069153
467,7213907,51.67925262451172,42.35660934448242,17.447940826416016,-0.0204404816031456,-0.04259027913212776,0.09816504269838333
480,7213947,51.67564392089844,42.353851318359375,17.438907623291016,-0.02913990616798401,-0.04983161762356758,0.08722270280122757
494,7213987,51.67204666137695,42.35097122192383,17.425960540771484,-0.03657691553235054,-0.050536271184682846,0.07368054240942001
498,7214007,51.6702995300293,42.34962463378906,17.420068740844727,-0.03732931241393089,-0.048120446503162384,0.06673844903707504
511,7214047,51.66691970825195,42.34696578979492,17.40637969970703,-0.04136856645345688,-0.0542934350669384,0.045006636530160904
525,7214087,51.66362762451172,42.343997955322266,17.391164779663086,-0.04544198513031006,-0.06530037522315979,0.018510717898607254
529,7214107,51.661598205566406,42.342445373535156,17.383750915527344,-0.04656478762626648,-0.07310376316308975,0.005373514257371426
542,7214147,51.65778350830078,42.33918762207031,17.370460510253906,-0.04550425708293915,-0.07548389583826065,-0.011632943525910378
546,7214167,51.655982971191406,42.337501525878906,17.364513397216797,-0.04657905548810959,-0.08065669238567352,-0.022423354908823967
560,7214207,51.65252685546875,42.333740234375,17.353120803833008,-0.04824418947100639,-0.09748036414384842,-0.04075980186462402
574,7214247,51.64923858642578,42.329254150390625,17.346450805664062,-0.04735840857028961,-0.11352018266916275,-0.04972991347312927
578,7214267,51.64771270751953,42.32680892944336,17.34517478942871,-0.046884309500455856,-0.12466456741094589,-0.05301980674266815
592,7214307,51.644020080566406,42.32135772705078,17.342554092407227,-0.046235207468271255,-0.15258654952049255,-0.0608186312019825
605,7214347,51.63983917236328,42.314937591552734,17.34508514404297,-0.048648569732904434,-0.17851006984710693,-0.06038274988532066
609,7214367,51.63787078857422,42.311336517333984,17.348588943481445,-0.045951541513204575,-0.1914101541042328,-0.062454596161842346
625,7214407,51.634151458740234,42.303199768066406,17.354642868041992,-0.04785211756825447,-0.22532500326633453,-0.06209776550531387
638,7214447,51.63063430786133,42.293792724609375,17.36404800415039,-0.050165366381406784,-0.25596883893013,-0.06265918165445328
642,7214467,51.628929138183594,42.288631439208984,17.370342254638672,-0.051169149577617645,-0.27148863673210144,-0.05982259288430214
656,7214507,51.624237060546875,42.277618408203125,17.381694793701172,-0.0590372309088707,-0.3043513298034668,-0.06080649048089981
669,7214547,51.6182861328125,42.265289306640625,17.393957138061523,-0.0671042948961258,-0.3355403542518616,-0.056972842663526535
675,7214567,51.61540222167969,42.25880813598633,17.400630950927734,-0.07052432000637054,-0.35035136342048645,-0.05762054771184921
689,7214607,51.609657287597656,42.24491882324219,17.412511825561523,-0.08050791919231415,-0.3797859251499176,-0.0538250133395195
702,7214647,51.60383605957031,42.22990417480469,17.422607421875,-0.09281416237354279,-0.4051136374473572,-0.05281176045536995
706,7214667,51.600852966308594,42.2220344543457,17.427043914794922,-0.09884917736053467,-0.4146101772785187,-0.05041160807013512
720,7214707,51.59323501586914,42.20588684082031,17.435117721557617,-0.111036516726017,-0.43688875436782837,-0.04845327511429787
733,7214747,51.58415603637695,42.18914794921875,17.439607620239258,-0.12290879338979721,-0.45595917105674744,-0.043762922286987305
737,7214767,51.579673767089844,42.180458068847656,17.44035530090332,-0.12628944218158722,-0.46514132618904114,-0.04260670393705368
751,7214807,51.570621490478516,42.162052154541016,17.44169044494629,-0.13796177506446838,-0.4801509380340576,-0.03498873859643936
755,7214827,51.56619644165039,42.15283203125,17.442338943481445,-0.1416212022304535,-0.48879098892211914,-0.03207914158701897
768,7214867,51.557411193847656,42.133914947509766,17.433124542236328,-0.14982473850250244,-0.5024519562721252,-0.024512505158782005
783,7214907,51.547019958496094,42.11455535888672,17.425565719604492,-0.15182815492153168,-0.5162186026573181,-0.015059425495564938
787,7214927,51.54111099243164,42.104713439941406,17.4223690032959,-0.15547962486743927,-0.5216428637504578,-0.011064360849559307
800,7214967,51.529632568359375,42.08464813232422,17.40300750732422,-0.16054880619049072,-0.5324222445487976,-0.0033872739877551794
814,7215007,51.518653869628906,42.06407165527344,17.386442184448242,-0.16323277354240417,-0.5428011417388916,0.0028069482650607824
818,7215027,51.51332473754883,42.053611755371094,17.379104614257812,-0.16428877413272858,-0.5490454435348511,0.007674477994441986
831,7215067,51.50299072265625,42.0323371887207,17.351341247558594,-0.16674479842185974,-0.5587453842163086,0.00908647757023573
845,7215107,51.49057388305664,42.010440826416016,17.327611923217773,-0.16833212971687317,-0.5681641101837158,0.013052443042397499
849,7215127,51.48359680175781,41.99979019165039,17.317094802856445,-0.17072393000125885,-0.5723694562911987,0.013024939224123955
862,7215167,51.47014617919922,41.97819900512695,17.286264419555664,-0.17516879737377167,-0.5786827206611633,0.008714315481483936
876,7215207,51.457393646240234,41.95625305175781,17.259347915649414,-0.1761755794286728,-0.5845029354095459,0.0012541005853563547
888,7215227,51.45124816894531,41.94516372680664,17.247127532958984,-0.17802266776561737,-0.5863491892814636,-0.003320101648569107
894,7215267,51.43936538696289,41.92282485961914,17.219308853149414,-0.1783713400363922,-0.5886041522026062,-0.016219070181250572
908,7215307,51.42625045776367,41.90057373046875,17.19467544555664,-0.18179459869861603,-0.590024471282959,-0.03218752145767212
912,7215327,51.41905975341797,41.88950729370117,17.183380126953125,-0.18430165946483612,-0.5893251895904541,-0.0401357039809227
925,7215367,51.40519714355469,41.8672981262207,17.163599014282227,-0.18726861476898193,-0.5893169641494751,-0.056344762444496155
941,7215407,51.39176559448242,41.844425201416016,17.14545249938965,-0.19330446422100067,-0.5876697301864624,-0.07303789258003235
945,7215427,51.385337829589844,41.8332633972168,17.136978149414062,-0.19449913501739502,-0.5873590707778931,-0.07985426485538483
958,7215467,51.37276077270508,41.810916900634766,17.130352020263672,-0.20213735103607178,-0.5844129323959351,-0.09178446233272552
967,7215487,51.366580963134766,41.79975128173828,17.127031326293945,-0.20577631890773773,-0.5836252570152283,-0.09801369160413742
976,7215527,51.35041427612305,41.77793502807617,17.120960235595703,-0.21253953874111176,-0.5813086032867432,-0.10410794615745544
991,7215567,51.334869384765625,41.75605392456055,17.12980842590332,-0.22131799161434174,-0.5775722861289978,-0.11071736365556717
1004,7215587,51.32730484008789,41.74513244628906,17.133520126342773,-0.22487518191337585,-0.5771024823188782,-0.11102936416864395
1009,7215627,51.31260681152344,41.723304748535156,17.139728546142578,-0.22938671708106995,-0.5737728476524353,-0.11564462631940842
1022,7215667,51.2982063293457,41.70091247558594,17.1597957611084,-0.23211659491062164,-0.5712544322013855,-0.1118549332022667
1031,7215687,51.29130935668945,41.69000244140625,17.168718338012695,-0.23381677269935608,-0.5691447257995605,-0.1117977648973465
1040,7215727,51.273921966552734,41.6684684753418,17.185089111328125,-0.2375464141368866,-0.5661333203315735,-0.1064186692237854
1053,7215767,51.25741958618164,41.646888732910156,17.20966339111328,-0.23884381353855133,-0.5651035904884338,-0.09907300025224686
1060,7215787,51.24946975708008,41.636070251464844,17.22064971923828,-0.24130210280418396,-0.5665364861488342,-0.09487134218215942
1071,7215827,51.234130859375,41.6143798828125,17.2403507232666,-0.24060529470443726,-0.5676015019416809,-0.08634404093027115
1084,7215867,51.21945571899414,41.592559814453125,17.25943374633789,-0.2428010106086731,-0.5678504705429077,-0.07745680958032608
1097,7215887,51.21235275268555,41.58159637451172,17.268014907836914,-0.2416231632232666,-0.5685267448425293,-0.07369458675384521
1103,7215927,51.194236755371094,41.55967330932617,17.284019470214844,-0.2422318458557129,-0.5692975521087646,-0.06398427486419678
1116,7215967,51.176910400390625,41.53707504272461,17.29201316833496,-0.24264390766620636,-0.5717344880104065,-0.05625259131193161
1123,7215987,51.16872787475586,41.526023864746094,17.295639038085938,-0.24189168214797974,-0.5690060257911682,-0.05364048108458519
1141,7216027,51.15297317504883,41.50383758544922,17.30207633972168,-0.24278004467487335,-0.5709755420684814,-0.05110491067171097
1147,7216067,51.1379508972168,41.48152160644531,17.295501708984375,-0.24445825815200806,-0.573726236820221,-0.054743628948926926
1154,7216087,51.130653381347656,41.47030258178711,17.292407989501953,-0.24700932204723358,-0.5771739482879639,-0.05670986697077751
1165,7216127,51.11259078979492,41.44773483276367,17.286983489990234,-0.2502516210079193,-0.5776257514953613,-0.06259121000766754
1177,7216147,51.1038932800293,41.43642807006836,17.27727508544922,-0.25318896770477295,-0.5762172341346741,-0.06740596145391464
1185,7216187,51.087066650390625,41.41376876831055,17.259294509887695,-0.25538405776023865,-0.5764070153236389,-0.07621799409389496
1196,7216227,51.07097244262695,41.391117095947266,17.242935180664062,-0.259613037109375,-0.5742585062980652,-0.08588385581970215
1209,7216247,51.06291580200195,41.379249572753906,17.228994369506836,-0.2596571743488312,-0.5749015808105469,-0.09138286858797073
1217,7216287,51.047733306884766,41.35665512084961,17.20339012145996,-0.2631784975528717,-0.5737248659133911,-0.10320410877466202
1228,7216327,51.02936935424805,41.33404541015625,17.180992126464844,-0.267721027135849,-0.5723718404769897,-0.11318584531545639
1240,7216347,51.02052307128906,41.32274627685547,17.166399002075195,-0.2693953514099121,-0.5735472440719604,-0.12039484083652496
1256,7216387,51.00336837768555,41.300148010253906,17.13934326171875,-0.273548424243927,-0.5739725232124329,-0.12973612546920776
1261,7216427,50.98692321777344,41.2774658203125,17.114919662475586,-0.27543848752975464,-0.5772274136543274,-0.13396196067333221
1273,7216447,50.978939056396484,41.26608657836914,17.101110458374023,-0.2777473032474518,-0.5744144320487976,-0.13390924036502838
1287,7216487,50.9633674621582,41.243247985839844,17.075851440429688,-0.27718356251716614,-0.5769641995429993,-0.12736499309539795
1292,7216527,50.94474411010742,41.22015380859375,17.05465316772461,-0.27994832396507263,-0.5818632245063782,-0.1148727536201477
1304,7216547,50.935916900634766,41.208805084228516,17.043270111083984,-0.2798301577568054,-0.5877406001091003,-0.10788145661354065
1322,7216587,50.91890335083008,41.1859016418457,17.02286148071289,-0.28042808175086975,-0.5925977826118469,-0.09074552357196808
1325,7216627,50.90266799926758,41.16273498535156,17.00536346435547,-0.2782490849494934,-0.5969654321670532,-0.07160504907369614
1348,7216647,50.894866943359375,41.15106964111328,16.995668411254883,-0.2759802043437958,-0.5975262522697449,-0.0616445355117321
1351,7216687,50.879798889160156,41.12754440307617,16.978506088256836,-0.272684782743454,-0.6029664278030396,-0.04463152587413788
1363,7216727,50.86235427856445,41.10391616821289,16.965116500854492,-0.26735666394233704,-0.6073054671287537,-0.026590963825583458
1369,7216747,50.85403823852539,41.0920295715332,16.956275939941406,-0.2668761610984802,-0.609380304813385,-0.019558338448405266
1376,7216787,50.838096618652344,41.06812286376953,16.940732955932617,-0.2598874270915985,-0.6122378706932068,-0.0077277421951293945
1386,7216807,50.83052062988281,41.05613327026367,16.933902740478516,-0.25745588541030884,-0.6115224361419678,-0.0028007884975522757
1400,7216847,50.81571578979492,41.03147506713867,16.91841697692871,-0.2535862624645233,-0.6132039427757263,-0.0010178498923778534
1413,7216887,50.80194854736328,41.00740432739258,16.90186882019043,-0.24967287480831146,-0.6108531951904297,-0.0035910801962018013
1418,7216907,50.794002532958984,40.99521255493164,16.894563674926758,-0.24801507592201233,-0.611866295337677,-0.008113956078886986
1431,7216947,50.77885055541992,40.97086715698242,16.878402709960938,-0.24338246881961823,-0.609491765499115,-0.018729520961642265
1445,7216987,50.764530181884766,40.94662094116211,16.861312866210938,-0.24351118505001068,-0.6081190705299377,-0.0334358848631382
1449,7217007,50.75764083862305,40.93452453613281,16.85338592529297,-0.240648090839386,-0.6057727336883545,-0.04095165804028511
1462,7217047,50.74437713623047,40.91040802001953,16.83844566345215,-0.23973768949508667,-0.6045525074005127,-0.056080132722854614
1476,7217087,50.731658935546875,40.88631820678711,16.82453155517578,-0.23848047852516174,-0.6041274666786194,-0.07292123883962631
1480,7217107,50.72411346435547,40.87348556518555,16.818021774291992,-0.24111352860927582,-0.6040952205657959,-0.08075983822345734
1493,7217147,50.70992660522461,40.849037170410156,16.808292388916016,-0.24479861557483673,-0.6030547022819519,-0.0953325405716896
1507,7217187,50.696266174316406,40.82463073730469,16.801342010498047,-0.24656377732753754,-0.6034578084945679,-0.10530991107225418
1511,7217207,50.689598083496094,40.81243896484375,16.797901153564453,-0.24987691640853882,-0.6051352024078369,-0.1107034906744957
1525,7217247,50.67654037475586,40.788055419921875,16.795923233032227,-0.25201866030693054,-0.6060783267021179,-0.1141224279999733
1537,7217287,50.66377258300781,40.76363754272461,16.798120498657227,-0.25598233938217163,-0.6068331599235535,-0.11425485461950302
1543,7217307,50.65643310546875,40.75132369995117,16.799299240112305,-0.2581280469894409,-0.6064406037330627,-0.11124454438686371
1556,7217347,50.64213562011719,40.726654052734375,16.806596755981445,-0.2618106007575989,-0.6089800596237183,-0.10499322414398193
1572,7217387,50.62803649902344,40.701263427734375,16.817779541015625,-0.26142972707748413,-0.6131672859191895,-0.09267330914735794
1576,7217407,50.6213264465332,40.68882369995117,16.822877883911133,-0.26116183400154114,-0.6173928380012512,-0.08636684715747833
1589,7217447,50.608272552490234,40.66387176513672,16.836294174194336,-0.26018092036247253,-0.6201034784317017,-0.07417992502450943
1593,7217467,50.6019287109375,40.6513557434082,16.84437370300293,-0.2581445276737213,-0.6199377179145813,-0.06827325373888016
1607,7217507,50.588584899902344,40.62602615356445,16.85934829711914,-0.2552509009838104,-0.6241577863693237,-0.058195602148771286
1620,7217547,50.574867248535156,40.60036849975586,16.87430763244629,-0.25287508964538574,-0.6272493600845337,-0.05171528458595276
1626,7217567,50.56822967529297,40.587528228759766,16.881792068481445,-0.25266414880752563,-0.6295967102050781,-0.05003580078482628
1640,7217607,50.555397033691406,40.5618896484375,16.895217895507812,-0.2481974959373474,-0.6296188235282898,-0.04808651655912399
1654,7217647,50.54316711425781,40.53630065917969,16.90561294555664,-0.24498251080513,-0.628508448600769,-0.0523463673889637
1658,7217667,50.53699493408203,40.52292251586914,16.909591674804688,-0.24343858659267426,-0.6273739337921143,-0.05461868643760681
1671,7217707,50.524688720703125,40.497310638427734,16.916698455810547,-0.2392972856760025,-0.6255274415016174,-0.061196468770504
1684,7217747,50.512107849121094,40.471649169921875,16.919950485229492,-0.23668743669986725,-0.6233139634132385,-0.06763554364442825
1688,7217767,50.50603485107422,40.45888900756836,16.91995620727539,-0.23525942862033844,-0.6217855215072632,-0.07020516693592072
1702,7217807,50.4942626953125,40.433494567871094,16.919591903686523,-0.23412437736988068,-0.6180667281150818,-0.07477875053882599
1715,7217847,50.48295211791992,40.40823745727539,16.915660858154297,-0.23250791430473328,-0.6177433133125305,-0.07516124099493027
1719,7217867,50.47742462158203,40.3956413269043,16.91221809387207,-0.23293951153755188,-0.6204601526260376,-0.0741991400718689
1734,7217907,50.46596908569336,40.37008285522461,16.9061336517334,-0.23472528159618378,-0.6225889325141907,-0.07365619391202927
1747,7217947,50.45419692993164,40.3442497253418,16.897415161132812,-0.237199068069458,-0.6245222091674805,-0.07059521228075027
1751,7217967,50.44816589355469,40.33070755004883,16.891679763793945,-0.23887962102890015,-0.6236491799354553,-0.06790599972009659
1765,7218007,50.43675231933594,40.30482482910156,16.88136863708496,-0.2432367503643036,-0.6281169652938843,-0.06382786482572556
1778,7218047,50.425472259521484,40.27886962890625,16.86844825744629,-0.24752357602119446,-0.6334670782089233,-0.06216166540980339
1782,7218067,50.41986846923828,40.265872955322266,16.860721588134766,-0.24944107234477997,-0.6352686285972595,-0.06156231835484505
1796,7218107,50.40810775756836,40.23953628540039,16.84701156616211,-0.25320950150489807,-0.6401772499084473,-0.06243102625012398
1800,7218127,50.4019889831543,40.22621536254883,16.840925216674805,-0.2561480700969696,-0.6440653204917908,-0.061282820999622345
1813,7218167,50.389888763427734,40.199520111083984,16.82196807861328,-0.2594802975654602,-0.6490775346755981,-0.06694839149713516
1827,7218207,50.3779296875,40.17276382446289,16.804977416992188,-0.2650318443775177,-0.6529375910758972,-0.07298143208026886
1841,7218227,50.37198257446289,40.15938186645508,16.79708480834961,-0.26691073179244995,-0.6515659093856812,-0.07919102907180786
1845,7218267,50.35987854003906,40.131961822509766,16.775665283203125,-0.2712066173553467,-0.653657853603363,-0.09221865981817245
1859,7218307,50.34750747680664,40.10491180419922,16.75652503967285,-0.2738705277442932,-0.6516079306602478,-0.10829374939203262
1863,7218327,50.341094970703125,40.091270446777344,16.747690200805664,-0.2739776074886322,-0.6524648070335388,-0.11687424033880234
1876,7218367,50.32853698730469,40.064170837402344,16.727313995361328,-0.2723875939846039,-0.6499577760696411,-0.13413648307323456
1892,7218407,50.316410064697266,40.03730010986328,16.708404541015625,-0.2667434513568878,-0.649067223072052,-0.1472274512052536
1896,7218427,50.31057357788086,40.02393341064453,16.699491500854492,-0.26012980937957764,-0.6447797417640686,-0.15014350414276123
1910,7218467,50.29935836791992,39.997318267822266,16.684364318847656,-0.25201064348220825,-0.6441561579704285,-0.15630295872688293
1923,7218507,50.2883186340332,39.97032928466797,16.67098617553711,-0.2383679747581482,-0.6442115902900696,-0.15484574437141418
1927,7218527,50.28263854980469,39.956024169921875,16.66486167907715,-0.23080973327159882,-0.6461709141731262,-0.1530802845954895
1942,7218567,50.2723503112793,39.92878723144531,16.66092872619629,-0.21780556440353394,-0.6475988626480103,-0.1431071013212204
1956,7218607,50.262855529785156,39.901649475097656,16.657320022583008,-0.20486944913864136,-0.6498125791549683,-0.12973323464393616
1960,7218627,50.258384704589844,39.88808059692383,16.6556453704834,-0.1980999857187271,-0.6523104906082153,-0.1235380545258522
1973,7218667,50.24995803833008,39.86095428466797,16.661602020263672,-0.1862024962902069,-0.6567476391792297,-0.10727613419294357
1987,7218707,50.24170684814453,39.83298110961914,16.66737937927246,-0.17887499928474426,-0.6630587577819824,-0.09594777971506119
1991,7218727,50.23756790161133,39.818603515625,16.670238494873047,-0.1769019216299057,-0.663917601108551,-0.09060464054346085
2004,7218767,50.22953796386719,39.78984832763672,16.681842803955078,-0.17529477179050446,-0.670464277267456,-0.08199004083871841
2017,7218787,50.22561264038086,39.77546691894531,16.687026977539062,-0.1753661185503006,-0.67585688829422,-0.07940525561571121
2022,7218827,50.21769332885742,39.746028900146484,16.69614028930664,-0.17777565121650696,-0.6794771552085876,-0.07693090289831161
2035,7218867,50.2099609375,39.71737289428711,16.705671310424805,-0.18158064782619476,-0.6787076592445374,-0.07655628025531769
2049,7218887,50.206111907958984,39.703121185302734,16.709836959838867,-0.1830732524394989,-0.67917799949646,-0.0769856870174408
2054,7218927,50.19790267944336,39.673526763916016,16.717578887939453,-0.18700362741947174,-0.6770440340042114,-0.08367259800434113
2067,7218967,50.18971633911133,39.64434051513672,16.722789764404297,-0.1905444711446762,-0.6724815368652344,-0.09475704282522202
2080,7218987,50.18562698364258,39.62991714477539,16.72479820251465,-0.19402873516082764,-0.6702471375465393,-0.10209955275058746
2085,7219027,50.177371978759766,39.60139083862305,16.72760009765625,-0.1995479315519333,-0.6658636331558228,-0.11977357417345047
2098,7219067,50.169036865234375,39.57321548461914,16.7275390625,-0.2053723782300949,-0.662220299243927,-0.1361066848039627
2111,7219087,50.16480255126953,39.55925750732422,16.727031707763672,-0.2095744013786316,-0.6611697673797607,-0.1435992419719696
2116,7219127,50.15578842163086,39.52950668334961,16.725662231445312,-0.2155771255493164,-0.6592019200325012,-0.1602368801832199
2129,7219167,50.14687728881836,39.50080490112305,16.7236328125,-0.22156792879104614,-0.6574817299842834,-0.17024029791355133
2142,7219187,50.142372131347656,39.48658752441406,16.722272872924805,-0.22429946064949036,-0.6564538478851318,-0.17377862334251404
2157,7219227,50.13330841064453,39.458396911621094,16.719051361083984,-0.22756563127040863,-0.6553991436958313,-0.17484305799007416
2161,7219267,50.12422180175781,39.43046951293945,16.716638565063477,-0.22938263416290283,-0.6563729047775269,-0.17012633383274078
2174,7219287,50.11968994140625,39.41657638549805,16.71533966064453,-0.22997699677944183,-0.6549901366233826,-0.1644488126039505
2179,7219327,50.11050033569336,39.387821197509766,16.714059829711914,-0.22786487638950348,-0.6542424559593201,-0.14924046397209167
2192,7219367,50.10148620605469,39.35939025878906,16.712926864624023,-0.22418400645256042,-0.6551761627197266,-0.12776486575603485
2207,7219387,50.096858978271484,39.34462356567383,16.712366104125977,-0.22163273394107819,-0.6555278897285461,-0.11672693490982056
2212,7219427,50.08828353881836,39.31658935546875,16.711822509765625,-0.2155260294675827,-0.6548252105712891,-0.09376195073127747
2225,7219447,50.08412551879883,39.302677154541016,16.709903717041016,-0.21089120209217072,-0.6547009348869324,-0.08146112412214279
2238,7219487,50.07610321044922,39.27500534057617,16.706954956054688,-0.2021389603614807,-0.6542452573776245,-0.0533960685133934
2243,7219527,50.06917953491211,39.246856689453125,16.706256866455078,-0.19452495872974396,-0.6560774445533752,-0.024437054991722107
2255,7219547,50.06581115722656,39.23286437988281,16.702373504638672,-0.19227932393550873,-0.6573922634124756,-0.009430567733943462
2271,7219587,50.0592041015625,39.20494842529297,16.6961612701416,-0.18717820942401886,-0.6605855226516724,0.01738676428794861
2276,7219627,50.052738189697266,39.177154541015625,16.691864013671875,-0.1836787462234497,-0.6627042889595032,0.04227660596370697
2288,7219647,50.04955291748047,39.16331481933594,16.68511962890625,-0.18074676394462585,-0.6622821092605591,0.05108177661895752
2302,7219687,50.04304504394531,39.13507080078125,16.673799514770508,-0.18006470799446106,-0.6623239517211914,0.0692284032702446
2307,7219727,50.03715133666992,39.106834411621094,16.6651611328125,-0.17900396883487701,-0.6614430546760559,0.08223070204257965
2319,7219747,50.0341796875,39.09282684326172,16.656293869018555,-0.17973114550113678,-0.6607428193092346,0.086237333714962
2328,7219787,50.028175354003906,39.06501770019531,16.640783309936523,-0.17976993322372437,-0.6589657068252563,0.08625547587871552
2338,7219827,50.02204895019531,39.0374641418457,16.62764549255371,-0.18328118324279785,-0.6577003598213196,0.0782497376203537
2350,7219847,50.01890563964844,39.023765563964844,16.617671966552734,-0.1851661205291748,-0.6588056087493896,0.0708027333021164
2364,7219887,50.01247024536133,38.996490478515625,16.59944725036621,-0.1892814040184021,-0.6576547622680664,0.049496348947286606
2370,7219927,50.00657272338867,38.96812057495117,16.582735061645508,-0.195898175239563,-0.6582147479057312,0.02346307784318924
2383,7219947,50.003475189208984,38.95403289794922,16.573381423950195,-0.19931425154209137,-0.6584861278533936,0.009136619046330452
2394,7219987,49.99679183959961,38.92529296875,16.555747985839844,-0.2044014036655426,-0.6625065803527832,-0.019850948825478554
2401,7220027,49.98991775512695,38.89728927612305,16.539295196533203,-0.21323353052139282,-0.666225254535675,-0.047261547297239304
2413,7220047,49.986324310302734,38.88331985473633,16.53331184387207,-0.21703825891017914,-0.6663623452186584,-0.06349747627973557
2427,7220087,49.9788932800293,38.85541915893555,16.521442413330078,-0.22214049100875854,-0.6691933274269104,-0.09193945676088333
2431,7220107,49.97580337524414,38.84087371826172,16.515644073486328,-0.22573961317539215,-0.672798752784729,-0.10745005309581757
2444,7220147,49.96923828125,38.811920166015625,16.508506774902344,-0.23166026175022125,-0.6748457551002502,-0.13511723279953003
2458,7220187,49.962257385253906,38.783111572265625,16.505008697509766,-0.23503363132476807,-0.6771119832992554,-0.1565297693014145
2462,7220207,49.95863342285156,38.768768310546875,16.502857208251953,-0.2373272180557251,-0.6776993274688721,-0.1654798835515976
2476,7220247,49.950843811035156,38.73953628540039,16.50334930419922,-0.2421840876340866,-0.6796982884407043,-0.1765442043542862
2490,7220287,49.942989349365234,38.711090087890625,16.507904052734375,-0.24520544707775116,-0.6803730726242065,-0.18209592998027802
2494,7220307,49.93926239013672,38.696434020996094,16.510095596313477,-0.24532000720500946,-0.6800003051757812,-0.18294277787208557
2507,7220347,49.93165588378906,38.66730499267578,16.51812171936035,-0.2452009618282318,-0.679650604724884,-0.1804669052362442
2523,7220387,49.923892974853516,38.63840103149414,16.528825759887695,-0.24312393367290497,-0.6804682612419128,-0.1720372438430786
2527,7220407,49.91997528076172,38.62405014038086,16.5334529876709,-0.2420310229063034,-0.6806143522262573,-0.16657432913780212
2541,7220447,49.912132263183594,38.59556579589844,16.5440616607666,-0.23771369457244873,-0.6787311434745789,-0.1526770293712616
2554,7220487,49.90433883666992,38.56731414794922,16.555522918701172,-0.23190397024154663,-0.677221953868866,-0.1325169801712036
2558,7220507,49.90090560913086,38.55314254760742,16.561397552490234,-0.2278355211019516,-0.6756110191345215,-0.12192818522453308
2571,7220547,49.89390563964844,38.52436447143555,16.572221755981445,-0.21889927983283997,-0.6744943857192993,-0.09828639775514603
2587,7220587,49.88721466064453,38.4964599609375,16.582284927368164,-0.21222996711730957,-0.6732733845710754,-0.07373323291540146
2591,7220607,49.8839111328125,38.482601165771484,16.58704376220703,-0.20860427618026733,-0.6702215671539307,-0.05966205894947052
2605,7220647,49.87736892700195,38.455039978027344,16.59425163269043,-0.20338840782642365,-0.6689294576644897,-0.03588015213608742
2616,7220687,49.87086868286133,38.427677154541016,16.599458694458008,-0.19916871190071106,-0.6665852665901184,-0.012505358085036278
2622,7220707,49.86803436279297,38.413841247558594,16.60247802734375,-0.19771042466163635,-0.6662846207618713,-0.0030305807013064623
2636,7220747,49.86222839355469,38.386375427246094,16.605327606201172,-0.19751189649105072,-0.6630944609642029,0.01389510091394186
2639,7220767,49.859249114990234,38.372745513916016,16.605335235595703,-0.19748227298259735,-0.661518394947052,0.019464021548628807
2653,7220807,49.8528938293457,38.345096588134766,16.60570526123047,-0.19990159571170807,-0.6558756828308105,0.024868939071893692
2667,7220847,49.846439361572266,38.31846618652344,16.60272216796875,-0.20361249148845673,-0.6496986746788025,0.022038061171770096
2670,7220867,49.843101501464844,38.305274963378906,16.599693298339844,-0.20570188760757446,-0.6467028856277466,0.01901608146727085
2685,7220907,49.83714294433594,38.27872848510742,16.594131469726562,-0.21017485857009888,-0.6440621614456177,0.007229641545563936
2699,7220947,49.831668853759766,38.25210189819336,16.586061477661133,-0.21369624137878418,-0.6417742967605591,-0.010629520751535892
2702,7220967,49.82875442504883,38.23887634277344,16.580808639526367,-0.21714341640472412,-0.6410984992980957,-0.02169833518564701
2716,7221007,49.82262420654297,38.2125129699707,16.5706787109375,-0.2188466489315033,-0.6419097185134888,-0.04130540043115616
2729,7221047,49.8160514831543,38.18619918823242,16.559858322143555,-0.2248849719762802,-0.6439069509506226,-0.06384361535310745
2734,7221067,49.81260299682617,38.173057556152344,16.554035186767578,-0.22751998901367188,-0.6459945440292358,-0.07473467290401459
2747,7221107,49.80588912963867,38.14551544189453,16.542814254760742,-0.2308405041694641,-0.6480444669723511,-0.0925714299082756
2760,7221147,49.7996940612793,38.11809158325195,16.533477783203125,-0.2309199571609497,-0.6506069302558899,-0.10526785999536514
2764,7221167,49.796470642089844,38.10441970825195,16.52949333190918,-0.23153239488601685,-0.6508733630180359,-0.11308277398347855
2778,7221207,49.789772033691406,38.07712936401367,16.521589279174805,-0.23226884007453918,-0.6541414260864258,-0.12027009576559067
2792,7221247,49.78286361694336,38.04983901977539,16.51693344116211,-0.22867648303508759,-0.6596129536628723,-0.12469767034053802
2796,7221267,49.77936935424805,38.036170959472656,16.516000747680664,-0.22746945917606354,-0.6624784469604492,-0.12664777040481567
2810,7221307,49.77294921875,38.008636474609375,16.51426887512207,-0.22301779687404633,-0.6688543558120728,-0.1281573474407196
2823,7221347,49.767051696777344,37.98091506958008,16.516090393066406,-0.2176552265882492,-0.6724079847335815,-0.12633442878723145
2827,7221367,49.764076232910156,37.9670524597168,16.518402099609375,-0.21422867476940155,-0.6742122173309326,-0.12510842084884644
2843,7221407,49.75792694091797,37.938655853271484,16.52201271057129,-0.20706325769424438,-0.6773595809936523,-0.12382529675960541
2847,7221427,49.75496292114258,37.92478942871094,16.523468017578125,-0.20225295424461365,-0.6793143153190613,-0.12355197966098785
2860,7221467,49.74910354614258,37.897090911865234,16.53049087524414,-0.19352278113365173,-0.6812340021133423,-0.12104916572570801
2874,7221507,49.7439079284668,37.869022369384766,16.536510467529297,-0.183922678232193,-0.6849938631057739,-0.11961653083562851
2878,7221527,49.74161148071289,37.854835510253906,16.53925132751465,-0.17934753000736237,-0.6844308376312256,-0.11949839442968369
2892,7221567,49.737003326416016,37.826534271240234,16.545835494995117,-0.17188335955142975,-0.6874371767044067,-0.1200161725282669
2907,7221607,49.73240280151367,37.79826736450195,16.55097007751465,-0.16571755707263947,-0.6906471848487854,-0.11968744546175003
2911,7221627,49.73009490966797,37.78413009643555,16.55302619934082,-0.16413523256778717,-0.6917693614959717,-0.1218707412481308
2924,7221667,49.72536087036133,37.75580978393555,16.556703567504883,-0.16218209266662598,-0.6970566511154175,-0.12602630257606506
2938,7221707,49.72089385986328,37.726348876953125,16.559385299682617,-0.16257748007774353,-0.7034962773323059,-0.13363948464393616
2942,7221727,49.71892166137695,37.71177291870117,16.56051254272461,-0.1631486862897873,-0.7054082751274109,-0.13700148463249207
2955,7221767,49.71470642089844,37.68254089355469,16.563119888305664,-0.16485150158405304,-0.7130361199378967,-0.14596295356750488
2969,7221807,49.71012878417969,37.6531867980957,16.56424903869629,-0.16773195564746857,-0.7188140749931335,-0.15627458691596985
2973,7221827,49.70771789550781,37.63847732543945,16.56429672241211,-0.16725167632102966,-0.7210928797721863,-0.16208472847938538
2986,7221867,49.70265579223633,37.60899353027344,16.5676212310791,-0.17173676192760468,-0.725871741771698,-0.17222587764263153
3001,7221907,49.69820785522461,37.57920837402344,16.569747924804688,-0.17074517905712128,-0.730286180973053,-0.18207484483718872
3005,7221927,49.6962890625,37.56415939331055,16.570466995239258,-0.17135418951511383,-0.7334281206130981,-0.18768857419490814
3018,7221967,49.6920051574707,37.53325271606445,16.57695960998535,-0.171795055270195,-0.7391278147697449,-0.1959683746099472
3032,7222007,49.687522888183594,37.502952575683594,16.5814266204834,-0.17407375574111938,-0.7469375729560852,-0.20244257152080536
3036,7222027,49.68513870239258,37.48772430419922,16.58293342590332,-0.17404446005821228,-0.750794529914856,-0.20641690492630005
3049,7222067,49.68016815185547,37.45710754394531,16.59075927734375,-0.17593973875045776,-0.7587605714797974,-0.21001924574375153
3062,7222087,49.67756271362305,37.441707611083984,16.59380340576172,-0.1759205162525177,-0.7631426453590393,-0.21126966178417206
3067,7222127,49.67314910888672,37.409847259521484,16.599761962890625,-0.17723232507705688,-0.7723300457000732,-0.20921052992343903
3080,7222167,49.66835403442383,37.37779998779297,16.606693267822266,-0.17914365231990814,-0.780882716178894,-0.2039378583431244
3093,7222187,49.66582489013672,37.36172103881836,16.609487533569336,-0.17968624830245972,-0.7844667434692383,-0.19967222213745117
3105,7222227,49.660499572753906,37.32944869995117,16.61397933959961,-0.18258626759052277,-0.7920116782188416,-0.19046936929225922
3112,7222267,49.654640197753906,37.2962532043457,16.614641189575195,-0.1855895221233368,-0.797471821308136,-0.1778838187456131
3122,7222287,49.651668548583984,37.280025482177734,16.614824295043945,-0.1878456324338913,-0.7990072965621948,-0.17283415794372559
3130,7222327,49.64672088623047,37.24747848510742,16.616233825683594,-0.19141438603401184,-0.8025885820388794,-0.1594528704881668
3143,7222367,49.64130401611328,37.21491241455078,16.61000633239746,-0.19493527710437775,-0.8052093386650085,-0.14768917858600616
3153,7222387,49.63843536376953,37.19863510131836,16.607080459594727,-0.19685465097427368,-0.8058691620826721,-0.14021183550357819
3163,7222427,49.63241195678711,37.16615676879883,16.601627349853516,-0.19940918684005737,-0.8045468330383301,-0.1268625259399414
3176,7222467,49.62605285644531,37.13385772705078,16.587751388549805,-0.2007029950618744,-0.8000462055206299,-0.11179933696985245
3184,7222487,49.62279510498047,37.11778259277344,16.58149528503418,-0.19995225965976715,-0.7999435067176819,-0.10382729768753052
3194,7222527,49.61715316772461,37.0850944519043,16.57135009765625,-0.1985790878534317,-0.7944564819335938,-0.08482672274112701
3208,7222567,49.61150360107422,37.05348205566406,16.554349899291992,-0.19522802531719208,-0.7888290286064148,-0.06571387499570847
3223,7222587,49.608604431152344,37.037784576416016,16.546846389770508,-0.19437915086746216,-0.7836365699768066,-0.054767120629549026
3237,7222627,49.602699279785156,37.00662612915039,16.533706665039062,-0.19073624908924103,-0.7760842442512512,-0.033180125057697296
3240,7222667,49.59666061401367,36.975830078125,16.516014099121094,-0.18929927051067352,-0.7676711082458496,-0.012527380138635635
3248,7222687,49.59358596801758,36.9605712890625,16.508298873901367,-0.18891015648841858,-0.7657538652420044,-0.0028867716901004314
3258,7222727,49.58898162841797,36.92990493774414,16.49563980102539,-0.1874859780073166,-0.7580505013465881,0.020050566643476486
3271,7222747,49.586551666259766,36.91470718383789,16.4875431060791,-0.18653930723667145,-0.7538648843765259,0.03018779866397381
3279,7222787,49.58147048950195,36.88461685180664,16.47369384765625,-0.18588928878307343,-0.7463992238044739,0.05291994661092758
3289,7222827,49.5759162902832,36.85415267944336,16.462787628173828,-0.18644867837429047,-0.7378272414207458,0.07480940222740173
3302,7222847,49.573116302490234,36.83944320678711,16.45680809020996,-0.1869632601737976,-0.7324895858764648,0.08673577755689621
3317,7222887,49.567283630371094,36.810302734375,16.446941375732422,-0.18946488201618195,-0.7230138182640076,0.10446595400571823
3331,7222927,49.5627326965332,36.7816162109375,16.43938446044922,-0.1926528960466385,-0.7139678597450256,0.11971176415681839
3334,7222947,49.560264587402344,36.767433166503906,16.436220169067383,-0.19419439136981964,-0.7108402252197266,0.12530991435050964
3348,7222987,49.5549201965332,36.739402770996094,16.4312686920166,-0.19985347986221313,-0.6996690034866333,0.13293495774269104
3352,7223027,49.54907989501953,36.71186065673828,16.427841186523438,-0.2035115659236908,-0.6874196529388428,0.13616465032100677
3364,7223047,49.545982360839844,36.69827651977539,16.427440643310547,-0.2068139910697937,-0.6806644797325134,0.13587018847465515
3378,7223087,49.53948974609375,36.67145538330078,16.427207946777344,-0.21001414954662323,-0.6699116826057434,0.1338168978691101
3383,7223127,49.53462219238281,36.64424133300781,16.426774978637695,-0.21269147098064423,-0.660358726978302,0.12705504894256592
3395,7223147,49.53208541870117,36.6311149597168,16.42914390563965,-0.21192005276679993,-0.6551433801651001,0.12271227687597275
3409,7223187,49.526668548583984,36.605194091796875,16.433637619018555,-0.21481813490390778,-0.6448824405670166,0.1132437139749527
3414,7223227,49.52079772949219,36.579673767089844,16.437747955322266,-0.2163974940776825,-0.6367365717887878,0.10279760509729385
3427,7223247,49.517704010009766,36.5670280456543,16.442811965942383,-0.21718569099903107,-0.6339941024780273,0.09736829251050949
3441,7223287,49.511207580566406,36.54199981689453,16.451982498168945,-0.22049711644649506,-0.6255101561546326,0.08702419698238373
3446,7223327,49.50614547729492,36.517417907714844,16.459144592285156,-0.21990591287612915,-0.6181260347366333,0.07960670441389084
3458,7223347,49.503448486328125,36.50523376464844,16.46520233154297,-0.21975502371788025,-0.6136356592178345,0.07509541511535645
3474,7223387,49.49752426147461,36.480472564697266,16.4763126373291,-0.21940137445926666,-0.6081883907318115,0.0716053694486618
3478,7223407,49.49454116821289,36.468482971191406,16.48138999938965,-0.21882493793964386,-0.6044296026229858,0.07127591967582703
3492,7223447,49.488380432128906,36.44462585449219,16.4921817779541,-0.2167276293039322,-0.600466787815094,0.07257211208343506
3505,7223487,49.48196029663086,36.42091369628906,16.503347396850586,-0.21659831702709198,-0.5961261987686157,0.07810240983963013
3509,7223507,49.4794921875,36.40948486328125,16.508317947387695,-0.21449072659015656,-0.5943406820297241,0.08147553354501724
3523,7223547,49.4742317199707,36.38664627075195,16.517263412475586,-0.21454237401485443,-0.592801570892334,0.08911607414484024
3538,7223587,49.468658447265625,36.36378860473633,16.52528190612793,-0.2109682559967041,-0.5910040140151978,0.09718311578035355
3542,7223607,49.465782165527344,36.35234832763672,16.529207229614258,-0.2094702571630478,-0.5916860103607178,0.10227733850479126
3556,7223647,49.4598388671875,36.32939910888672,16.53484535217285,-0.20716816186904907,-0.5934823155403137,0.11185439676046371
3570,7223687,49.45344543457031,36.305686950683594,16.538808822631836,-0.20815162360668182,-0.5976030230522156,0.12035392224788666
3573,7223707,49.450992584228516,36.2944450378418,16.54063606262207,-0.20709794759750366,-0.5981453657150269,0.12472961097955704
3587,7223747,49.44575119018555,36.27164840698242,16.541080474853516,-0.20815199613571167,-0.6063933968544006,0.1307932734489441
3600,7223787,49.4400520324707,36.24843978881836,16.538833618164062,-0.2127738893032074,-0.6134121417999268,0.1273464411497116
3604,7223807,49.43699264526367,36.2366828918457,16.53797149658203,-0.2146397978067398,-0.6190858483314514,0.1216418445110321
3617,7223847,49.430416107177734,36.21287536621094,16.53278160095215,-0.22339780628681183,-0.6256253719329834,0.10388131439685822
3631,7223887,49.42316818237305,36.188785552978516,16.524477005004883,-0.23542866110801697,-0.6279587149620056,0.07537052780389786
3636,7223907,49.42030334472656,36.1770133972168,16.520130157470703,-0.238925039768219,-0.6288313865661621,0.05857762694358826
3650,7223947,49.4137077331543,36.15264129638672,16.50856590270996,-0.2486942708492279,-0.6323400735855103,0.019739029929041862
3663,7223987,49.406558990478516,36.1286735534668,16.494352340698242,-0.2576720118522644,-0.6347408890724182,-0.022138159722089767
3667,7224007,49.402706146240234,36.116607666015625,16.48729705810547,-0.2625495493412018,-0.6344333291053772,-0.04544758424162865
3680,7224047,49.39449691772461,36.092315673828125,16.472322463989258,-0.2691788077354431,-0.6360172033309937,-0.09027080982923508
3684,7224067,49.390201568603516,36.08012008666992,16.464401245117188,-0.2709977328777313,-0.6383068561553955,-0.1125117763876915
3698,7224107,49.381771087646484,36.05575942993164,16.448572158813477,-0.27716994285583496,-0.642080545425415,-0.15492786467075348
3711,7224147,49.37346267700195,36.03135299682617,16.434078216552734,-0.2776562571525574,-0.6454765796661377,-0.18759222328662872
3715,7224167,49.369171142578125,36.01904296875,16.427433013916016,-0.27764737606048584,-0.6481793522834778,-0.20123401284217834
3729,7224207,49.36042022705078,35.9941520690918,16.41401481628418,-0.2732906937599182,-0.6557357907295227,-0.22027570009231567
3743,7224247,49.35128402709961,35.968204498291016,16.40330696105957,-0.266958087682724,-0.663427472114563,-0.225402370095253
3747,7224267,49.34687042236328,35.95539855957031,16.39947509765625,-0.2628704607486725,-0.6672784090042114,-0.22320400178432465
3761,7224307,49.33879470825195,35.92982482910156,16.392757415771484,-0.25206342339515686,-0.6794115900993347,-0.2118835747241974
3775,7224347,49.3314208984375,35.90407943725586,16.390254974365234,-0.24091844260692596,-0.6925721764564514,-0.1927136927843094
3778,7224367,49.32776641845703,35.89093780517578,16.3904972076416,-0.2369479537010193,-0.699718177318573,-0.18211176991462708
3794,7224407,49.32048034667969,35.86404800415039,16.3908748626709,-0.228500634431839,-0.7148551940917969,-0.16084988415241241
3808,7224447,49.31316375732422,35.83642578125,16.392417907714844,-0.22306713461875916,-0.7295128703117371,-0.1410580277442932
3811,7224467,49.309486389160156,35.82237243652344,16.393686294555664,-0.2215394824743271,-0.7377569079399109,-0.1331661194562912
3825,7224507,49.30238342285156,35.794010162353516,16.39667510986328,-0.21888591349124908,-0.7491700053215027,-0.11991158127784729
3838,7224547,49.295143127441406,35.76448440551758,16.399303436279297,-0.21944022178649902,-0.7589440941810608,-0.1147548109292984
3843,7224567,49.291534423828125,35.749916076660156,16.40018653869629,-0.2190791219472885,-0.7630372047424316,-0.11657162010669708
3858,7224607,49.28411865234375,35.720458984375,16.40110969543457,-0.22012989223003387,-0.7693837881088257,-0.12855462729930878
3871,7224647,49.27644348144531,35.69072341918945,16.4000244140625,-0.22035051882266998,-0.7720927000045776,-0.1502969115972519
3875,7224667,49.27253723144531,35.6757926940918,16.398591995239258,-0.22066755592823029,-0.7723300457000732,-0.16548390686511993
3889,7224707,49.26505661010742,35.64616775512695,16.394893646240234,-0.22026817500591278,-0.7720537185668945,-0.20131289958953857
3893,7224727,49.261470794677734,35.6314811706543,16.39256477355957,-0.21987484395503998,-0.771600604057312,-0.2196871042251587
3906,7224767,49.254051208496094,35.6020393371582,16.388578414916992,-0.22221983969211578,-0.7696405053138733,-0.25748905539512634
3920,7224807,49.24634552001953,35.572574615478516,16.382431030273438,-0.22433499991893768,-0.7663671970367432,-0.29273098707199097
3924,7224827,49.24216079711914,35.557071685791016,16.378324508666992,-0.22480326890945435,-0.7656612992286682,-0.30816203355789185
3937,7224867,49.234039306640625,35.5275993347168,16.37630271911621,-0.22671712934970856,-0.7616006731987,-0.32806143164634705
3952,7224907,49.2261962890625,35.4981575012207,16.373193740844727,-0.22871877253055573,-0.758826494216919,-0.3374764919281006
3956,7224927,49.2224235534668,35.48344039916992,16.37152099609375,-0.22833289206027985,-0.7573975324630737,-0.33421987295150757
3969,7224967,49.2147102355957,35.45401382446289,16.376834869384766,-0.2279534488916397,-0.7562624216079712,-0.32174286246299744
3983,7225007,49.206783294677734,35.4245719909668,16.380516052246094,-0.22653384506702423,-0.7541716694831848,-0.2971353530883789
3987,7225027,49.20276641845703,35.40983581542969,16.381961822509766,-0.22649537026882172,-0.7543141841888428,-0.2814941108226776
4000,7225067,49.194644927978516,35.38032531738281,16.391273498535156,-0.22439371049404144,-0.7541289329528809,-0.2451082468032837
4014,7225107,49.186641693115234,35.350181579589844,16.40044593811035,-0.22100947797298431,-0.755827009677887,-0.2049923688173294
4018,7225127,49.18290710449219,35.33553695678711,16.405385971069336,-0.22052693367004395,-0.7569038271903992,-0.18398912250995636
4031,7225167,49.17536544799805,35.306114196777344,16.415637969970703,-0.21629774570465088,-0.7594894766807556,-0.1426604986190796
4045,7225207,49.16778564453125,35.2764892578125,16.425355911254883,-0.21217310428619385,-0.7610682845115662,-0.10280197113752365
4059,7225227,49.16398620605469,35.261634826660156,16.430065155029297,-0.2103864550590515,-0.7613616585731506,-0.08344163000583649
4063,7225267,49.156375885009766,35.231876373291016,16.43265151977539,-0.20684416592121124,-0.7610766887664795,-0.05047418922185898
4077,7225307,49.14921188354492,35.20209503173828,16.436328887939453,-0.20514747500419617,-0.7587429881095886,-0.021060708910226822
4081,7225327,49.145816802978516,35.18722915649414,16.438575744628906,-0.20357832312583923,-0.7566143870353699,-0.00873123575001955
4094,7225367,49.138877868652344,35.15757369995117,16.432748794555664,-0.204003244638443,-0.7533131241798401,0.006342614535242319
4109,7225387,49.135135650634766,35.14204025268555,16.43033218383789,-0.20341916382312775,-0.7501913905143738,0.012327098287642002
4114,7225427,49.12790298461914,35.112586975097656,16.426286697387695,-0.20378093421459198,-0.7440589070320129,0.020665591582655907
4127,7225467,49.12045669555664,35.08331298828125,16.413583755493164,-0.20662011206150055,-0.7395792007446289,0.02164456434547901
4140,7225487,49.11664581298828,35.06874465942383,16.40790367126465,-0.20759473741054535,-0.7363194227218628,0.020436696708202362
4145,7225527,49.10996627807617,35.04031753540039,16.397674560546875,-0.21034900844097137,-0.7301977276802063,0.019407790154218674
4159,7225567,49.102943420410156,35.012062072753906,16.383968353271484,-0.2129831314086914,-0.723160982131958,0.014821523800492287
4173,7225587,49.099300384521484,34.998023986816406,16.377744674682617,-0.2149520218372345,-0.7177054286003113,0.0108613520860672
4178,7225627,49.09175109863281,34.97013854980469,16.36632537841797,-0.21826547384262085,-0.7104005217552185,0.0035383361391723156
4191,7225667,49.08369827270508,34.94187927246094,16.3557186126709,-0.2211286723613739,-0.6992137432098389,-0.006152707617729902
4200,7225687,49.07966995239258,34.92824172973633,16.35080909729004,-0.22323493659496307,-0.6933331489562988,-0.00947300810366869
4209,7225727,49.07282257080078,34.901527404785156,16.34156036376953,-0.22583962976932526,-0.6857246160507202,-0.017046460881829262
4222,7225767,49.065555572509766,34.87504959106445,16.33499526977539,-0.22923286259174347,-0.6765289306640625,-0.017539167776703835
4231,7225787,49.06179428100586,34.861907958984375,16.3320255279541,-0.22811836004257202,-0.6722636222839355,-0.01652497425675392
4240,7225827,49.05409240722656,34.835723876953125,16.326807022094727,-0.22882303595542908,-0.669441819190979,-0.004344814456999302
4253,7225867,49.046260833740234,34.809600830078125,16.324562072753906,-0.2258330136537552,-0.6680809259414673,0.010794883593916893
4267,7225887,49.04230499267578,34.796512603759766,16.32379913330078,-0.22444064915180206,-0.6674831509590149,0.018718596547842026
4272,7225927,49.03573989868164,34.77128219604492,16.323043823242188,-0.22267478704452515,-0.670735776424408,0.03441506624221802
4285,7225967,49.02861785888672,34.74510192871094,16.322826385498047,-0.22634285688400269,-0.6732335686683655,0.04601403325796127
4298,7225987,49.0250129699707,34.73223876953125,16.32293128967285,-0.22635582089424133,-0.6754736304283142,0.048854678869247437
4303,7226027,49.01749038696289,34.706295013427734,16.323410034179688,-0.23138947784900665,-0.6793124675750732,0.051901716738939285
4315,7226047,49.01358413696289,34.69321060180664,16.321943283081055,-0.23319800198078156,-0.6817676424980164,0.051169004291296005
4329,7226087,49.00537872314453,34.66675567626953,16.319360733032227,-0.2432553768157959,-0.6889097094535828,0.04532782360911369
4334,7226127,48.997798919677734,34.64046859741211,16.31676483154297,-0.2491689771413803,-0.6936737895011902,0.03742261230945587
4347,7226147,48.9937858581543,34.62720489501953,16.31265640258789,-0.2535586357116699,-0.6947815418243408,0.03448210284113884
4361,7226187,48.9853630065918,34.60047149658203,16.305173873901367,-0.25864529609680176,-0.6990625262260437,0.02595384605228901
4376,7226227,48.976470947265625,34.57345962524414,16.298404693603516,-0.2639754116535187,-0.702215313911438,0.014039019122719765
4379,7226247,48.97158432006836,34.55917739868164,16.292591094970703,-0.26823538541793823,-0.7023271322250366,0.006945168599486351
4392,7226287,48.96199035644531,34.53196334838867,16.281665802001953,-0.27375444769859314,-0.7011292576789856,-0.009242959320545197
4397,7226327,48.953067779541016,34.50578308105469,16.2713623046875,-0.2752075493335724,-0.6992141008377075,-0.026825854554772377
4410,7226347,48.94845962524414,34.49264907836914,16.265335083007812,-0.27926522493362427,-0.6973061561584473,-0.03554059937596321
4425,7226387,48.93893814086914,34.466331481933594,16.253833770751953,-0.28039059042930603,-0.695158839225769,-0.05197206512093544
4430,7226427,48.92910385131836,34.439903259277344,16.24300765991211,-0.2826555669307709,-0.6931677460670471,-0.06668735295534134
4443,7226447,48.924076080322266,34.42666244506836,16.238008499145508,-0.283751517534256,-0.6929830312728882,-0.07078340649604797
4456,7226487,48.913841247558594,34.40011215209961,16.22846031188965,-0.28553253412246704,-0.691479504108429,-0.07858026772737503
4461,7226527,48.903690338134766,34.37398147583008,16.21986961364746,-0.28667324781417847,-0.6881974339485168,-0.07992535084486008
4475,7226547,48.8986701965332,34.36117935180664,16.216222763061523,-0.2861768901348114,-0.6908649802207947,-0.07836166024208069
4489,7226587,48.88840866088867,34.33539581298828,16.20948600769043,-0.2892313599586487,-0.6903616189956665,-0.07235627621412277
4494,7226627,48.87790298461914,34.30939865112305,16.203563690185547,-0.290323406457901,-0.6912553310394287,-0.06309773772954941
4506,7226647,48.872554779052734,34.296302795410156,16.20026206970215,-0.2908394932746887,-0.6925309896469116,-0.05727110430598259
4520,7226687,48.86174011230469,34.26996612548828,16.19440460205078,-0.29039904475212097,-0.6929389238357544,-0.045904096215963364
4524,7226707,48.856563568115234,34.25725173950195,16.192169189453125,-0.2901853024959564,-0.692036509513855,-0.03972266986966133
4538,7226747,48.84610366821289,34.23163604736328,16.186307907104492,-0.28835341334342957,-0.6917710304260254,-0.027507014572620392
4552,7226787,48.835575103759766,34.20585250854492,16.179611206054688,-0.2849801182746887,-0.6902350783348083,-0.01720409467816353
4555,7226807,48.83001708984375,34.192222595214844,16.176668167114258,-0.28300753235816956,-0.6886180639266968,-0.016284463927149773
4569,7226847,48.81946563720703,34.166236877441406,16.168344497680664,-0.2805223762989044,-0.6868668794631958,-0.013587510213255882
4582,7226887,48.80887222290039,34.140159606933594,16.158143997192383,-0.27857956290245056,-0.6868541836738586,-0.015617388300597668
4587,7226907,48.803897857666016,34.12762451171875,16.15363311767578,-0.2773689329624176,-0.6845247745513916,-0.018751557916402817
4600,7226947,48.79389190673828,34.102386474609375,16.142513275146484,-0.2751113474369049,-0.6844832301139832,-0.024991463869810104
4614,7226987,48.7838249206543,34.076969146728516,16.129880905151367,-0.2720884680747986,-0.6825965046882629,-0.031214071437716484
4618,7227007,48.7787971496582,34.064205169677734,16.12407684326172,-0.26828309893608093,-0.681026816368103,-0.034141089767217636
4632,7227047,48.768802642822266,34.03856658935547,16.11219596862793,-0.2636837959289551,-0.6803640127182007,-0.03727765753865242
4646,7227087,48.758968353271484,34.01277160644531,16.100582122802734,-0.2570512592792511,-0.6794689297676086,-0.037860702723264694
4649,7227107,48.754268646240234,33.9996452331543,16.095407485961914,-0.25248244404792786,-0.6797672510147095,-0.03563316538929939
4663,7227147,48.74539566040039,33.97450256347656,16.087297439575195,-0.24751779437065125,-0.6824936866760254,-0.03401980921626091
4676,7227187,48.73649215698242,33.948978424072266,16.081302642822266,-0.24628716707229614,-0.685631275177002,-0.03066212311387062
4680,7227207,48.731990814208984,33.936100006103516,16.078601837158203,-0.24615609645843506,-0.6861602663993835,-0.028968850150704384
4694,7227247,48.72287368774414,33.91012191772461,16.075645446777344,-0.24785806238651276,-0.6888152956962585,-0.02847793698310852
4708,7227287,48.713565826416016,33.88395309448242,16.074796676635742,-0.24855858087539673,-0.687312662601471,-0.02788340486586094
4712,7227307,48.70905303955078,33.87127685546875,16.074508666992188,-0.24906396865844727,-0.686168372631073,-0.02876649983227253
4725,7227347,48.69979476928711,33.8458137512207,16.075345993041992,-0.25381162762641907,-0.6837193965911865,-0.031245479360222816
4731,7227367,48.69507598876953,33.833045959472656,16.076364517211914,-0.2530050277709961,-0.6810663938522339,-0.033775754272937775
4745,7227407,48.68524932861328,33.806880950927734,16.077939987182617,-0.2562762200832367,-0.6737814545631409,-0.03800894320011139
4758,7227447,48.67556381225586,33.78145980834961,16.079116821289062,-0.25372785329818726,-0.6668160557746887,-0.04688731208443642
4762,7227467,48.67071533203125,33.76879119873047,16.079547882080078,-0.2517428696155548,-0.6642475724220276,-0.05118221417069435
4776,7227507,48.661354064941406,33.743980407714844,16.080018997192383,-0.24653273820877075,-0.6605719327926636,-0.05986560508608818
4789,7227547,48.65235900878906,33.71964645385742,16.079599380493164,-0.240378275513649,-0.6533365845680237,-0.06849564611911774
4794,7227567,48.647918701171875,33.70746994018555,16.0789852142334,-0.23539835214614868,-0.6512792706489563,-0.07424961775541306
4809,7227607,48.63922882080078,33.68304443359375,16.077375411987305,-0.22696943581104279,-0.6492618918418884,-0.08202744275331497
