packet_index,time_boot_ms,lat_deg,lon_deg,alt_m,relative_alt_m,heading_deg,vx_mps,vy_mps,vz_mps
4,7212467,63.441019,10.3493405,15.45,8.591,235.8,0.08,-0.09,0.06
15,7212487,63.441019,10.3493404,15.45,8.593,236.16,0.08,-0.09,0.08
22,7212527,63.441019,10.3493403,15.45,8.596,236.88,0.09,-0.1,0.1
35,7212567,63.4410191,10.3493402,15.46,8.602,237.59,0.1,-0.1,0.12
50,7212587,63.4410191,10.3493402,15.46,8.604,237.94,0.1,-0.1,0.13
55,7212627,63.4410191,10.3493401,15.46,8.607,238.63,0.11,-0.1,0.15
68,7212667,63.4410191,10.34934,15.47,8.614,239.32,0.12,-0.1,0.15
81,7212687,63.4410191,10.3493399,15.47,8.617,239.66,0.12,-0.09,0.15
86,7212727,63.4410191,10.3493398,15.48,8.622,240.33,0.13,-0.09,0.14
99,7212767,63.4410192,10.3493397,15.49,8.633,240.99,0.13,-0.09,0.13
108,7212787,63.4410192,10.3493397,15.49,8.637,241.33,0.13,-0.08,0.11
117,7212827,63.4410192,10.3493396,15.5,8.646,241.96,0.13,-0.07,0.09
129,7212847,63.4410192,10.3493396,15.51,8.652,242.26,0.13,-0.07,0.08
139,7212887,63.4410193,10.3493395,15.52,8.664,242.86,0.13,-0.06,0.05
151,7212927,63.4410193,10.3493395,15.53,8.676,243.43,0.13,-0.06,0.02
163,7212947,63.4410193,10.3493394,15.54,8.683,243.71,0.13,-0.05,0.01
171,7212987,63.4410193,10.3493394,15.55,8.696,244.25,0.12,-0.05,-0.01
182,7213027,63.4410194,10.3493393,15.56,8.708,244.79,0.12,-0.04,-0.04
194,7213047,63.4410194,10.3493393,15.57,8.714,245.06,0.12,-0.04,-0.06
206,7213087,63.4410194,10.3493393,15.58,8.724,245.61,0.12,-0.03,-0.09
213,7213127,63.4410194,10.3493392,15.59,8.735,246.16,0.12,-0.02,-0.11
225,7213147,63.4410194,10.3493392,15.59,8.739,246.44,0.12,-0.02,-0.13
237,7213187,63.4410195,10.3493392,15.6,8.746,247.01,0.11,-0.02,-0.15
244,7213227,63.4410195,10.3493391,15.61,8.755,247.59,0.11,-0.02,-0.17
257,7213247,63.4410195,10.3493391,15.61,8.756,247.88,0.1,-0.02,-0.18
268,7213287,63.4410195,10.3493391,15.62,8.76,248.43,0.1,-0.02,-0.2
276,7213327,63.4410196,10.3493391,15.62,8.764,248.98,0.09,-0.02,-0.21
288,7213347,63.4410196,10.349339,15.62,8.762,249.27,0.08,-0.03,-0.21
300,7213387,63.4410196,10.349339,15.62,8.76,249.8,0.08,-0.03,-0.2
309,7213427,63.4410196,10.3493389,15.61,8.759,250.31,0.07,-0.03,-0.19
321,7213447,63.4410196,10.3493389,15.61,8.754,250.55,0.06,-0.03,-0.18
333,7213487,63.4410196,10.3493389,15.6,8.746,250.96,0.05,-0.03,-0.15
339,7213507,63.4410196,10.3493388,15.6,8.741,251.12,0.04,-0.03,-0.13
352,7213547,63.4410196,10.3493388,15.58,8.729,251.36,0.03,-0.04,-0.1
368,7213587,63.4410196,10.3493387,15.57,8.714,251.51,0.02,-0.04,-0.06
372,7213607,63.4410196,10.3493387,15.56,8.707,251.56,0.02,-0.04,-0.04
385,7213647,63.4410195,10.3493386,15.55,8.693,251.63,0.01,-0.03,0.0
399,7213687,63.4410195,10.3493386,15.54,8.68,251.67,0.01,-0.03,0.02
403,7213707,63.4410195,10.3493386,15.53,8.674,251.69,0.01,-0.02,0.03
416,7213747,63.4410195,10.3493385,15.52,8.664,251.73,0.0,-0.02,0.06
430,7213787,63.4410195,10.3493385,15.51,8.658,251.77,0.0,-0.02,0.08
434,7213807,63.4410195,10.3493385,15.51,8.655,251.79,0.0,-0.03,0.08
447,7213847,63.4410195,10.3493384,15.51,8.655,251.81,0.0,-0.03,0.09
457,7213887,63.4410195,10.3493384,15.52,8.66,251.8,-0.01,-0.03,0.09
466,7213907,63.4410195,10.3493383,15.52,8.662,251.79,-0.02,-0.04,0.09
479,7213947,63.4410195,10.3493383,15.53,8.671,251.73,-0.02,-0.04,0.08
493,7213987,63.4410194,10.3493382,15.54,8.684,251.65,-0.03,-0.05,0.07
497,7214007,63.4410194,10.3493382,15.54,8.689,251.6,-0.03,-0.04,0.06
510,7214047,63.4410194,10.3493381,15.56,8.703,251.49,-0.04,-0.05,0.04
520,7214087,63.4410194,10.3493381,15.57,8.718,251.37,-0.04,-0.06,0.01
528,7214107,63.4410193,10.3493381,15.58,8.726,251.31,-0.04,-0.07,0.0
541,7214147,63.4410193,10.349338,15.59,8.739,251.19,-0.04,-0.07,-0.01
545,7214167,63.4410193,10.349338,15.6,8.745,251.13,-0.04,-0.08,-0.02
559,7214207,63.4410193,10.3493379,15.61,8.756,250.99,-0.04,-0.09,-0.04
573,7214247,63.4410192,10.3493378,15.62,8.763,250.85,-0.04,-0.11,-0.04
577,7214267,63.4410192,10.3493377,15.62,8.764,250.78,-0.04,-0.12,-0.05
591,7214307,63.4410192,10.3493376,15.62,8.767,250.65,-0.04,-0.15,-0.06
604,7214347,63.4410191,10.3493375,15.62,8.764,250.56,-0.04,-0.17,-0.06
608,7214367,63.4410191,10.3493374,15.62,8.761,250.52,-0.04,-0.19,-0.06
624,7214407,63.4410191,10.3493373,15.61,8.755,250.47,-0.04,-0.22,-0.06
637,7214447,63.4410191,10.3493371,15.6,8.745,250.44,-0.05,-0.25,-0.06
641,7214467,63.441019,10.349337,15.59,8.739,250.44,-0.05,-0.27,-0.05
655,7214507,63.441019,10.3493368,15.58,8.728,250.43,-0.05,-0.3,-0.06
668,7214547,63.4410189,10.3493365,15.57,8.716,250.43,-0.06,-0.33,-0.05
674,7214567,63.4410189,10.3493364,15.56,8.709,250.43,-0.07,-0.35,-0.05
688,7214607,63.4410189,10.3493361,15.55,8.697,250.43,-0.08,-0.37,-0.05
701,7214647,63.4410188,10.3493358,15.54,8.687,250.41,-0.09,-0.4,-0.05
705,7214667,63.4410188,10.3493356,15.54,8.682,250.4,-0.09,-0.41,-0.05
719,7214707,63.4410187,10.3493353,15.53,8.674,250.36,-0.11,-0.43,-0.04
732,7214747,63.4410186,10.349335,15.53,8.67,250.3,-0.12,-0.45,-0.04
736,7214767,63.4410186,10.3493348,15.52,8.669,250.27,-0.12,-0.46,-0.04
750,7214807,63.4410185,10.3493344,15.52,8.668,250.18,-0.13,-0.48,-0.03
754,7214827,63.4410185,10.3493342,15.52,8.667,250.13,-0.14,-0.48,-0.03
767,7214867,63.4410184,10.3493339,15.53,8.676,250.04,-0.14,-0.5,-0.02
782,7214907,63.4410183,10.3493335,15.54,8.684,249.95,-0.15,-0.51,-0.01
786,7214927,63.4410183,10.3493333,15.54,8.687,249.9,-0.15,-0.52,-0.01
799,7214967,63.4410182,10.3493329,15.56,8.706,249.81,-0.16,-0.53,0.0
813,7215007,63.4410181,10.3493325,15.58,8.723,249.72,-0.16,-0.54,0.0
817,7215027,63.441018,10.3493323,15.59,8.73,249.68,-0.16,-0.54,0.0
830,7215067,63.4410179,10.3493318,15.61,8.758,249.6,-0.16,-0.55,0.0
844,7215107,63.4410178,10.3493314,15.64,8.782,249.51,-0.16,-0.56,0.01
848,7215127,63.4410177,10.3493312,15.65,8.792,249.47,-0.17,-0.57,0.01
861,7215167,63.4410176,10.3493307,15.68,8.823,249.39,-0.17,-0.57,0.0
875,7215207,63.4410175,10.3493303,15.71,8.85,249.3,-0.17,-0.58,0.0
887,7215227,63.4410174,10.3493301,15.72,8.862,249.25,-0.17,-0.58,0.0
893,7215267,63.4410173,10.3493296,15.75,8.89,249.17,-0.17,-0.58,-0.01
907,7215307,63.4410172,10.3493292,15.77,8.915,249.08,-0.18,-0.59,-0.03
911,7215327,63.4410172,10.349329,15.78,8.926,249.03,-0.18,-0.58,-0.04
924,7215367,63.441017,10.3493285,15.8,8.946,248.93,-0.18,-0.58,-0.05
940,7215407,63.4410169,10.3493281,15.82,8.964,248.83,-0.19,-0.58,-0.07
944,7215427,63.4410169,10.3493278,15.83,8.973,248.78,-0.19,-0.58,-0.07
957,7215467,63.4410167,10.3493274,15.83,8.979,248.67,-0.2,-0.58,-0.09
966,7215487,63.4410167,10.3493272,15.84,8.982,248.62,-0.2,-0.58,-0.09
975,7215527,63.4410165,10.3493267,15.84,8.989,248.51,-0.21,-0.58,-0.1
990,7215567,63.4410164,10.3493263,15.84,8.98,248.41,-0.22,-0.57,-0.11
1003,7215587,63.4410163,10.3493261,15.83,8.976,248.36,-0.22,-0.57,-0.11
1008,7215627,63.4410162,10.3493256,15.83,8.97,248.27,-0.22,-0.57,-0.11
1021,7215667,63.4410161,10.3493252,15.81,8.95,248.2,-0.23,-0.57,-0.11
1030,7215687,63.441016,10.349325,15.8,8.941,248.18,-0.23,-0.56,-0.11
1039,7215727,63.4410159,10.3493245,15.78,8.924,248.15,-0.23,-0.56,-0.1
1052,7215767,63.4410157,10.3493241,15.76,8.9,248.15,-0.23,-0.56,-0.09
1059,7215787,63.4410156,10.3493239,15.74,8.889,248.16,-0.24,-0.56,-0.09
1070,7215827,63.4410155,10.3493234,15.72,8.869,248.2,-0.24,-0.56,-0.08
1083,7215867,63.4410154,10.349323,15.71,8.85,248.26,-0.24,-0.56,-0.07
1094,7215887,63.4410153,10.3493228,15.7,8.841,248.3,-0.24,-0.56,-0.07
1102,7215927,63.4410151,10.3493223,15.68,8.825,248.37,-0.24,-0.56,-0.06
1115,7215967,63.441015,10.3493219,15.67,8.817,248.46,-0.24,-0.57,-0.05
1122,7215987,63.4410149,10.3493217,15.67,8.814,248.51,-0.24,-0.56,-0.05
1140,7216027,63.4410148,10.3493212,15.66,8.807,248.61,-0.24,-0.57,-0.05
1146,7216067,63.4410146,10.3493208,15.67,8.814,248.72,-0.24,-0.57,-0.05
1153,7216087,63.4410146,10.3493205,15.67,8.817,248.77,-0.24,-0.57,-0.05
1164,7216127,63.4410144,10.3493201,15.68,8.823,248.89,-0.25,-0.57,-0.06
1176,7216147,63.4410143,10.3493199,15.69,8.832,248.96,-0.25,-0.57,-0.06
1184,7216187,63.4410142,10.3493194,15.71,8.85,249.1,-0.25,-0.57,-0.07
1195,7216227,63.441014,10.3493189,15.72,8.867,249.27,-0.25,-0.57,-0.08
1208,7216247,63.441014,10.3493187,15.74,8.881,249.37,-0.25,-0.57,-0.09
1216,7216287,63.4410138,10.3493183,15.76,8.906,249.57,-0.26,-0.57,-0.1
1227,7216327,63.4410137,10.3493178,15.78,8.929,249.8,-0.26,-0.57,-0.11
1239,7216347,63.4410136,10.3493176,15.8,8.943,249.92,-0.26,-0.57,-0.12
1255,7216387,63.4410134,10.3493171,15.83,8.97,250.18,-0.27,-0.57,-0.12
1260,7216427,63.4410133,10.3493167,15.85,8.995,250.44,-0.27,-0.57,-0.13
1272,7216447,63.4410132,10.3493164,15.86,9.008,250.58,-0.27,-0.57,-0.13
1286,7216487,63.4410131,10.349316,15.89,9.034,250.86,-0.27,-0.57,-0.12
1291,7216527,63.4410129,10.3493155,15.91,9.055,251.13,-0.27,-0.58,-0.11
1303,7216547,63.4410128,10.3493153,15.92,9.066,251.27,-0.27,-0.58,-0.1
1314,7216587,63.4410127,10.3493148,15.94,9.087,251.55,-0.28,-0.59,-0.09
1324,7216627,63.4410125,10.3493144,15.96,9.104,251.84,-0.27,-0.59,-0.07
1347,7216647,63.4410124,10.3493141,15.97,9.114,251.98,-0.27,-0.59,-0.06
1350,7216687,63.4410123,10.3493136,15.99,9.131,252.26,-0.27,-0.6,-0.04
1362,7216727,63.4410122,10.3493132,16.0,9.144,252.54,-0.26,-0.6,-0.02
1368,7216747,63.4410121,10.3493129,16.01,9.153,252.69,-0.26,-0.6,-0.01
1375,7216787,63.4410119,10.3493125,16.02,9.169,252.97,-0.25,-0.61,0.0
1385,7216807,63.4410119,10.3493122,16.03,9.176,253.11,-0.25,-0.61,0.0
1398,7216847,63.4410117,10.3493117,16.05,9.191,253.39,-0.25,-0.61,0.0
1405,7216887,63.4410116,10.3493112,16.06,9.208,253.66,-0.24,-0.61,0.0
1417,7216907,63.4410115,10.349311,16.07,9.215,253.79,-0.24,-0.61,0.0
1430,7216947,63.4410114,10.3493105,16.09,9.231,254.05,-0.24,-0.6,-0.01
1444,7216987,63.4410113,10.34931,16.1,9.248,254.3,-0.24,-0.6,-0.03
1448,7217007,63.4410112,10.3493098,16.11,9.256,254.42,-0.24,-0.6,-0.04
1461,7217047,63.4410111,10.3493093,16.13,9.271,254.67,-0.23,-0.6,-0.05
1475,7217087,63.441011,10.3493088,16.14,9.285,254.91,-0.23,-0.6,-0.07
1479,7217107,63.4410109,10.3493085,16.15,9.291,255.02,-0.24,-0.6,-0.08
1492,7217147,63.4410108,10.3493081,16.16,9.301,255.24,-0.24,-0.6,-0.09
1503,7217187,63.4410107,10.3493076,16.16,9.308,255.45,-0.24,-0.6,-0.1
1510,7217207,63.4410106,10.3493073,16.17,9.312,255.55,-0.24,-0.6,-0.11
1524,7217247,63.4410105,10.3493068,16.17,9.314,255.75,-0.25,-0.6,-0.11
1536,7217287,63.4410104,10.3493063,16.17,9.311,255.95,-0.25,-0.6,-0.11
1542,7217307,63.4410103,10.3493061,16.17,9.31,256.04,-0.25,-0.6,-0.11
1555,7217347,63.4410102,10.3493056,16.16,9.303,256.25,-0.26,-0.6,-0.1
1567,7217387,63.4410101,10.3493051,16.15,9.292,256.45,-0.26,-0.61,-0.09
1575,7217407,63.44101,10.3493048,16.14,9.287,256.55,-0.26,-0.61,-0.08
1588,7217447,63.4410099,10.3493043,16.13,9.273,256.76,-0.26,-0.62,-0.07
1592,7217467,63.4410098,10.3493041,16.12,9.265,256.87,-0.25,-0.61,-0.06
1606,7217507,63.4410097,10.3493036,16.11,9.25,257.07,-0.25,-0.62,-0.05
1619,7217547,63.4410096,10.3493031,16.09,9.235,257.27,-0.25,-0.62,-0.05
1625,7217567,63.4410095,10.3493028,16.08,9.228,257.36,-0.25,-0.62,-0.05
1639,7217607,63.4410094,10.3493023,16.07,9.214,257.52,-0.24,-0.62,-0.04
1653,7217647,63.4410093,10.3493018,16.06,9.204,257.68,-0.24,-0.62,-0.05
1656,7217667,63.4410092,10.3493015,16.06,9.2,257.75,-0.24,-0.62,-0.05
1670,7217707,63.4410091,10.349301,16.05,9.193,257.89,-0.23,-0.62,-0.06
1683,7217747,63.441009,10.3493005,16.05,9.19,258.03,-0.23,-0.62,-0.06
1687,7217767,63.441009,10.3493002,16.05,9.19,258.1,-0.23,-0.62,-0.07
1701,7217807,63.4410089,10.3492997,16.05,9.19,258.25,-0.23,-0.61,-0.07
1714,7217847,63.4410087,10.3492992,16.05,9.194,258.42,-0.23,-0.61,-0.07
1718,7217867,63.4410087,10.3492989,16.05,9.197,258.5,-0.23,-0.62,-0.07
1733,7217907,63.4410086,10.3492984,16.06,9.203,258.67,-0.23,-0.62,-0.07
1746,7217947,63.4410085,10.3492979,16.07,9.212,258.87,-0.23,-0.62,-0.07
1750,7217967,63.4410084,10.3492976,16.07,9.218,258.97,-0.23,-0.62,-0.06
1764,7218007,63.4410083,10.3492971,16.08,9.228,259.17,-0.24,-0.62,-0.06
1777,7218047,63.4410082,10.3492966,16.1,9.241,259.38,-0.24,-0.63,-0.06
1781,7218067,63.4410082,10.3492963,16.1,9.249,259.49,-0.24,-0.63,-0.06
1795,7218107,63.4410081,10.3492958,16.12,9.262,259.71,-0.25,-0.64,-0.06
1799,7218127,63.441008,10.3492955,16.12,9.269,259.82,-0.25,-0.64,-0.06
1812,7218167,63.4410079,10.349295,16.14,9.288,260.04,-0.25,-0.64,-0.06
1826,7218207,63.4410078,10.3492945,16.16,9.305,260.24,-0.26,-0.65,-0.07
1840,7218227,63.4410078,10.3492942,16.17,9.312,260.33,-0.26,-0.65,-0.07
1844,7218267,63.4410076,10.3492936,16.19,9.334,260.5,-0.27,-0.65,-0.09
1858,7218307,63.4410075,10.3492931,16.21,9.353,260.64,-0.27,-0.65,-0.1
1862,7218327,63.4410075,10.3492928,16.22,9.362,260.71,-0.27,-0.65,-0.11
1875,7218367,63.4410074,10.3492923,16.24,9.382,260.85,-0.27,-0.64,-0.13
1891,7218407,63.4410073,10.3492917,16.26,9.401,261.0,-0.26,-0.64,-0.14
1895,7218427,63.4410072,10.3492915,16.27,9.41,261.08,-0.26,-0.64,-0.15
1909,7218467,63.4410071,10.3492909,16.28,9.425,261.23,-0.25,-0.64,-0.15
1922,7218507,63.441007,10.3492904,16.29,9.439,261.4,-0.23,-0.64,-0.15
1926,7218527,63.4410069,10.3492901,16.3,9.445,261.49,-0.23,-0.64,-0.15
1941,7218567,63.4410069,10.3492896,16.3,9.449,261.67,-0.21,-0.64,-0.14
1955,7218607,63.4410068,10.349289,16.31,9.452,261.85,-0.2,-0.64,-0.12
1959,7218627,63.4410067,10.3492887,16.31,9.454,261.94,-0.19,-0.65,-0.12
1972,7218667,63.4410067,10.3492882,16.3,9.448,262.12,-0.18,-0.65,-0.1
1986,7218707,63.4410066,10.3492876,16.3,9.442,262.28,-0.17,-0.66,-0.09
1990,7218727,63.4410065,10.3492874,16.29,9.439,262.36,-0.17,-0.66,-0.09
2003,7218767,63.4410065,10.3492868,16.28,9.428,262.49,-0.17,-0.67,-0.08
2016,7218787,63.4410064,10.3492865,16.28,9.422,262.55,-0.17,-0.67,-0.07
2021,7218827,63.4410064,10.3492859,16.27,9.413,262.64,-0.17,-0.67,-0.07
2034,7218867,63.4410063,10.3492853,16.26,9.404,262.73,-0.18,-0.67,-0.07
2048,7218887,63.4410063,10.349285,16.26,9.4,262.78,-0.18,-0.67,-0.07
2053,7218927,63.4410062,10.3492844,16.25,9.392,262.87,-0.18,-0.67,-0.08
2066,7218967,63.4410061,10.3492839,16.24,9.387,262.98,-0.19,-0.67,-0.09
2079,7218987,63.4410061,10.3492836,16.24,9.385,263.04,-0.19,-0.67,-0.1
2084,7219027,63.441006,10.349283,16.24,9.382,263.17,-0.19,-0.66,-0.11
2097,7219067,63.4410059,10.3492824,16.24,9.382,263.33,-0.2,-0.66,-0.13
2110,7219087,63.4410059,10.3492821,16.24,9.382,263.41,-0.2,-0.66,-0.14
2115,7219127,63.4410058,10.3492815,16.24,9.384,263.58,-0.21,-0.65,-0.16
2128,7219167,63.4410057,10.349281,16.24,9.386,263.74,-0.22,-0.65,-0.17
2141,7219187,63.4410057,10.3492807,16.24,9.387,263.81,-0.22,-0.65,-0.17
2156,7219227,63.4410056,10.3492801,16.25,9.39,263.95,-0.22,-0.65,-0.17
2160,7219267,63.4410055,10.3492796,16.25,9.393,264.07,-0.22,-0.65,-0.17
2173,7219287,63.4410055,10.3492793,16.25,9.394,264.12,-0.22,-0.65,-0.16
2178,7219327,63.4410054,10.3492787,16.25,9.395,264.19,-0.22,-0.65,-0.14
2191,7219367,63.4410053,10.3492781,16.25,9.397,264.26,-0.22,-0.65,-0.12
2206,7219387,63.4410053,10.3492778,16.25,9.397,264.28,-0.22,-0.65,-0.11
2211,7219427,63.4410052,10.3492773,16.25,9.398,264.32,-0.21,-0.65,-0.09
2224,7219447,63.4410052,10.349277,16.26,9.4,264.33,-0.21,-0.65,-0.08
2237,7219487,63.4410051,10.3492764,16.26,9.403,264.36,-0.2,-0.65,-0.05
2242,7219527,63.441005,10.3492759,16.26,9.403,264.39,-0.19,-0.65,-0.02
2254,7219547,63.441005,10.3492756,16.26,9.407,264.4,-0.19,-0.65,0.0
2270,7219587,63.4410049,10.349275,16.27,9.413,264.42,-0.18,-0.66,0.01
2275,7219627,63.4410049,10.3492745,16.27,9.418,264.43,-0.18,-0.66,0.04
2287,7219647,63.4410049,10.3492742,16.28,9.424,264.44,-0.18,-0.66,0.05
2301,7219687,63.4410048,10.3492736,16.29,9.436,264.46,-0.18,-0.66,0.06
2306,7219727,63.4410047,10.3492731,16.3,9.444,264.49,-0.17,-0.66,0.08
2318,7219747,63.4410047,10.3492728,16.31,9.453,264.51,-0.17,-0.66,0.08
2327,7219787,63.4410047,10.3492722,16.32,9.469,264.56,-0.17,-0.65,0.08
2337,7219827,63.4410046,10.3492717,16.34,9.482,264.63,-0.18,-0.65,0.07
2349,7219847,63.4410046,10.3492714,16.35,9.492,264.67,-0.18,-0.65,0.07
2363,7219887,63.4410045,10.3492708,16.37,9.51,264.76,-0.18,-0.65,0.04
2369,7219927,63.4410045,10.3492703,16.38,9.527,264.85,-0.19,-0.65,0.02
2382,7219947,63.4410044,10.34927,16.39,9.536,264.9,-0.19,-0.65,0.0
2388,7219987,63.4410044,10.3492694,16.41,9.554,265.0,-0.2,-0.66,-0.01
2400,7220027,63.4410043,10.3492688,16.43,9.57,265.1,-0.21,-0.66,-0.04
2412,7220047,63.4410043,10.3492686,16.43,9.576,265.15,-0.21,-0.66,-0.06
2423,7220087,63.4410042,10.349268,16.44,9.588,265.25,-0.22,-0.66,-0.09
2430,7220107,63.4410042,10.3492677,16.45,9.594,265.3,-0.22,-0.67,-0.1
2443,7220147,63.4410041,10.3492671,16.46,9.601,265.41,-0.23,-0.67,-0.13
2454,7220187,63.4410041,10.3492665,16.46,9.604,265.53,-0.23,-0.67,-0.15
2461,7220207,63.441004,10.3492663,16.46,9.607,265.6,-0.23,-0.67,-0.16
2475,7220247,63.441004,10.3492657,16.46,9.606,265.73,-0.24,-0.67,-0.17
2485,7220287,63.4410039,10.3492651,16.46,9.602,265.87,-0.24,-0.68,-0.18
2493,7220307,63.4410039,10.3492648,16.45,9.599,265.94,-0.24,-0.68,-0.18
2506,7220347,63.4410038,10.3492642,16.45,9.591,266.08,-0.24,-0.67,-0.18
2518,7220387,63.4410037,10.3492636,16.44,9.581,266.22,-0.24,-0.68,-0.17
2526,7220407,63.4410037,10.3492634,16.43,9.576,266.28,-0.24,-0.68,-0.16
2540,7220447,63.4410036,10.3492628,16.42,9.565,266.4,-0.23,-0.67,-0.15
2553,7220487,63.4410036,10.3492622,16.41,9.554,266.51,-0.23,-0.67,-0.13
2557,7220507,63.4410035,10.3492619,16.4,9.548,266.56,-0.22,-0.67,-0.12
2570,7220547,63.4410035,10.3492613,16.39,9.537,266.65,-0.21,-0.67,-0.09
2586,7220587,63.4410034,10.3492608,16.38,9.527,266.73,-0.21,-0.67,-0.07
2590,7220607,63.4410034,10.3492605,16.38,9.522,266.76,-0.2,-0.67,-0.05
2604,7220647,63.4410033,10.34926,16.37,9.515,266.81,-0.2,-0.66,-0.03
2615,7220687,63.4410033,10.3492594,16.37,9.51,266.84,-0.19,-0.66,-0.01
2621,7220707,63.4410032,10.3492591,16.36,9.507,266.86,-0.19,-0.66,0.0
2635,7220747,63.4410032,10.3492586,16.36,9.504,266.89,-0.19,-0.66,0.01
2638,7220767,63.4410031,10.3492583,16.36,9.504,266.91,-0.19,-0.66,0.01
2652,7220807,63.4410031,10.3492577,16.36,9.504,266.96,-0.19,-0.65,0.02
2666,7220847,63.441003,10.3492572,16.36,9.507,267.02,-0.2,-0.64,0.02
2669,7220867,63.441003,10.3492569,16.37,9.51,267.06,-0.2,-0.64,0.01
2684,7220907,63.4410029,10.3492564,16.37,9.515,267.14,-0.21,-0.64,0.0
2698,7220947,63.4410029,10.3492559,16.38,9.523,267.22,-0.21,-0.64,-0.01
2701,7220967,63.4410029,10.3492556,16.38,9.529,267.26,-0.21,-0.64,-0.02
2715,7221007,63.4410028,10.3492551,16.39,9.539,267.34,-0.21,-0.64,-0.04
2728,7221047,63.4410028,10.3492546,16.41,9.55,267.42,-0.22,-0.64,-0.06
2732,7221067,63.4410027,10.3492543,16.41,9.555,267.46,-0.22,-0.64,-0.07
2746,7221107,63.4410027,10.3492537,16.42,9.567,267.52,-0.23,-0.64,-0.09
2759,7221147,63.4410026,10.3492532,16.43,9.576,267.58,-0.23,-0.65,-0.1
2763,7221167,63.4410026,10.3492529,16.44,9.58,267.61,-0.23,-0.65,-0.11
2777,7221207,63.4410025,10.3492524,16.44,9.588,267.67,-0.23,-0.65,-0.12
2791,7221247,63.4410025,10.3492518,16.45,9.593,267.73,-0.22,-0.65,-0.12
2795,7221267,63.4410024,10.3492515,16.45,9.593,267.77,-0.22,-0.66,-0.12
2809,7221307,63.4410024,10.349251,16.45,9.595,267.83,-0.22,-0.66,-0.12
2822,7221347,63.4410023,10.3492504,16.45,9.593,267.89,-0.21,-0.67,-0.12
2826,7221367,63.4410023,10.3492502,16.45,9.591,267.92,-0.21,-0.67,-0.12
2842,7221407,63.4410022,10.3492496,16.44,9.587,267.95,-0.2,-0.67,-0.12
2846,7221427,63.4410022,10.3492493,16.44,9.586,267.97,-0.2,-0.67,-0.12
2859,7221467,63.4410022,10.3492487,16.43,9.579,267.98,-0.19,-0.68,-0.12
2873,7221507,63.4410021,10.3492482,16.43,9.573,267.97,-0.18,-0.68,-0.11
2877,7221527,63.4410021,10.3492479,16.43,9.57,267.96,-0.17,-0.68,-0.11
2891,7221567,63.441002,10.3492473,16.42,9.564,267.94,-0.17,-0.68,-0.12
2906,7221607,63.441002,10.3492468,16.41,9.559,267.89,-0.16,-0.69,-0.11
2910,7221627,63.441002,10.3492465,16.41,9.556,267.86,-0.16,-0.69,-0.12
2923,7221667,63.4410019,10.3492459,16.41,9.553,267.8,-0.16,-0.69,-0.12
2937,7221707,63.4410019,10.3492453,16.41,9.55,267.72,-0.16,-0.7,-0.13
2941,7221727,63.4410019,10.349245,16.4,9.549,267.68,-0.16,-0.7,-0.13
2954,7221767,63.4410018,10.3492444,16.4,9.546,267.58,-0.16,-0.71,-0.14
2968,7221807,63.4410018,10.3492438,16.4,9.545,267.47,-0.16,-0.71,-0.15
2972,7221827,63.4410018,10.3492436,16.4,9.545,267.42,-0.16,-0.72,-0.16
2985,7221867,63.4410017,10.349243,16.4,9.542,267.32,-0.17,-0.72,-0.17
3000,7221907,63.4410017,10.3492424,16.4,9.54,267.24,-0.17,-0.73,-0.18
3004,7221927,63.4410017,10.3492421,16.39,9.539,267.21,-0.17,-0.73,-0.18
3017,7221967,63.4410016,10.3492414,16.39,9.533,267.16,-0.17,-0.73,-0.19
3031,7222007,63.4410016,10.3492408,16.38,9.528,267.13,-0.17,-0.74,-0.2
3035,7222027,63.4410016,10.3492405,16.38,9.527,267.11,-0.17,-0.75,-0.2
3048,7222067,63.4410015,10.3492399,16.37,9.519,267.09,-0.17,-0.75,-0.21
3061,7222087,63.4410015,10.3492396,16.37,9.516,267.08,-0.17,-0.76,-0.21
3066,7222127,63.4410015,10.349239,16.37,9.51,267.06,-0.17,-0.77,-0.2
3079,7222167,63.4410014,10.3492383,16.36,9.503,267.02,-0.17,-0.78,-0.2
3092,7222187,63.4410014,10.349238,16.36,9.5,267.0,-0.17,-0.78,-0.19
3104,7222227,63.4410014,10.3492373,16.35,9.496,266.94,-0.18,-0.79,-0.19
3111,7222267,63.4410013,10.3492367,16.35,9.495,266.87,-0.18,-0.79,-0.17
3121,7222287,63.4410013,10.3492363,16.35,9.495,266.82,-0.18,-0.79,-0.17
3129,7222327,63.4410012,10.3492357,16.35,9.493,266.71,-0.19,-0.8,-0.15
3142,7222367,63.4410012,10.349235,16.35,9.499,266.59,-0.19,-0.8,-0.14
3152,7222387,63.4410012,10.3492347,16.36,9.502,266.53,-0.19,-0.8,-0.14
3162,7222427,63.4410011,10.3492341,16.36,9.508,266.4,-0.19,-0.8,-0.12
3175,7222467,63.4410011,10.3492334,16.38,9.522,266.26,-0.2,-0.8,-0.11
3183,7222487,63.441001,10.3492331,16.38,9.528,266.19,-0.19,-0.79,-0.1
3193,7222527,63.441001,10.3492324,16.39,9.538,266.06,-0.19,-0.79,-0.08
3207,7222567,63.4410009,10.3492318,16.41,9.555,265.93,-0.19,-0.78,-0.06
3222,7222587,63.4410009,10.3492315,16.42,9.563,265.87,-0.19,-0.78,-0.05
3236,7222627,63.4410008,10.3492309,16.43,9.576,265.75,-0.19,-0.77,-0.03
3239,7222667,63.4410008,10.3492302,16.45,9.593,265.64,-0.18,-0.76,-0.01
3247,7222687,63.4410008,10.3492299,16.46,9.601,265.58,-0.18,-0.76,0.0
3257,7222727,63.4410007,10.3492293,16.47,9.614,265.47,-0.18,-0.75,0.02
3270,7222747,63.4410007,10.349229,16.48,9.622,265.41,-0.18,-0.75,0.03
3278,7222787,63.4410007,10.3492284,16.49,9.636,265.28,-0.18,-0.74,0.05
3288,7222827,63.4410006,10.3492278,16.5,9.647,265.16,-0.18,-0.73,0.07
3301,7222847,63.4410006,10.3492275,16.51,9.653,265.09,-0.18,-0.73,0.08
3316,7222887,63.4410005,10.3492269,16.52,9.663,264.96,-0.18,-0.72,0.1
3330,7222927,63.4410005,10.3492263,16.53,9.67,264.83,-0.19,-0.71,0.11
3333,7222947,63.4410005,10.349226,16.53,9.673,264.76,-0.19,-0.71,0.12
3347,7222987,63.4410004,10.3492255,16.53,9.678,264.63,-0.19,-0.69,0.13
3351,7223027,63.4410004,10.3492249,16.54,9.682,264.52,-0.2,-0.68,0.13
3363,7223047,63.4410003,10.3492247,16.54,9.682,264.47,-0.2,-0.68,0.13
3377,7223087,63.4410003,10.3492241,16.54,9.682,264.38,-0.21,-0.66,0.13
3382,7223127,63.4410002,10.3492236,16.54,9.683,264.31,-0.21,-0.66,0.12
3394,7223147,63.4410002,10.3492233,16.54,9.68,264.29,-0.21,-0.65,0.12
3408,7223187,63.4410002,10.3492228,16.53,9.676,264.25,-0.21,-0.64,0.11
3413,7223227,63.4410001,10.3492223,16.53,9.672,264.22,-0.21,-0.63,0.1
3426,7223247,63.4410001,10.349222,16.52,9.667,264.21,-0.21,-0.63,0.09
3440,7223287,63.441,10.3492215,16.51,9.658,264.19,-0.22,-0.62,0.08
3445,7223327,63.441,10.349221,16.51,9.65,264.18,-0.21,-0.61,0.07
3457,7223347,63.4409999,10.3492208,16.5,9.644,264.17,-0.21,-0.61,0.07
3468,7223387,63.4409999,10.3492203,16.49,9.633,264.15,-0.21,-0.6,0.07
3477,7223407,63.4409999,10.34922,16.48,9.628,264.14,-0.21,-0.6,0.07
3491,7223447,63.4409998,10.3492196,16.47,9.617,264.12,-0.21,-0.6,0.07
3504,7223487,63.4409998,10.3492191,16.46,9.606,264.09,-0.21,-0.59,0.07
3508,7223507,63.4409997,10.3492189,16.46,9.601,264.07,-0.21,-0.59,0.08
3522,7223547,63.4409997,10.3492184,16.45,9.592,264.04,-0.21,-0.59,0.08
3537,7223587,63.4409996,10.3492179,16.44,9.584,264.01,-0.21,-0.59,0.09
3541,7223607,63.4409996,10.3492177,16.44,9.58,264.0,-0.2,-0.59,0.1
3555,7223647,63.4409996,10.3492172,16.43,9.575,263.98,-0.2,-0.59,0.11
3569,7223687,63.4409995,10.3492168,16.43,9.571,263.98,-0.2,-0.59,0.12
3572,7223707,63.4409995,10.3492165,16.42,9.569,263.98,-0.2,-0.59,0.12
3586,7223747,63.4409994,10.3492161,16.42,9.568,263.98,-0.2,-0.6,0.13
3599,7223787,63.4409994,10.3492156,16.43,9.571,263.96,-0.21,-0.61,0.12
3603,7223807,63.4409994,10.3492154,16.43,9.572,263.94,-0.21,-0.61,0.12
3616,7223847,63.4409993,10.3492149,16.43,9.577,263.87,-0.22,-0.62,0.1
3630,7223887,63.4409992,10.3492144,16.44,9.585,263.79,-0.23,-0.62,0.07
3635,7223907,63.4409992,10.3492142,16.44,9.589,263.74,-0.23,-0.62,0.05
3649,7223947,63.4409991,10.3492137,16.46,9.601,263.64,-0.24,-0.63,0.01
3662,7223987,63.4409991,10.3492132,16.47,9.615,263.55,-0.25,-0.63,-0.02
3666,7224007,63.440999,10.349213,16.48,9.622,263.5,-0.26,-0.63,-0.04
3679,7224047,63.440999,10.3492125,16.49,9.637,263.44,-0.26,-0.63,-0.09
3683,7224067,63.4409989,10.3492122,16.5,9.645,263.41,-0.27,-0.63,-0.11
3697,7224107,63.4409989,10.3492118,16.52,9.661,263.38,-0.27,-0.64,-0.15
3710,7224147,63.4409988,10.3492113,16.53,9.675,263.38,-0.27,-0.64,-0.18
3714,7224167,63.4409987,10.349211,16.54,9.682,263.38,-0.27,-0.64,-0.2
3728,7224207,63.4409987,10.3492105,16.55,9.695,263.41,-0.27,-0.65,-0.22
3742,7224247,63.4409986,10.34921,16.56,9.706,263.46,-0.26,-0.66,-0.22
3746,7224267,63.4409985,10.3492097,16.57,9.71,263.5,-0.26,-0.66,-0.22
3760,7224307,63.4409985,10.3492092,16.57,9.717,263.56,-0.25,-0.67,-0.21
3774,7224347,63.4409984,10.3492087,16.57,9.719,263.63,-0.24,-0.69,-0.19
3777,7224367,63.4409984,10.3492084,16.57,9.719,263.66,-0.23,-0.69,-0.18
3793,7224407,63.4409983,10.3492079,16.57,9.719,263.69,-0.22,-0.71,-0.16
3807,7224447,63.4409982,10.3492073,16.57,9.717,263.7,-0.22,-0.72,-0.14
3810,7224467,63.4409982,10.3492071,16.57,9.716,263.7,-0.22,-0.73,-0.13
3824,7224507,63.4409981,10.3492065,16.57,9.713,263.65,-0.21,-0.74,-0.11
3837,7224547,63.4409981,10.3492059,16.57,9.71,263.56,-0.21,-0.75,-0.11
3842,7224567,63.440998,10.3492056,16.56,9.709,263.51,-0.21,-0.76,-0.11
3857,7224607,63.440998,10.349205,16.56,9.708,263.38,-0.22,-0.76,-0.12
3870,7224647,63.4409979,10.3492044,16.56,9.709,263.23,-0.22,-0.77,-0.15
3874,7224667,63.4409979,10.3492041,16.57,9.711,263.16,-0.22,-0.77,-0.16
3888,7224707,63.4409978,10.3492035,16.57,9.715,263.01,-0.22,-0.77,-0.2
3892,7224727,63.4409978,10.3492032,16.57,9.717,262.94,-0.21,-0.77,-0.21
3905,7224767,63.4409977,10.3492026,16.58,9.721,262.81,-0.22,-0.76,-0.25
3919,7224807,63.4409976,10.349202,16.58,9.727,262.67,-0.22,-0.76,-0.29
3923,7224827,63.4409976,10.3492017,16.59,9.731,262.62,-0.22,-0.76,-0.3
3936,7224867,63.4409975,10.3492011,16.59,9.733,262.5,-0.22,-0.76,-0.32
3951,7224907,63.4409975,10.3492005,16.59,9.736,262.4,-0.22,-0.75,-0.33
3955,7224927,63.4409974,10.3492003,16.59,9.738,262.35,-0.22,-0.75,-0.33
3968,7224967,63.4409974,10.3491997,16.59,9.733,262.25,-0.22,-0.75,-0.32
3982,7225007,63.4409973,10.3491991,16.58,9.729,262.17,-0.22,-0.75,-0.29
3986,7225027,63.4409972,10.3491988,16.58,9.728,262.13,-0.22,-0.75,-0.28
3999,7225067,63.4409972,10.3491982,16.57,9.718,262.05,-0.22,-0.75,-0.24
4013,7225107,63.4409971,10.3491976,16.56,9.709,261.97,-0.22,-0.75,-0.2
4017,7225127,63.4409971,10.3491973,16.56,9.704,261.93,-0.22,-0.75,-0.18
4030,7225167,63.440997,10.3491967,16.55,9.694,261.84,-0.21,-0.75,-0.14
4044,7225207,63.4409969,10.3491961,16.54,9.684,261.73,-0.21,-0.76,-0.1
4058,7225227,63.4409969,10.3491958,16.53,9.679,261.67,-0.21,-0.76,-0.08
4062,7225267,63.4409968,10.3491952,16.53,9.677,261.55,-0.2,-0.76,-0.05
4076,7225307,63.4409968,10.3491946,16.53,9.673,261.4,-0.2,-0.75,-0.02
4080,7225327,63.4409967,10.3491943,16.53,9.671,261.32,-0.2,-0.75,0.0
4093,7225367,63.4409967,10.3491937,16.53,9.677,261.16,-0.2,-0.75,0.0
4108,7225387,63.4409966,10.3491934,16.53,9.679,261.07,-0.2,-0.75,0.01
4113,7225427,63.4409966,10.3491928,16.54,9.683,260.89,-0.2,-0.74,0.02
4126,7225467,63.4409965,10.3491922,16.55,9.696,260.7,-0.2,-0.73,0.02
4139,7225487,63.4409965,10.3491919,16.56,9.702,260.61,-0.2,-0.73,0.02
4144,7225527,63.4409964,10.3491913,16.57,9.712,260.4,-0.21,-0.73,0.01
4158,7225567,63.4409964,10.3491908,16.58,9.726,260.19,-0.21,-0.72,0.01
4172,7225587,63.4409963,10.3491905,16.59,9.732,260.08,-0.21,-0.71,0.01
4177,7225627,63.4409963,10.3491899,16.6,9.743,259.87,-0.21,-0.71,0.0
4190,7225667,63.4409962,10.3491894,16.61,9.754,259.67,-0.22,-0.69,0.0
4199,7225687,63.4409961,10.3491891,16.61,9.759,259.58,-0.22,-0.69,0.0
4208,7225727,63.4409961,10.3491886,16.62,9.768,259.41,-0.22,-0.68,-0.01
4221,7225767,63.440996,10.349188,16.63,9.775,259.27,-0.22,-0.67,-0.01
4230,7225787,63.440996,10.3491878,16.63,9.777,259.21,-0.22,-0.67,-0.01
4239,7225827,63.4409959,10.3491872,16.64,9.783,259.11,-0.22,-0.66,0.0
4252,7225867,63.4409958,10.3491867,16.64,9.785,259.06,-0.22,-0.66,0.01
4266,7225887,63.4409958,10.3491865,16.64,9.786,259.03,-0.22,-0.66,0.01
4271,7225927,63.4409957,10.3491859,16.64,9.786,259.01,-0.22,-0.67,0.03
4284,7225967,63.4409957,10.3491854,16.64,9.787,259.0,-0.22,-0.67,0.04
4297,7225987,63.4409957,10.3491852,16.64,9.787,258.99,-0.22,-0.67,0.04
4302,7226027,63.4409956,10.3491846,16.64,9.786,258.98,-0.23,-0.67,0.05
4314,7226047,63.4409955,10.3491844,16.64,9.788,258.98,-0.23,-0.68,0.05
4324,7226087,63.4409955,10.3491838,16.65,9.79,258.95,-0.24,-0.68,0.04
4333,7226127,63.4409954,10.3491833,16.65,9.793,258.92,-0.24,-0.69,0.03
4346,7226147,63.4409954,10.349183,16.65,9.797,258.9,-0.25,-0.69,0.03
4360,7226187,63.4409953,10.3491825,16.66,9.804,258.86,-0.25,-0.69,0.02
4374,7226227,63.4409952,10.349182,16.67,9.811,258.81,-0.26,-0.7,0.01
4378,7226247,63.4409952,10.3491817,16.67,9.817,258.78,-0.26,-0.7,0.0
4391,7226287,63.4409951,10.3491811,16.68,9.828,258.74,-0.27,-0.7,0.0
4396,7226327,63.440995,10.3491806,16.69,9.838,258.71,-0.27,-0.69,-0.02
4408,7226347,63.440995,10.3491803,16.7,9.844,258.71,-0.27,-0.69,-0.03
4424,7226387,63.4409949,10.3491798,16.71,9.856,258.71,-0.28,-0.69,-0.05
4429,7226427,63.4409948,10.3491793,16.72,9.866,258.74,-0.28,-0.69,-0.06
4442,7226447,63.4409947,10.349179,16.73,9.871,258.77,-0.28,-0.69,-0.07
4451,7226487,63.4409947,10.3491785,16.74,9.881,258.84,-0.28,-0.69,-0.07
4460,7226527,63.4409946,10.349178,16.75,9.89,258.93,-0.28,-0.68,-0.07
4474,7226547,63.4409945,10.3491777,16.75,9.893,258.99,-0.28,-0.69,-0.07
4488,7226587,63.4409944,10.3491772,16.76,9.9,259.1,-0.28,-0.69,-0.07
4493,7226627,63.4409943,10.3491767,16.76,9.906,259.2,-0.29,-0.69,-0.06
4505,7226647,63.4409943,10.3491764,16.76,9.909,259.26,-0.29,-0.69,-0.05
4519,7226687,63.4409942,10.3491759,16.77,9.915,259.36,-0.29,-0.69,-0.04
4523,7226707,63.4409941,10.3491756,16.77,9.917,259.41,-0.29,-0.69,-0.03
4537,7226747,63.440994,10.3491751,16.78,9.923,259.53,-0.28,-0.69,-0.02
4551,7226787,63.4409939,10.3491746,16.79,9.93,259.66,-0.28,-0.69,-0.01
4554,7226807,63.4409939,10.3491743,16.79,9.933,259.72,-0.28,-0.68,-0.01
4568,7226847,63.4409938,10.3491738,16.8,9.941,259.86,-0.28,-0.68,-0.01
4581,7226887,63.4409937,10.3491733,16.81,9.951,260.01,-0.27,-0.68,-0.01
4586,7226907,63.4409937,10.349173,16.81,9.956,260.08,-0.27,-0.68,-0.01
4599,7226947,63.4409936,10.3491725,16.82,9.967,260.23,-0.27,-0.68,-0.02
4610,7226987,63.4409935,10.349172,16.84,9.98,260.38,-0.27,-0.68,-0.03
4617,7227007,63.4409934,10.3491717,16.84,9.985,260.45,-0.26,-0.68,-0.03
4631,7227047,63.4409934,10.3491712,16.85,9.997,260.59,-0.26,-0.68,-0.03
4645,7227087,63.4409933,10.3491707,16.86,10.009,260.72,-0.25,-0.67,-0.03
4648,7227107,63.4409932,10.3491704,16.87,10.014,260.78,-0.25,-0.67,-0.03
4662,7227147,63.4409931,10.3491699,16.88,10.022,260.89,-0.24,-0.68,-0.03
4673,7227187,63.4409931,10.3491694,16.88,10.028,260.96,-0.24,-0.68,-0.03
4679,7227207,63.440993,10.3491692,16.89,10.031,260.99,-0.24,-0.68,-0.02
4693,7227247,63.4409929,10.3491686,16.89,10.034,261.02,-0.24,-0.68,-0.02
4705,7227287,63.4409929,10.3491681,16.89,10.035,261.01,-0.24,-0.68,-0.02
4711,7227307,63.4409928,10.3491679,16.89,10.035,261.0,-0.24,-0.68,-0.02
4724,7227347,63.4409927,10.3491674,16.89,10.034,260.97,-0.25,-0.68,-0.03
4730,7227367,63.4409927,10.3491671,16.89,10.033,260.95,-0.25,-0.68,-0.03
4744,7227407,63.4409926,10.3491666,16.89,10.032,260.91,-0.25,-0.67,-0.03
4757,7227447,63.4409925,10.3491661,16.89,10.03,260.89,-0.25,-0.66,-0.04
4761,7227467,63.4409925,10.3491658,16.89,10.03,260.88,-0.25,-0.66,-0.05
4775,7227507,63.4409924,10.3491653,16.88,10.029,260.88,-0.24,-0.66,-0.05
4788,7227547,63.4409923,10.3491648,16.89,10.03,260.9,-0.24,-0.65,-0.06
4793,7227567,63.4409923,10.3491646,16.89,10.031,260.91,-0.23,-0.65,-0.07
4808,7227607,63.4409922,10.3491641,16.89,10.032,260.94,-0.22,-0.64,-0.08
4821,7227647,63.4409921,10.3491636,16.89,10.034,260.96,-0.21,-0.64,-0.08
4825,7227667,63.4409921,10.3491633,16.89,10.035,260.97,-0.21,-0.64,-0.08
4839,7227707,63.440992,10.3491628,16.89,10.037,260.96,-0.2,-0.65,-0.07
4852,7227747,63.4409919,10.3491623,16.89,10.038,260.92,-0.2,-0.65,-0.06
4856,7227767,63.4409919,10.3491621,16.89,10.037,260.89,-0.19,-0.66,-0.05
4870,7227807,63.4409918,10.3491616,16.89,10.036,260.82,-0.18,-0.66,-0.03
4883,7227847,63.4409918,10.349161,16.89,10.034,260.73,-0.18,-0.67,-0.01
4887,7227867,63.4409917,10.3491608,16.89,10.032,260.69,-0.18,-0.67,0.0
4902,7227907,63.4409917,10.3491603,16.88,10.027,260.61,-0.17,-0.68,0.01
4916,7227947,63.4409916,10.3491597,16.88,10.022,260.54,-0.17,-0.68,0.03
4919,7227967,63.4409916,10.3491595,16.87,10.019,260.5,-0.17,-0.68,0.03
4933,7228007,63.4409915,10.3491589,16.87,10.015,260.43,-0.18,-0.68,0.01
4937,7228027,63.4409915,10.3491587,16.87,10.013,260.39,-0.18,-0.69,0.0
4950,7228067,63.4409914,10.3491581,16.87,10.014,260.32,-0.18,-0.69,-0.02
4964,7228107,63.4409913,10.3491576,16.87,10.017,260.25,-0.19,-0.69,-0.06
4968,7228127,63.4409913,10.3491573,16.87,10.019,260.21,-0.19,-0.69,-0.08
4981,7228167,63.4409912,10.3491568,16.88,10.029,260.14,-0.2,-0.69,-0.12
4995,7228207,63.4409912,10.3491563,16.9,10.04,260.06,-0.2,-0.69,-0.16
5000,7228227,63.4409911,10.349156,16.9,10.046,260.03,-0.2,-0.69,-0.17
5013,7228267,63.4409911,10.3491554,16.92,10.062,259.95,-0.21,-0.69,-0.2
5027,7228307,63.440991,10.3491549,16.93,10.077,259.87,-0.21,-0.69,-0.21
5031,7228327,63.4409909,10.3491546,16.94,10.084,259.84,-0.21,-0.69,-0.21
5044,7228367,63.4409909,10.3491541,16.95,10.099,259.78,-0.21,-0.68,-0.21
5060,7228407,63.4409908,10.3491536,16.97,10.112,259.72,-0.21,-0.68,-0.2
5064,7228427,63.4409908,10.3491533,16.97,10.119,259.7,-0.21,-0.68,-0.19
5077,7228467,63.4409907,10.3491528,16.99,10.132,259.67,-0.21,-0.68,-0.17
5091,7228507,63.4409906,10.3491522,17.0,10.143,259.65,-0.2,-0.68,-0.13
5095,7228527,63.4409906,10.349152,17.0,10.147,259.63,-0.2,-0.68,-0.11
5109,7228567,63.4409905,10.3491514,17.01,10.159,259.61,-0.19,-0.69,-0.08
5124,7228607,63.4409904,10.3491509,17.02,10.169,259.58,-0.19,-0.7,-0.04
5128,7228627,63.4409904,10.3491506,17.03,10.173,259.56,-0.19,-0.7,-0.03
5142,7228667,63.4409903,10.3491501,17.04,10.189,259.51,-0.19,-0.71,-0.01
5156,7228687,63.4409903,10.3491498,17.05,10.196,259.47,-0.19,-0.72,0.0
5159,7228727,63.4409902,10.3491492,17.06,10.207,259.38,-0.2,-0.72,0.0
5173,7228767,63.4409901,10.3491486,17.08,10.227,259.27,-0.21,-0.73,-0.02
5185,7228787,63.4409901,10.3491483,17.09,10.236,259.21,-0.21,-0.73,-0.03
5190,7228827,63.44099,10.3491477,17.11,10.254,259.09,-0.22,-0.74,-0.06
5214,7228867,63.4409899,10.3491472,17.13,10.277,258.98,-0.23,-0.73,-0.09
5218,7228887,63.4409899,10.3491469,17.14,10.288,258.92,-0.24,-0.73,-0.1
5222,7228927,63.4409898,10.3491463,17.16,10.309,258.83,-0.25,-0.73,-0.13
5236,7228967,63.4409897,10.3491457,17.18,10.329,258.76,-0.25,-0.73,-0.16
5248,7228987,63.4409896,10.3491454,17.19,10.338,258.73,-0.26,-0.73,-0.17
5253,7229027,63.4409896,10.3491449,17.21,10.356,258.69,-0.26,-0.73,-0.18
5266,7229067,63.4409895,10.3491443,17.22,10.368,258.67,-0.26,-0.72,-0.19
5275,7229087,63.4409894,10.349144,17.23,10.373,258.67,-0.26,-0.72,-0.19
5284,7229127,63.4409893,10.3491434,17.24,10.383,258.69,-0.26,-0.72,-0.18
5297,7229167,63.4409892,10.3491428,17.24,10.383,258.72,-0.26,-0.72,-0.17
5310,7229187,63.4409892,10.3491426,17.24,10.383,258.75,-0.25,-0.72,-0.17
5316,7229227,63.4409891,10.349142,17.24,10.384,258.8,-0.25,-0.72,-0.16
5329,7229267,63.440989,10.3491414,17.23,10.379,258.87,-0.25,-0.72,-0.15
5342,7229287,63.4409889,10.3491412,17.23,10.376,258.91,-0.24,-0.72,-0.14
5347,7229327,63.4409889,10.3491406,17.23,10.371,258.99,-0.24,-0.72,-0.13
5359,7229347,63.4409888,10.3491403,17.22,10.367,259.03,-0.24,-0.72,-0.13
5375,7229387,63.4409887,10.3491397,17.22,10.36,259.1,-0.24,-0.72,-0.12
5380,7229427,63.4409886,10.3491392,17.21,10.354,259.17,-0.24,-0.72,-0.12
5393,7229447,63.4409886,10.3491389,17.21,10.352,259.2,-0.24,-0.73,-0.12
5406,7229487,63.4409885,10.3491383,17.2,10.347,259.27,-0.24,-0.73,-0.13
5411,7229527,63.4409884,10.3491378,17.2,10.344,259.34,-0.23,-0.72,-0.14
5425,7229547,63.4409884,10.3491375,17.2,10.344,259.38,-0.23,-0.72,-0.15
5439,7229587,63.4409883,10.3491369,17.2,10.344,259.46,-0.23,-0.72,-0.17
5444,7229627,63.4409882,10.3491364,17.2,10.346,259.53,-0.24,-0.73,-0.19
5456,7229647,63.4409881,10.3491361,17.2,10.349,259.57,-0.24,-0.73,-0.2
5470,7229687,63.440988,10.3491355,17.21,10.355,259.62,-0.24,-0.73,-0.22
5475,7229727,63.440988,10.3491349,17.22,10.361,259.66,-0.25,-0.73,-0.23
5487,7229747,63.4409879,10.3491346,17.22,10.365,259.67,-0.25,-0.73,-0.24
5501,7229787,63.4409878,10.3491341,17.23,10.373,259.68,-0.25,-0.73,-0.24
5506,7229827,63.4409877,10.3491335,17.24,10.382,259.68,-0.26,-0.73,-0.24
5519,7229847,63.4409877,10.3491332,17.24,10.387,259.68,-0.26,-0.73,-0.23
5533,7229887,63.4409876,10.3491326,17.25,10.396,259.7,-0.26,-0.73,-0.22
5538,7229927,63.4409875,10.3491321,17.26,10.403,259.74,-0.25,-0.72,-0.2
5551,7229947,63.4409874,10.3491318,17.26,10.408,259.78,-0.25,-0.72,-0.19
5564,7229987,63.4409873,10.3491312,17.27,10.416,259.85,-0.24,-0.72,-0.16
5568,7230007,63.4409873,10.3491309,17.28,10.42,259.89,-0.24,-0.72,-0.15
5581,7230047,63.4409872,10.3491304,17.28,10.428,259.99,-0.23,-0.72,-0.12
5595,7230087,63.4409871,10.3491298,17.29,10.438,260.09,-0.22,-0.73,-0.1
5599,7230107,63.440987,10.3491295,17.3,10.441,260.15,-0.22,-0.73,-0.09
5612,7230147,63.440987,10.3491289,17.31,10.451,260.24,-0.22,-0.73,-0.07
5626,7230187,63.4409869,10.3491284,17.32,10.462,260.3,-0.21,-0.74,-0.06
5631,7230207,63.4409868,10.3491281,17.32,10.467,260.33,-0.21,-0.74,-0.05
5645,7230247,63.4409867,10.3491275,17.34,10.48,260.35,-0.21,-0.75,-0.04
5656,7230287,63.4409866,10.3491269,17.35,10.494,260.35,-0.21,-0.75,-0.03
5662,7230307,63.4409866,10.3491266,17.36,10.5,260.34,-0.21,-0.75,-0.03
5676,7230347,63.4409865,10.349126,17.37,10.513,260.3,-0.21,-0.76,-0.03
5691,7230387,63.4409864,10.3491254,17.38,10.527,260.26,-0.22,-0.75,-0.04
5695,7230407,63.4409864,10.3491251,17.39,10.533,260.23,-0.22,-0.75,-0.05
5709,7230447,63.4409863,10.3491245,17.4,10.545,260.18,-0.22,-0.75,-0.06
5719,7230487,63.4409862,10.349124,17.41,10.557,260.15,-0.22,-0.74,-0.07
5726,7230507,63.4409862,10.3491237,17.42,10.563,260.13,-0.22,-0.74,-0.08
5740,7230547,63.4409861,10.3491231,17.43,10.573,260.13,-0.22,-0.73,-0.09
5755,7230587,63.440986,10.3491225,17.44,10.581,260.14,-0.22,-0.72,-0.1
5758,7230607,63.440986,10.3491222,17.44,10.585,260.14,-0.22,-0.72,-0.1
5772,7230647,63.4409859,10.3491217,17.45,10.592,260.16,-0.22,-0.71,-0.1
5775,7230667,63.4409858,10.3491214,17.45,10.594,260.17,-0.22,-0.71,-0.09
5789,7230707,63.4409858,10.3491208,17.45,10.598,260.18,-0.22,-0.7,-0.09
5802,7230747,63.4409857,10.3491203,17.46,10.6,260.17,-0.22,-0.7,-0.07
5806,7230767,63.4409856,10.34912,17.46,10.601,260.16,-0.22,-0.7,-0.06
5820,7230807,63.4409856,10.3491195,17.46,10.602,260.13,-0.22,-0.7,-0.03
5834,7230847,63.4409855,10.3491189,17.46,10.602,260.09,-0.21,-0.69,-0.01
5837,7230867,63.4409854,10.3491187,17.46,10.602,260.06,-0.21,-0.69,0.0
5852,7230907,63.4409854,10.3491181,17.46,10.6,260.0,-0.2,-0.69,0.03
5865,7230947,63.4409853,10.3491176,17.45,10.599,259.93,-0.2,-0.69,0.06
5869,7230967,63.4409852,10.3491173,17.45,10.599,259.89,-0.19,-0.69,0.08
5883,7231007,63.4409852,10.3491168,17.45,10.597,259.79,-0.19,-0.69,0.1
5896,7231047,63.4409851,10.3491163,17.45,10.597,259.68,-0.19,-0.68,0.11
5900,7231067,63.4409851,10.349116,17.45,10.598,259.62,-0.19,-0.68,0.11
5914,7231107,63.440985,10.3491155,17.45,10.599,259.5,-0.19,-0.67,0.11
5927,7231147,63.4409849,10.3491149,17.46,10.602,259.37,-0.19,-0.66,0.1
5931,7231167,63.4409849,10.3491147,17.46,10.605,259.31,-0.19,-0.66,0.1
5945,7231207,63.4409848,10.3491142,17.46,10.609,259.18,-0.19,-0.66,0.08
5960,7231247,63.4409848,10.3491137,17.47,10.614,259.06,-0.19,-0.65,0.07
5963,7231267,63.4409847,10.3491134,17.47,10.616,259.0,-0.19,-0.65,0.06
5977,7231307,63.4409846,10.3491129,17.48,10.62,258.89,-0.2,-0.65,0.04
5981,7231327,63.4409846,10.3491126,17.48,10.623,258.85,-0.2,-0.65,0.04
5994,7231367,63.4409845,10.3491121,17.48,10.622,258.77,-0.21,-0.64,0.02
6010,7231407,63.4409845,10.3491116,17.48,10.622,258.72,-0.21,-0.65,0.02
6014,7231427,63.4409844,10.3491114,17.48,10.621,258.7,-0.21,-0.65,0.02
6027,7231467,63.4409843,10.3491109,17.47,10.613,258.69,-0.22,-0.65,0.01
6041,7231507,63.4409843,10.3491104,17.46,10.605,258.69,-0.22,-0.65,0.01
6045,7231527,63.4409842,10.3491101,17.46,10.602,258.69,-0.23,-0.65,0.01
6059,7231567,63.4409841,10.3491096,17.44,10.587,258.7,-0.23,-0.65,0.01
6074,7231607,63.4409841,10.3491091,17.43,10.574,258.72,-0.23,-0.65,0.0
6078,7231627,63.440984,10.3491089,17.42,10.569,258.73,-0.23,-0.65,0.0
6091,7231667,63.4409839,10.3491084,17.41,10.552,258.76,-0.24,-0.65,0.0
6105,7231707,63.4409839,10.3491079,17.39,10.538,258.79,-0.23,-0.65,-0.02
6109,7231727,63.4409838,10.3491076,17.39,10.532,258.81,-0.23,-0.65,-0.03
6122,7231767,63.4409837,10.3491071,17.37,10.518,258.84,-0.24,-0.65,-0.06
6136,7231807,63.4409837,10.3491066,17.36,10.507,258.86,-0.24,-0.65,-0.09
6140,7231827,63.4409836,10.3491064,17.36,10.503,258.87,-0.24,-0.65,-0.1
6153,7231867,63.4409835,10.3491059,17.35,10.493,258.89,-0.24,-0.64,-0.13
6168,7231907,63.4409834,10.3491054,17.34,10.486,258.9,-0.24,-0.64,-0.15
6172,7231927,63.4409834,10.3491052,17.34,10.484,258.91,-0.24,-0.64,-0.16
6185,7231967,63.4409833,10.3491047,17.33,10.476,258.91,-0.24,-0.64,-0.18
6198,7231987,63.4409833,10.3491044,17.33,10.473,258.91,-0.24,-0.64,-0.18
6203,7232027,63.4409832,10.3491039,17.32,10.468,258.91,-0.24,-0.64,-0.19
6216,7232067,63.4409831,10.3491034,17.31,10.459,258.91,-0.25,-0.65,-0.19
6229,7232087,63.4409831,10.3491032,17.31,10.455,258.91,-0.25,-0.65,-0.18
6234,7232127,63.440983,10.3491027,17.3,10.447,258.91,-0.25,-0.65,-0.17
6247,7232167,63.4409829,10.3491022,17.29,10.436,258.93,-0.25,-0.66,-0.16
6260,7232187,63.4409828,10.3491019,17.29,10.431,258.94,-0.25,-0.66,-0.15
6266,7232227,63.4409828,10.3491014,17.28,10.422,258.97,-0.25,-0.67,-0.14
6279,7232267,63.4409827,10.3491009,17.27,10.412,259.01,-0.25,-0.68,-0.12
6290,7232287,63.4409826,10.3491006,17.26,10.407,259.03,-0.25,-0.68,-0.11
6297,7232327,63.4409825,10.3491001,17.25,10.397,259.08,-0.25,-0.69,-0.09
6310,7232367,63.4409824,10.3490995,17.24,10.388,259.12,-0.24,-0.7,-0.07
6325,7232387,63.4409824,10.3490993,17.24,10.384,259.14,-0.24,-0.7,-0.06
6330,7232427,63.4409823,10.3490987,17.23,10.377,259.16,-0.24,-0.71,-0.06
6343,7232467,63.4409822,10.3490981,17.23,10.372,259.17,-0.23,-0.72,-0.06
6354,7232487,63.4409822,10.3490979,17.23,10.37,259.16,-0.23,-0.72,-0.06
6361,7232527,63.4409821,10.3490973,17.22,10.367,259.13,-0.23,-0.72,-0.07
6375,7232567,63.440982,10.3490967,17.22,10.365,259.08,-0.22,-0.73,-0.08
6389,7232587,63.440982,10.3490964,17.22,10.365,259.05,-0.22,-0.73,-0.09
6394,7232627,63.4409819,10.3490958,17.22,10.365,258.98,-0.22,-0.73,-0.12
6406,7232647,63.4409818,10.3490955,17.22,10.364,258.94,-0.22,-0.73,-0.13
6420,7232687,63.4409818,10.3490949,17.22,10.363,258.87,-0.22,-0.73,-0.16
6425,7232727,63.4409817,10.3490944,17.22,10.364,258.79,-0.21,-0.74,-0.18
6437,7232747,63.4409816,10.3490941,17.22,10.36,258.75,-0.21,-0.74,-0.19
6447,7232787,63.4409816,10.3490935,17.21,10.355,258.68,-0.21,-0.74,-0.21
6456,7232827,63.4409815,10.3490929,17.21,10.352,258.6,-0.2,-0.74,-0.22
6468,7232847,63.4409814,10.3490926,17.2,10.344,258.57,-0.2,-0.74,-0.22
6483,7232887,63.4409814,10.349092,17.19,10.332,258.5,-0.2,-0.74,-0.23
6488,7232927,63.4409813,10.3490914,17.18,10.322,258.43,-0.2,-0.74,-0.23
6500,7232947,63.4409813,10.3490911,17.17,10.312,258.41,-0.2,-0.74,-0.23
6512,7232987,63.4409812,10.3490905,17.15,10.295,258.35,-0.19,-0.74,-0.21
6519,7233027,63.4409811,10.3490899,17.14,10.28,258.3,-0.19,-0.75,-0.19
6531,7233047,63.4409811,10.3490896,17.13,10.27,258.27,-0.19,-0.75,-0.18
6545,7233087,63.440981,10.349089,17.11,10.253,258.21,-0.2,-0.75,-0.15
6550,7233127,63.4409809,10.3490884,17.09,10.236,258.12,-0.2,-0.76,-0.12
6562,7233147,63.4409809,10.3490881,17.08,10.227,258.07,-0.2,-0.77,-0.11
6573,7233187,63.4409808,10.3490875,17.07,10.211,257.93,-0.2,-0.77,-0.08
6582,7233227,63.4409807,10.3490869,17.05,10.197,257.76,-0.2,-0.78,-0.05
6594,7233247,63.4409807,10.3490866,17.05,10.192,257.67,-0.21,-0.78,-0.04
6608,7233287,63.4409806,10.3490859,17.04,10.183,257.48,-0.21,-0.78,-0.02
6612,7233307,63.4409806,10.3490856,17.03,10.179,257.38,-0.21,-0.78,-0.01
6625,7233347,63.4409805,10.349085,17.03,10.174,257.17,-0.21,-0.77,0.0
6641,7233387,63.4409804,10.3490844,17.03,10.173,256.98,-0.21,-0.77,0.0
6645,7233407,63.4409804,10.3490841,17.03,10.172,256.9,-0.21,-0.77,0.0
6658,7233447,63.4409803,10.3490835,17.03,10.175,256.72,-0.21,-0.76,0.01
6672,7233487,63.4409802,10.3490829,17.04,10.182,256.57,-0.21,-0.76,0.0
6676,7233507,63.4409802,10.3490826,17.04,10.185,256.5,-0.21,-0.76,0.0
6691,7233547,63.4409801,10.3490819,17.05,10.194,256.37,-0.21,-0.75,0.0
6705,7233587,63.44098,10.3490813,17.06,10.204,256.24,-0.21,-0.75,0.0
6709,7233607,63.44098,10.349081,17.06,10.209,256.18,-0.21,-0.75,0.0
6722,7233647,63.4409799,10.3490804,17.08,10.22,256.05,-0.21,-0.74,-0.01
6736,7233687,63.4409798,10.3490798,17.09,10.23,255.94,-0.21,-0.74,-0.01
6740,7233707,63.4409798,10.3490795,17.09,10.235,255.88,-0.21,-0.74,-0.01
6753,7233747,63.4409797,10.3490789,17.1,10.243,255.77,-0.22,-0.74,-0.01
6767,7233787,63.4409796,10.3490783,17.11,10.25,255.67,-0.22,-0.74,0.0
6771,7233807,63.4409796,10.349078,17.11,10.253,255.63,-0.23,-0.73,0.0
6784,7233847,63.4409795,10.3490775,17.11,10.257,255.55,-0.23,-0.73,0.0
6799,7233887,63.4409794,10.3490769,17.11,10.259,255.49,-0.24,-0.72,0.0
6803,7233907,63.4409794,10.3490766,17.12,10.26,255.47,-0.24,-0.72,0.01
6816,7233947,63.4409793,10.349076,17.12,10.26,255.44,-0.25,-0.71,0.01
6820,7233967,63.4409792,10.3490758,17.12,10.26,255.43,-0.26,-0.71,0.02
6834,7234007,63.4409791,10.3490752,17.11,10.258,255.42,-0.26,-0.7,0.03
6847,7234047,63.4409791,10.3490747,17.11,10.256,255.42,-0.27,-0.69,0.04
6851,7234067,63.440979,10.3490744,17.11,10.255,255.43,-0.27,-0.69,0.04
6865,7234107,63.4409789,10.3490738,17.11,10.253,255.46,-0.28,-0.69,0.05
6878,7234147,63.4409788,10.3490733,17.11,10.251,255.51,-0.28,-0.68,0.05
6882,7234167,63.4409788,10.349073,17.11,10.251,255.55,-0.29,-0.68,0.06
6896,7234207,63.4409787,10.3490725,17.1,10.249,255.63,-0.29,-0.68,0.06
6910,7234247,63.4409786,10.349072,17.1,10.248,255.73,-0.29,-0.67,0.07
6914,7234267,63.4409785,10.3490717,17.1,10.248,255.78,-0.29,-0.67,0.08
6928,7234307,63.4409784,10.3490712,17.1,10.247,255.89,-0.29,-0.67,0.08
6941,7234347,63.4409783,10.3490707,17.1,10.248,255.99,-0.29,-0.67,0.09
6946,7234367,63.4409783,10.3490704,17.1,10.248,256.03,-0.29,-0.67,0.09
6961,7234407,63.4409782,10.3490699,17.1,10.248,256.11,-0.3,-0.67,0.1
6974,7234447,63.4409781,10.3490694,17.1,10.248,256.17,-0.3,-0.67,0.1
6978,7234467,63.440978,10.3490691,17.1,10.248,256.2,-0.3,-0.67,0.11
6992,7234507,63.4409779,10.3490686,17.1,10.248,256.26,-0.3,-0.66,0.11
7005,7234547,63.4409778,10.3490681,17.1,10.247,256.32,-0.3,-0.66,0.12
7010,7234567,63.4409778,10.3490679,17.1,10.247,256.36,-0.3,-0.66,0.12
7025,7234607,63.4409777,10.3490674,17.1,10.246,256.46,-0.3,-0.66,0.12
7029,7234627,63.4409776,10.3490671,17.1,10.245,256.51,-0.3,-0.66,0.12
7042,7234667,63.4409775,10.3490666,17.1,10.243,256.64,-0.29,-0.65,0.11
7056,7234707,63.4409774,10.3490661,17.1,10.241,256.79,-0.29,-0.65,0.1
7060,7234727,63.4409774,10.3490659,17.1,10.241,256.87,-0.28,-0.65,0.1
7073,7234767,63.4409773,10.3490654,17.09,10.238,257.03,-0.28,-0.65,0.09
7087,7234807,63.4409772,10.3490648,17.09,10.235,257.2,-0.28,-0.65,0.07
7091,7234827,63.4409772,10.3490646,17.09,10.234,257.28,-0.27,-0.66,0.07
7104,7234867,63.4409771,10.3490641,17.08,10.229,257.43,-0.27,-0.66,0.06
7119,7234907,63.440977,10.3490636,17.08,10.225,257.57,-0.27,-0.66,0.05
7123,7234927,63.4409769,10.3490633,17.08,10.223,257.63,-0.27,-0.67,0.04
7136,7234967,63.4409768,10.3490628,17.07,10.217,257.73,-0.27,-0.67,0.03
7150,7235007,63.4409767,10.3490623,17.07,10.212,257.82,-0.27,-0.67,0.02
7154,7235027,63.4409767,10.349062,17.07,10.21,257.86,-0.27,-0.67,0.01
7167,7235067,63.4409766,10.3490615,17.06,10.204,257.93,-0.27,-0.68,0.0
7181,7235107,63.4409765,10.3490609,17.05,10.199,258.0,-0.27,-0.68,0.0
7185,7235127,63.4409764,10.3490607,17.05,10.197,258.03,-0.27,-0.68,0.0
7198,7235167,63.4409763,10.3490602,17.05,10.191,258.11,-0.26,-0.68,0.0
7212,7235207,63.4409763,10.3490596,17.04,10.186,258.18,-0.26,-0.68,0.0
7217,7235227,63.4409762,10.3490594,17.04,10.184,258.22,-0.25,-0.68,0.0
7230,7235267,63.4409761,10.3490588,17.03,10.179,258.28,-0.25,-0.68,-0.01
7243,7235287,63.4409761,10.3490586,17.03,10.177,258.31,-0.24,-0.68,0.0
7248,7235327,63.440976,10.3490581,17.03,10.174,258.35,-0.24,-0.69,0.0
7261,7235367,63.4409759,10.3490575,17.03,10.171,258.38,-0.23,-0.69,0.0
7276,7235387,63.4409759,10.3490572,17.03,10.17,258.39,-0.23,-0.69,0.0
7281,7235427,63.4409758,10.3490567,17.02,10.167,258.4,-0.22,-0.7,0.0
7294,7235467,63.4409757,10.3490562,17.02,10.165,258.4,-0.22,-0.7,0.01
7304,7235487,63.4409757,10.3490559,17.02,10.164,258.39,-0.21,-0.7,0.01
7312,7235527,63.4409756,10.3490553,17.02,10.161,258.37,-0.21,-0.7,0.01
7326,7235567,63.4409755,10.3490548,17.01,10.158,258.35,-0.21,-0.71,0.0
7340,7235587,63.4409755,10.3490545,17.01,10.156,258.33,-0.21,-0.71,0.0
7345,7235627,63.4409754,10.349054,17.01,10.154,258.29,-0.21,-0.71,0.0
7358,7235667,63.4409753,10.3490534,17.0,10.149,258.25,-0.22,-0.7,-0.02
7371,7235687,63.4409753,10.3490531,17.0,10.147,258.22,-0.22,-0.7,-0.02
7376,7235727,63.4409752,10.3490526,17.0,10.144,258.17,-0.23,-0.7,-0.04
7389,7235767,63.4409751,10.349052,16.99,10.138,258.12,-0.23,-0.69,-0.06
7402,7235787,63.4409751,10.3490518,16.99,10.136,258.09,-0.23,-0.69,-0.07
7407,7235827,63.440975,10.3490512,16.99,10.133,258.06,-0.24,-0.68,-0.08
7420,7235867,63.4409749,10.3490507,16.98,10.126,258.04,-0.24,-0.68,-0.08
7434,7235887,63.4409749,10.3490504,16.98,10.123,258.03,-0.23,-0.67,-0.08
7439,7235927,63.4409748,10.3490499,16.97,10.117,258.03,-0.23,-0.67,-0.07
7452,7235947,63.4409747,10.3490496,16.97,10.112,258.03,-0.22,-0.67,-0.06
7463,7235987,63.4409747,10.3490491,16.96,10.104,258.04,-0.22,-0.67,-0.04
7470,7236027,63.4409746,10.3490486,16.95,10.096,258.03,-0.21,-0.67,-0.02
7482,7236047,63.4409745,10.3490483,16.95,10.09,258.03,-0.2,-0.67,-0.01
7496,7236087,63.4409745,10.3490477,16.94,10.08,258.0,-0.2,-0.68,0.0
7501,7236127,63.4409744,10.3490472,16.92,10.069,257.94,-0.19,-0.68,0.02
7513,7236147,63.4409744,10.3490469,16.92,10.064,257.91,-0.19,-0.68,0.03
7524,7236187,63.4409743,10.3490464,16.91,10.054,257.81,-0.19,-0.68,0.04
7533,7236227,63.4409742,10.3490459,16.9,10.045,257.68,-0.19,-0.68,0.04
7545,7236247,63.4409742,10.3490456,16.9,10.041,257.62,-0.19,-0.68,0.04
7559,7236287,63.4409741,10.349045,16.89,10.034,257.48,-0.19,-0.68,0.03
7564,7236327,63.4409741,10.3490445,16.88,10.028,257.34,-0.19,-0.68,0.02
7576,7236347,63.440974,10.3490442,16.88,10.026,257.27,-0.19,-0.67,0.02
7590,7236387,63.440974,10.3490437,16.88,10.022,257.15,-0.19,-0.67,0.01
7597,7236427,63.4409739,10.3490431,16.88,10.02,257.05,-0.18,-0.67,0.0
7609,7236447,63.4409739,10.3490428,16.87,10.018,257.0,-0.18,-0.67,0.0
7623,7236487,63.4409738,10.3490423,16.87,10.015,256.91,-0.18,-0.67,0.0
7628,7236527,63.4409737,10.3490417,16.87,10.013,256.82,-0.18,-0.68,-0.01
7642,7236547,63.4409737,10.3490415,16.87,10.011,256.78,-0.18,-0.68,-0.02
7656,7236587,63.4409736,10.3490409,16.86,10.007,256.68,-0.18,-0.69,-0.03
7660,7236607,63.4409736,10.3490406,16.86,10.006,256.63,-0.18,-0.69,-0.03
7673,7236647,63.4409735,10.3490401,16.86,10.003,256.53,-0.19,-0.69,-0.03
7687,7236687,63.4409735,10.3490395,16.85,9.999,256.41,-0.19,-0.7,-0.03
7691,7236707,63.4409734,10.3490392,16.85,9.997,256.35,-0.19,-0.7,-0.03
7704,7236747,63.4409734,10.3490387,16.85,9.995,256.24,-0.2,-0.7,-0.02
7718,7236787,63.4409733,10.3490381,16.85,9.993,256.14,-0.2,-0.71,-0.02
7722,7236807,63.4409733,10.3490378,16.85,9.992,256.11,-0.21,-0.71,-0.02
7735,7236847,63.4409732,10.3490372,16.85,9.992,256.04,-0.21,-0.71,-0.02
7748,7236887,63.4409731,10.3490366,16.85,9.992,256.0,-0.22,-0.72,-0.01
7754,7236907,63.4409731,10.3490364,16.85,9.993,255.99,-0.22,-0.73,-0.01
7767,7236947,63.440973,10.3490358,16.85,9.995,255.97,-0.23,-0.73,-0.01
7777,7236987,63.4409729,10.3490352,16.85,9.999,255.96,-0.24,-0.74,-0.02
7785,7237007,63.4409729,10.3490349,16.86,10.001,255.96,-0.24,-0.74,-0.02
7798,7237047,63.4409728,10.3490343,16.86,10.006,255.96,-0.25,-0.75,-0.03
7812,7237087,63.4409727,10.3490337,16.87,10.013,255.96,-0.26,-0.75,-0.04
7816,7237107,63.4409726,10.3490333,16.87,10.016,255.97,-0.26,-0.76,-0.05
7829,7237147,63.4409725,10.3490327,16.88,10.022,255.97,-0.28,-0.76,-0.06
7843,7237187,63.4409724,10.3490321,16.88,10.029,255.99,-0.29,-0.76,-0.07
7848,7237207,63.4409724,10.3490318,16.89,10.033,256.0,-0.29,-0.76,-0.07
7861,7237247,63.4409723,10.3490312,16.9,10.04,256.04,-0.3,-0.76,-0.08
7865,7237267,63.4409722,10.3490309,16.9,10.044,256.07,-0.31,-0.76,-0.08
7879,7237307,63.4409721,10.3490303,16.91,10.05,256.14,-0.31,-0.75,-0.08
7892,7237347,63.440972,10.3490297,16.91,10.057,256.25,-0.32,-0.75,-0.07
7896,7237367,63.4409719,10.3490294,16.92,10.06,256.32,-0.32,-0.75,-0.07
7912,7237407,63.4409718,10.3490288,16.92,10.066,256.48,-0.31,-0.74,-0.05
7925,7237447,63.4409717,10.3490282,16.93,10.071,256.66,-0.31,-0.74,-0.04
7929,7237467,63.4409716,10.3490279,16.93,10.074,256.76,-0.31,-0.74,-0.03
7943,7237507,63.4409715,10.3490273,16.93,10.078,256.96,-0.3,-0.74,-0.01
7958,7237547,63.4409714,10.3490267,16.94,10.082,257.16,-0.29,-0.74,0.0
7961,7237567,63.4409714,10.3490264,16.94,10.085,257.26,-0.29,-0.74,0.01
7976,7237607,63.4409712,10.3490258,16.94,10.088,257.42,-0.29,-0.74,0.03
7989,7237647,63.4409711,10.3490253,16.95,10.092,257.57,-0.29,-0.74,0.04
7993,7237667,63.4409711,10.3490249,16.95,10.094,257.63,-0.29,-0.74,0.05
8007,7237707,63.440971,10.3490244,16.95,10.097,257.73,-0.29,-0.74,0.06
8020,7237747,63.4409709,10.3490238,16.96,10.101,257.83,-0.29,-0.74,0.07
8024,7237767,63.4409708,10.3490235,16.96,10.103,257.87,-0.29,-0.74,0.08
8038,7237807,63.4409707,10.3490229,16.96,10.106,257.94,-0.29,-0.73,0.08
8051,7237847,63.4409706,10.3490223,16.96,10.108,258.03,-0.28,-0.73,0.09
8055,7237867,63.4409706,10.3490221,16.97,10.11,258.07,-0.28,-0.72,0.09
8070,7237907,63.4409705,10.3490215,16.97,10.112,258.16,-0.28,-0.72,0.08
8074,7237927,63.4409704,10.3490212,16.97,10.113,258.2,-0.27,-0.71,0.08
8087,7237967,63.4409703,10.3490206,16.97,10.115,258.29,-0.27,-0.71,0.07
8101,7238007,63.4409702,10.3490201,16.97,10.116,258.36,-0.26,-0.71,0.07
8105,7238027,63.4409702,10.3490198,16.97,10.116,258.39,-0.26,-0.7,0.07
8118,7238067,63.4409701,10.3490193,16.97,10.115,258.44,-0.25,-0.7,0.06
8132,7238107,63.44097,10.3490187,16.97,10.115,258.46,-0.25,-0.7,0.06
8136,7238127,63.44097,10.3490184,16.97,10.114,258.46,-0.25,-0.7,0.06
8149,7238167,63.4409699,10.3490179,16.96,10.108,258.43,-0.24,-0.7,0.06
8163,7238207,63.4409698,10.3490173,16.96,10.102,258.34,-0.24,-0.7,0.05
8168,7238227,63.4409697,10.3490171,16.96,10.1,258.29,-0.24,-0.7,0.05
8181,7238267,63.4409697,10.3490165,16.94,10.087,258.16,-0.24,-0.7,0.05
8195,7238307,63.4409696,10.3490159,16.93,10.076,258.01,-0.24,-0.69,0.04
8199,7238327,63.4409695,10.3490157,16.93,10.071,257.94,-0.24,-0.69,0.04
8212,7238367,63.4409694,10.3490151,16.91,10.053,257.8,-0.23,-0.68,0.04
8228,7238407,63.4409694,10.3490146,16.89,10.038,257.69,-0.23,-0.67,0.03
8232,7238427,63.4409693,10.3490143,16.89,10.031,257.65,-0.22,-0.67,0.03
8245,7238467,63.4409692,10.3490138,16.87,10.011,257.61,-0.21,-0.66,0.03
8259,7238507,63.4409692,10.3490133,16.85,9.994,257.6,-0.2,-0.66,0.03
8263,7238527,63.4409691,10.349013,16.84,9.986,257.61,-0.19,-0.66,0.03
8277,7238567,63.4409691,10.3490125,16.82,9.969,257.64,-0.18,-0.66,0.04
8291,7238587,63.440969,10.3490122,16.82,9.961,257.65,-0.18,-0.66,0.04
8296,7238627,63.440969,10.3490117,16.8,9.946,257.67,-0.17,-0.67,0.05
8309,7238667,63.4409689,10.3490112,16.79,9.932,257.68,-0.16,-0.67,0.06
8318,7238687,63.4409689,10.3490109,16.78,9.926,257.67,-0.16,-0.68,0.06
8327,7238727,63.4409688,10.3490104,16.77,9.914,257.63,-0.16,-0.69,0.07
8340,7238767,63.4409688,10.3490098,16.76,9.907,257.57,-0.16,-0.69,0.07
8353,7238787,63.4409687,10.3490096,16.76,9.904,257.52,-0.16,-0.69,0.08
8358,7238827,63.4409687,10.349009,16.75,9.897,257.43,-0.17,-0.7,0.08
8371,7238867,63.4409686,10.3490084,16.75,9.895,257.34,-0.17,-0.7,0.08
8385,7238887,63.4409686,10.3490082,16.75,9.894,257.29,-0.17,-0.69,0.07
8390,7238927,63.4409685,10.3490076,16.75,9.893,257.2,-0.18,-0.69,0.06
8403,7238967,63.4409684,10.3490071,16.75,9.897,257.13,-0.19,-0.69,0.05
8416,7238987,63.4409684,10.3490068,16.75,9.899,257.1,-0.19,-0.69,0.05
8421,7239027,63.4409683,10.3490062,16.76,9.902,257.05,-0.2,-0.69,0.03
8434,7239067,63.4409682,10.3490057,16.76,9.909,256.99,-0.21,-0.69,0.01
8447,7239087,63.4409682,10.3490054,16.77,9.913,256.96,-0.22,-0.69,0.01
8452,7239127,63.4409681,10.3490049,16.77,9.919,256.87,-0.23,-0.69,0.0
8465,7239167,63.440968,10.3490043,16.78,9.927,256.78,-0.24,-0.69,-0.01
8478,7239187,63.440968,10.349004,16.79,9.93,256.72,-0.24,-0.69,-0.02
8484,7239227,63.4409679,10.3490035,16.79,9.937,256.61,-0.25,-0.69,-0.02
8496,7239247,63.4409679,10.3490032,16.79,9.939,256.55,-0.26,-0.69,-0.02
8510,7239287,63.4409678,10.3490026,16.8,9.943,256.44,-0.26,-0.69,-0.02
8515,7239327,63.4409677,10.3490021,16.8,9.947,256.33,-0.25,-0.69,-0.01
8527,7239347,63.4409676,10.3490018,16.8,9.947,256.29,-0.25,-0.69,-0.01
8543,7239387,63.4409675,10.3490012,16.8,9.946,256.22,-0.25,-0.69,0.0
8548,7239427,63.4409674,10.3490007,16.8,9.945,256.18,-0.24,-0.69,0.01
8560,7239447,63.4409674,10.3490004,16.8,9.943,256.17,-0.24,-0.69,0.01
8574,7239487,63.4409673,10.3489999,16.79,9.938,256.16,-0.23,-0.69,0.03
8579,7239527,63.4409672,10.3489993,16.79,9.934,256.16,-0.23,-0.69,0.04
8593,7239547,63.4409672,10.348999,16.79,9.93,256.16,-0.23,-0.69,0.05
8607,7239587,63.4409671,10.3489985,16.78,9.923,256.15,-0.23,-0.69,0.06
8612,7239627,63.440967,10.3489979,16.77,9.916,256.14,-0.23,-0.69,0.08
8624,7239647,63.440967,10.3489977,16.77,9.912,256.13,-0.23,-0.69,0.08
8638,7239687,63.4409669,10.3489971,16.76,9.904,256.11,-0.23,-0.69,0.09
8643,7239727,63.4409668,10.3489966,16.75,9.896,256.09,-0.23,-0.69,0.09
8655,7239747,63.4409668,10.3489963,16.75,9.893,256.09,-0.24,-0.69,0.09
8665,7239787,63.4409667,10.3489957,16.74,9.886,256.09,-0.24,-0.68,0.09
8674,7239827,63.4409666,10.3489952,16.74,9.88,256.1,-0.24,-0.68,0.08
8686,7239847,63.4409666,10.3489949,16.73,9.878,256.11,-0.24,-0.68,0.07
