nx_bin,ny_bin,packet_index,ping_number,pwr_up_msec,utc_msec,utc_iso,ping_hz,sos_mps,listening_sec,pulse_sec,point_index,angle_rad,angle_deg,tof_s,range_m,y_m,z_m,reserved0,reserved1,beam_order,beam_count,beam_order_reversed,t_sync,boat_x_m,boat_y_m,boat_z_m,roll_rad,pitch_rad,yaw_rad,map_x_m,map_y_m,map_z_m,x_boat_m,y_boat_m,z_boat_m,altitude_like_sonarview_m
42.5,14.5,12397,55001,7313829,1776876304713,2026-04-22T16:45:04.713000+00:00,240000,1500.0,0.0044265026226639,9.999999747378752e-05,11,0.593411922454834,33.99999866940647,0.0037181691732257,2.4673603990815476,1.5593803079893966,-2.3118764955039137,4294967295,4294967295,11,12,0,7313829,42.87295150756836,17.14419174194336,16.8514461517334,-0.0374813228845596,0.0428167097270488,-1.78420889377594,42.64060496497125,14.68779551513079,1.470264606917848,2.384702192441721,0.2340005892725229,1.5836617476263375,1.470264606917848
42.5,14.75,12554,55011,7314329,1776876305213,2026-04-22T16:45:05.213000+00:00,240000,1500.0,0.0035502319224178,9.999999747378752e-05,7,0.2443460971117019,14.000000104994276,0.0027002322021871,2.00452190317378,0.4899339732851779,-1.965017823403481,4294967295,4294967295,7,8,0,7314329,42.79833984375,16.91813850402832,16.91031837463379,-0.0171428173780441,0.0172053687274456,-1.7376902103424072,42.65658054067791,14.918635475699544,0.49602659702630747,1.9864408234505033,0.18324987852031935,0.5335004987931162,0.49602659702630747
42.5,15.0,12415,55002,7313879,1776876304763,2026-04-22T16:45:04.763000+00:00,240000,1500.0,0.0044265026226639,9.999999747378752e-05,5,-0.1919862180948257,-11.000000021511672,0.0026348358951509,1.9063260791188286,-0.3770627933301562,-1.939819903811269,4294967295,4294967295,5,10,4,7313879,42.8653450012207,17.12295913696289,16.84819221496582,-0.0358465835452079,0.0458851233124733,-1.7805386781692505,42.596684788264135,15.235659264154465,-0.42284118056855646,1.9192696214504423,0.14210643756611757,-0.3302781623009945,-0.42284118056855646
42.5,15.25,12617,55015,7314529,1776876305413,2026-04-22T16:45:05.413000+00:00,240000,1500.0,0.0035502319224178,9.999999747378752e-05,2,-0.3316125571727752,-18.999999959540737,0.0020002319943159,1.399373933503456,-0.4884088781550798,-1.4184423799452597,4294967295,4294967295,2,8,5,7314529,42.777957916259766,16.85837173461914,16.966928482055664,-0.0291181914508342,-0.0016713064396753,-1.7158302068710327,42.69985801413468,15.461178902166516,-0.4175586971584887,1.3931113667412574,0.13682249506151037,-0.4160805162983213,-0.4175586971584887
42.5,15.5,12731,55022,7314879,1776876305763,2026-04-22T16:45:05.763000+00:00,240000,1500.0,0.0026739612221717,9.999999747378752e-05,0,-0.5410520434379578,-30.99999858592387,0.0017614613752812,1.0950613230253217,-0.6804147288669778,-1.1324003360484514,4294967295,4294967295,0,9,8,7314879,42.74679183959961,16.78769874572754,17.043392181396484,-0.0459713488817215,0.0126165831461548,-1.6696263551712036,42.738996758606746,15.692665167293397,-0.6128189097826416,1.0981039510027155,0.12771083318938345,-0.5937709771043486,-0.6128189097826416
42.5,15.75,12554,55011,7314329,1776876305213,2026-04-22T16:45:05.213000+00:00,240000,1500.0,0.0035502319224178,9.999999747378752e-05,0,-0.6632251143455505,-37.99999991908148,0.0017168986378237,0.9691789205359297,-0.7927712598273353,-1.0147009432130183,4294967295,4294967295,0,8,7,7314329,42.79833984375,16.91813850402832,16.91031837463379,-0.0171428173780441,0.0172053687274456,-1.7376902103424072,42.747212267560535,15.950309102240908,-0.718827429682427,0.9750997973930334,0.12237893983592482,-0.7001602915645353,-0.718827429682427
42.5,16.0,12446,55004,7313979,1776876304863,2026-04-22T16:45:04.863000+00:00,240000,1500.0,0.0044265026226639,9.999999747378752e-05,0,-0.6632251143455505,-37.99999991908148,0.0018015026580542,0.98835174726605,-0.8318368366918989,-1.0647026015731702,4294967295,4294967295,0,10,9,7313979,42.84738159179688,17.071796417236328,16.844072341918945,-0.0315468236804008,0.0513373129069805,-1.7709013223648071,42.74701264458797,16.088554203557507,-0.796514847312651,1.0231500207247608,0.1205250779566658,-0.7415610689537371,-0.796514847312651
42.75,15.25,12827,55028,7315179,1776876306063,2026-04-22T16:45:06.063000+00:00,240000,1500.0,0.0026739612221717,9.999999747378752e-05,10,0.2268927991390228,12.999999792575526,0.0016864613862708,1.2644990430194432,0.2845284457521924,-1.2324281186789343,4294967295,4294967295,10,11,0,7315179,42.7307014465332,16.753692626953125,17.050432205200195,-0.0146871991455554,0.0201388485729694,-1.6371997594833374,42.826076292723265,15.492795538166213,0.3363721401568484,1.2447621090920067,0.17350233329392567,0.3640992702288305,0.3363721401568484
42.75,15.5,12892,55032,7315379,1776876306263,2026-04-22T16:45:06.263000+00:00,240000,1500.0,0.0026739612221717,9.999999747378752e-05,0,-0.593411922454834,-33.99999866940647,0.0016614613123238,0.9951747026689124,-0.6968080074409934,-1.0330604061294215,4294967295,4294967295,0,10,9,7315379,42.72649383544922,16.741668701171875,17.08100700378418,-0.0086216144263744,0.0168883148580789,-1.618817687034607,42.800650358446056,15.749260771473015,-0.6231490032922486,0.9980867348785738,0.12693288808620978,-0.6053084178481287,-0.6231490032922486
42.75,15.75,13019,55040,7315779,1776876306663,2026-04-22T16:45:06.663000+00:00,240000,1500.0,0.0026739612221717,9.999999747378752e-05,1,-0.3665191531181335,-21.00000058437824,0.0010739613790065,0.7536349196669802,-0.2886550106336594,-0.7519719887467259,4294967295,4294967295,1,9,7,7315779,42.720008850097656,16.73497772216797,17.31228256225586,-0.0478672310709953,-0.0213693119585514,-1.5420362949371338,42.87856886895523,15.998211604216456,-0.1754572181241334,0.7371026964375395,0.1463018400489495,-0.18446195823561184,-0.1754572181241334
42.75,16.0,12988,55038,7315679,1776876306563,2026-04-22T16:45:06.563000+00:00,240000,1500.0,0.0026739612221717,9.999999747378752e-05,3,-0.2617993950843811,-15.000000417413029,0.0008114613592624,0.599383614687845,-0.157516244889115,-0.587858611812894,4294967295,4294967295,3,11,7,7315679,42.72023391723633,16.736759185791016,17.2509765625,-0.0387020669877529,-0.0127152130007743,-1.566174864768982,42.873557339091654,16.157317518436276,-0.04415989330206389,0.5795356708247313,0.1525250467239652,-0.04566541466250568,-0.04415989330206389
42.75,16.25,13222,55053,7316429,1776876307313,2026-04-22T16:45:07.313000+00:00,240000,1500.0,0.0026739612221717,9.999999747378752e-05,0,-0.6283185482025146,-36.00000100179127,0.0007060241186991,0.4321391048295379,-0.3112429310407996,-0.4283891274077011,4294967295,4294967295,0,10,9,7316429,42.74484252929688,16.69260025024414,17.41422462463379,-0.0166650004684925,0.0235300380736589,-1.3316274881362915,42.97950691376137,16.329727224811307,-0.20335616130971057,0.41280634549819356,0.14522992743596774,-0.19130374685004498,-0.20335616130971057
42.75,16.5,12193,54988,7313179,1776876304063,2026-04-22T16:45:04.063000+00:00,240000,1500.0,0.00530277332291,9.999999747378752e-05,0,-0.6457718014717102,-36.99999875288908,0.0018027732148766,1.0431449147954641,-0.8137019795331153,-1.079819047183153,4294967295,4294967295,0,11,10,7313179,43.037376403808594,17.57632827758789,16.8868465423584,-0.0366880372166633,0.0004029432311654,-1.83388352394104,42.858695005078964,16.54860055537171,-0.7285848420056671,1.0391272461202332,0.12138566989132563,-0.7242011259171565,-0.7285848420056671
42.75,16.75,12066,54980,7312779,1776876303663,2026-04-22T16:45:03.663000+00:00,240000,1500.0,0.00530277332291,9.999999747378752e-05,0,-0.6632251143455505,-37.99999991908148,0.00185277312994,1.0308016862664233,-0.8555107774204955,-1.095003863997981,4294967295,4294967295,0,11,10,7312779,43.14380645751953,17.84962272644043,16.96270179748535,-0.0287613030523061,0.0331236161291599,-1.837636947631836,42.96707472757872,16.834084439598506,-0.8041930826216943,1.0522687034744067,0.11940162811229926,-0.7666501532242128,-0.8041930826216943
42.75,17.0,14712,55147,7321129,1776876312013,2026-04-22T16:45:12.013000+00:00,240000,1500.0,0.0044225309975445,9.999999747378752e-05,0,-0.5410520434379578,-30.99999858592387,0.0013183644041419,0.8253061460455787,-0.5092558776367592,-0.8475441557986279,4294967295,4294967295,0,8,7,7321129,42.19087219238281,16.971481323242188,17.386215209960938,-0.0051364935934543,0.0179172698408365,0.1791696697473526,42.96840253804451,17.24820645089743,-0.42454180467291636,0.8218750529335,0.13583319807070937,-0.40919032036814096,-0.42454180467291636
42.75,17.25,14854,55156,7321579,1776876312463,2026-04-22T16:45:12.463000+00:00,240000,1500.0,0.0044225309975445,9.999999747378752e-05,0,-0.6457718014717102,-36.99999875288908,0.0015058644348755,0.8724494894309108,-0.6796888601712378,-0.901977623050922,4294967295,4294967295,0,10,9,7321579,42.12559127807617,16.977161407470703,17.483285903930664,-0.0083228563889861,0.0072306785732507,0.2884624004364013,42.9186914209146,17.34069995430986,-0.5891749071526982,0.8679875817600797,0.12774527937992725,-0.5818710203585383,-0.5891749071526982
43.0,15.5,13097,55045,7316029,1776876306913,2026-04-22T16:45:06.913000+00:00,240000,1500.0,0.0026739612221717,9.999999747378752e-05,7,0.0523598790168762,3.0000000834826057,0.0013364613987505,1.0141911154237455,0.052458740422507,-1.000972368562342,4294967295,4294967295,7,10,2,7316029,42.72813034057617,16.72525978088379,17.400856018066406,-0.0445281714200973,-0.015789171680808,-1.4639908075332642,43.00250648196266,15.748888257516622,0.15222259013604722,1.002335793539314,0.16248943614580147,0.14378969254825716,0.15222259013604722
43.0,15.75,13177,55050,7316279,1776876307163,2026-04-22T16:45:07.163000+00:00,240000,1500.0,0.0026739612221717,9.999999747378752e-05,2,-0.3141592741012573,-18.000000500895634,0.0010739613790065,0.7655785632648687,-0.2489042447585317,-0.7660484736391092,4294967295,4294967295,2,9,6,7316279,42.73960876464844,16.707181930541992,17.408294677734375,-0.0203946251422166,0.0092361038550734,-1.383762001991272,43.02203975997428,15.995603916962345,-0.15542637971586185,0.7530883995957062,0.1481882176591595,-0.1454854308295513,-0.15542637971586185
43.0,16.0,13285,55057,7316629,1776876307513,2026-04-22T16:45:07.513000+00:00,240000,1500.0,0.0025916823651641,9.999999747378752e-05,1,-0.3141592741012573,-18.000000500895634,0.0007853257702663,0.5676650819032955,-0.1820092617468091,-0.5601668918285696,4294967295,4294967295,1,12,10,7316629,42.743988037109375,16.67612648010254,17.455949783325195,-0.039343487471342,0.033437967300415,-1.2693052291870115,43.048520835156836,16.197061327826088,-0.09302814344697515,0.5506899401152224,0.1513627275185443,-0.06875896493916783,-0.09302814344697515
43.0,16.25,13524,55072,7317379,1776876308263,2026-04-22T16:45:08.263000+00:00,240000,1500.0,0.0025914760772138,9.999999747378752e-05,0,-0.6457718014717102,-36.99999875288908,0.0006853156955912,0.41557514196914414,-0.3093249519717796,-0.4104880943017888,4294967295,4294967295,0,8,7,7317379,42.71817398071289,16.688369750976562,17.518747329711914,-0.0026239929720759,0.0282642897218465,-1.026034593582153,43.04389274927638,16.430280653128246,-0.1999906389802395,0.3950192989368629,0.14532094537469165,-0.18852196319058262,-0.1999906389802395
43.0,16.5,13778,55088,7318179,1776876309063,2026-04-22T16:45:09.063000+00:00,240000,1500.0,0.0017936490476131,9.999999747378752e-05,0,-0.6283185482025146,-36.00000100179127,0.0009853156516328,0.5858396805500673,-0.4343655171152421,-0.5978528226512598,4294967295,4294967295,0,8,7,7318179,42.64640426635742,16.821752548217773,17.544036865234375,-0.024214094504714,0.0158238932490348,-0.752753496170044,43.15296675215345,16.5274693864651,-0.33471745227818533,0.5761057484299019,0.13938712957864888,-0.32236206181939875,-0.33471745227818533
43.0,16.75,14173,55113,7319429,1776876310313,2026-04-22T16:45:10.313000+00:00,240000,1500.0,0.0043434067629277,9.999999747378752e-05,0,-0.6283185482025146,-36.00000100179127,0.0011294935829937,0.6640404008744343,-0.4979247649648028,-0.6853346190535495,4294967295,4294967295,0,13,12,7319429,42.50553131103516,16.990190505981445,17.4941349029541,-0.026224160566926,0.0210977084934711,-0.3264680504798889,43.16349278564563,16.9005448037872,-0.40730409427325404,0.6604053684715591,0.13637091745227528,-0.3900179500643588,-0.40730409427325404
43.0,17.0,14585,55139,7320729,1776876311613,2026-04-22T16:45:11.613000+00:00,240000,1500.0,0.0052217235788702,9.999999747378752e-05,0,-0.6632251143455505,-37.99999991908148,0.0014217235147953,0.8010539053132346,-0.6564752962813619,-0.8402500646628199,4294967295,4294967295,0,11,10,7320729,42.27278900146485,16.989757537841797,17.43430519104004,-0.0291842948645353,0.0252095572650432,0.0639384165406227,43.05707938181692,17.152778881551118,-0.5794159618862328,0.8074572841312476,0.1288468819833236,-0.5557170425789522,-0.5794159618862328
43.0,17.25,15346,55187,7323130,1776876314014,2026-04-22T16:45:14.014000+00:00,240000,1500.0,0.0044225309975445,9.999999747378752e-05,0,-0.6632251143455505,-37.99999991908148,0.0016933644656091,0.937194783484892,-0.7819044474573371,-1.0007920576109377,4294967295,4294967295,0,8,7,7323130,42.24978256225586,17.04121208190918,17.28580093383789,-0.0701752305030822,0.0385053902864456,0.2801778018474579,43.12704974548182,17.3709640363023,-0.7320732433244252,0.9617337395182806,0.12289462578807761,-0.68864390000016,-0.7320732433244252
43.0,17.5,15062,55169,7322229,1776876313113,2026-04-22T16:45:13.113000+00:00,240000,1500.0,0.0044225309975445,9.999999747378752e-05,1,-0.4712388813495636,-26.99999904379616,0.001901697833091,1.2064816919418915,-0.6475145409903781,-1.270818893045545,4294967295,4294967295,1,9,7,7322229,42.09430313110352,17.00750732421875,17.36769676208496,-0.0162451770156621,0.0616610571742057,0.3509257137775421,43.1803708387219,17.532916695527955,-0.6448875465555003,1.2379535052415949,0.1292721157562925,-0.5676599859434177,-0.6448875465555003
43.25,15.0,13254,55055,7316529,1776876307413,2026-04-22T16:45:07.413000+00:00,240000,1500.0,0.0017976907547563,9.999999747378752e-05,9,0.1570796370506286,9.000000250447817,0.0021291822195053,1.6058813632398123,0.249808118005389,-1.577226338813958,4294967295,4294967295,9,12,2,7316529,42.745853424072266,16.682777404785156,17.430065155029297,-0.0255296099931001,0.0291651468724012,-1.3002482652664185,43.34558478462645,15.193087085299666,0.2618235671308984,1.5874724684634403,0.17185467575981755,0.31273577568962707,0.2618235671308984
43.25,15.25,13318,55059,7316729,1776876307613,2026-04-22T16:45:07.613000+00:00,240000,1500.0,0.0017936590593308,9.999999747378752e-05,7,-0.0349065847694873,-1.9999999845072665,0.0017664765473455,1.3296813134618677,-0.0462368564713255,-1.3240503431836088,4294967295,4294967295,7,10,2,7316729,42.74184036254883,16.670839309692383,17.489316940307617,-0.0507428906857967,0.0377225317060947,-1.238082766532898,43.32338714681106,15.475073557931639,-0.028197400297910288,1.3202520930662454,0.15780582414215633,0.029651667309901333,-0.028197400297910288
43.25,15.5,13382,55063,7316929,1776876307813,2026-04-22T16:45:07.813000+00:00,240000,1500.0,0.0025914765428751,9.999999747378752e-05,11,0.2094395160675048,12.000000333930425,0.001453976612538,1.1038895183872808,0.2267240581583559,-1.066652799986516,4294967295,4294967295,11,12,0,7316929,42.73661804199219,16.667264938354492,17.55144500732422,-0.0440663956105709,0.0422440394759178,-1.1753729581832886,43.32607077768923,15.733928160345304,0.26090991653843887,1.076381467869579,0.17075921878711461,0.31446824669517925,0.26090991653843887
43.25,15.75,13462,55068,7317179,1776876308063,2026-04-22T16:45:08.063000+00:00,240000,1500.0,0.0017936490476131,9.999999747378752e-05,4,-0.0698131695389747,-3.999999969014533,0.0011519823456183,0.8730174228394669,-0.06026866921826,-0.8618821309247019,4294967295,4294967295,4,8,3,7317179,42.728477478027344,16.67406463623047,17.55611228942871,-0.0097159119322896,0.0337349250912666,-1.0976451635360718,43.25997663266324,15.981483905049913,0.007581190633660037,0.8579480016431127,0.1571399426977679,0.038067833117006414,0.007581190633660037
43.25,16.0,13620,55078,7317679,1776876308563,2026-04-22T16:45:08.563000+00:00,240000,1500.0,0.0017936490476131,9.999999747378752e-05,2,-0.2443460971117019,-14.000000104994276,0.0010186489671468,0.7426946494708844,-0.1848251181705278,-0.7412930542098607,4294967295,4294967295,2,5,2,7317679,42.69890213012695,16.726003646850586,17.561630249023438,-0.0256252959370613,0.0395058915019035,-0.9233413934707642,43.25668396916178,16.235621385348797,-0.11302566775401444,0.731466521920004,0.1512291006966623,-0.08035316009124027,-0.11302566775401444
43.25,16.25,13698,55083,7317929,1776876308813,2026-04-22T16:45:08.813000+00:00,240000,1500.0,0.0017936490476131,9.999999747378752e-05,2,-0.3490658402442932,-19.99999941818584,0.0010353156831115,0.7228823917587173,-0.2655741063344691,-0.7296588833996746,4294967295,4294967295,2,4,1,7317929,42.67368316650391,16.768972396850586,17.60379409790039,-0.039567444473505,0.0385095849633216,-0.8387770652770996,43.252400239481595,16.335791716580854,-0.1934974743648668,0.7159340392049519,0.14739714727473138,-0.16035197966765452,-0.1934974743648668
43.25,16.5,13857,55093,7318429,1776876309313,2026-04-22T16:45:09.313000+00:00,240000,1500.0,0.0017936490476131,9.999999747378752e-05,2,-0.3665191531181335,-21.00000058437824,0.0010936489561572,0.762651464332499,-0.2939465582655318,-0.7657569411975844,4294967295,4294967295,2,4,1,7318429,42.61935806274414,16.868515014648438,17.514467239379883,-0.0278771538287401,0.0053568272851407,-0.6734206676483154,43.293027150959965,16.51101366411817,-0.19842498508023707,0.7506150689379112,0.14605072898841093,-0.19040990940044822,-0.19842498508023707
43.25,16.75,14202,55115,7319529,1776876310413,2026-04-22T16:45:10.413000+00:00,240000,1500.0,0.0035461604129523,9.999999747378752e-05,0,-0.6457718014717102,-36.99999875288908,0.0013461601920425,0.7695354246110067,-0.6076045528048742,-0.8063185119082086,4294967295,4294967295,0,8,7,7319529,42.49448013305664,16.9957332611084,17.499271392822266,-0.0294978097081184,0.0292603131383657,-0.2972261309623718,43.25586878653282,16.884054757854777,-0.5314447629905588,0.7759332797107318,0.13116604928133146,-0.50531308987063,-0.5314447629905588
43.25,17.0,14378,55126,7320079,1776876310963,2026-04-22T16:45:10.963000+00:00,240000,1500.0,0.0035461604129523,9.999999747378752e-05,0,-0.593411922454834,-33.99999866940647,0.0014461602549999,0.8603245393335719,-0.606511893025958,-0.8991909045832523,4294967295,4294967295,0,7,6,7320079,42.406681060791016,17.01758575439453,17.460487365722656,-0.0390542559325695,0.0297333281487226,-0.1345999985933303,43.26699518984987,17.013353459364247,-0.5390628106949227,0.8687493090075651,0.13121790158900773,-0.5087273604351188,-0.5390628106949227
43.25,17.25,15361,55188,7323179,1776876314063,2026-04-22T16:45:14.063000+00:00,240000,1500.0,0.0044225309975445,9.999999747378752e-05,0,-0.5759586691856384,-33.000000918308665,0.0017975311493501,1.0688765711370338,-0.7342542410651623,-1.130652340675517,4294967295,4294967295,0,8,7,7323179,42.26110076904297,17.042490005493164,17.279525756835938,-0.0640300139784812,0.0415847040712833,0.2844110131263733,43.26048179848144,17.42161357680489,-0.6989880310671028,1.0937496782176157,0.12515587234474648,-0.6474017615956981,-0.6989880310671028
43.25,17.5,15535,55199,7323729,1776876314613,2026-04-22T16:45:14.613000+00:00,240000,1500.0,0.0044225309975445,9.999999747378752e-05,0,-0.6632251143455505,-37.99999991908148,0.0016933644656091,0.9396576353860143,-0.7819044474573371,-1.0007920576109377,4294967295,4294967295,0,7,6,7323729,42.47506713867188,17.104249954223633,17.17157554626465,0.0174836833029985,0.0449469499289989,0.3476086854934692,43.3034112616468,17.547874216040036,-0.7289093386996769,0.9617337395182806,0.12289462578807761,-0.68864390000016,-0.7289093386996769
43.25,17.75,11558,54948,7311179,1776876302063,2026-04-22T16:45:02.063000+00:00,240000,1500.0,0.00530277332291,9.999999747378752e-05,0,-0.6632251143455505,-37.99999991908148,0.0021277731284499,1.235482008301363,-0.982490955788821,-1.2575310812280305,4294967295,4294967295,0,9,8,7311179,43.55668258666992,18.96413230895996,16.95895004272461,-0.0229491237550973,-0.0265357811003923,-1.834030508995056,43.32558339817596,17.750456504672094,-0.8712035012221622,1.208452904989044,0.11337576772593735,-0.9012207526983721,-0.8712035012221622
43.25,18.0,11364,54936,7310579,1776876301463,2026-04-22T16:45:01.463000+00:00,240000,1500.0,0.00530277332291,9.999999747378752e-05,0,-0.6632251143455505,-37.99999991908148,0.0022277731914073,1.2661228442504706,-1.0286655954251145,-1.3166319250220813,4294967295,4294967295,0,10,9,7310579,43.72981262207031,19.39509391784668,16.934803009033203,-0.0353119522333145,0.0015744639094918,-1.833045244216919,43.47710098251308,18.154447359005204,-0.9554794489916244,1.265247196149211,0.11118454437585042,-0.9501555472167368,-0.9554794489916244
43.5,15.25,13493,55070,7317279,1776876308163,2026-04-22T16:45:08.163000+00:00,240000,1500.0,0.0017936490476131,9.999999747378752e-05,10,0.279252678155899,15.999999876058132,0.0020289761014282,1.5063382707659279,0.4194462025458965,-1.4627827571152865,4294967295,4294967295,10,11,0,7317279,42.72368621826172,16.6798095703125,17.537189483642578,-0.00312703079544,0.0301134567707777,-1.065061330795288,43.60683727887589,15.459523050633553,0.442145445350749,1.4813819393915382,0.17990487246599846,0.48753396530504756,0.442145445350749
43.5,15.5,13493,55070,7317279,1776876308163,2026-04-22T16:45:08.163000+00:00,240000,1500.0,0.0017936490476131,9.999999747378752e-05,9,0.2443460971117019,14.000000104994276,0.0019039760809391,1.4237212814802622,0.3454601295469653,-1.3855648900671966,4294967295,4294967295,9,11,1,7317279,42.72368621826172,16.6798095703125,17.537189483642578,-0.00312703079544,0.0301134567707777,-1.065061330795288,43.5634692676878,15.530137131208026,0.3745480695180214,1.4006705834362523,0.17639385403654292,0.41746337405089273,0.3745480695180214
43.5,16.25,13985,55101,7318829,1776876309713,2026-04-22T16:45:09.713000+00:00,240000,1500.0,0.0025914760772138,9.999999747378752e-05,2,-0.3665191531181335,-21.00000058437824,0.001615498564206,1.115110450381535,-0.4342071924978769,-1.1311483745042157,4294967295,4294967295,2,7,4,7318829,42.567291259765625,16.935829162597656,17.60130500793457,-0.0456494428217411,0.0014538873219862,-0.5269193649291992,43.58726922488135,16.485144941408915,-0.35567967522478056,1.1087813500973673,0.13939464289334275,-0.34806953202918106,-0.35567967522478056
43.5,16.5,14125,55110,7319279,1776876310163,2026-04-22T16:45:10.163000+00:00,240000,1500.0,0.0043434067629277,9.999999747378752e-05,2,-0.4363323152065277,-25.00000012650595,0.001614240463823,1.0740829751705216,-0.5116556265619737,-1.0972490257546756,4294967295,4294967295,2,12,9,7319279,42.52066040039063,16.97991943359375,17.49442481994629,-0.0320301316678524,0.009350805543363,-0.3744671046733856,43.55848855677882,16.703212087541903,-0.43782200268541294,1.071169792912777,0.1357193176826718,-0.4236955099426586,-0.43782200268541294
43.5,16.75,14173,55113,7319429,1776876310313,2026-04-22T16:45:10.313000+00:00,240000,1500.0,0.0043434067629277,9.999999747378752e-05,3,-0.3665191531181335,-21.00000058437824,0.001496160402894,1.0285824488614206,-0.4021319625167058,-1.0475895461800442,4294967295,4294967295,3,13,9,7319429,42.50553131103516,16.990190505981445,17.4941349029541,-0.026224160566926,0.0210977084934711,-0.3264680504798889,43.51419739441665,16.788759161991457,-0.33719602837950086,1.0268747916209544,0.14091677697923408,-0.3120154482711947,-0.33719602837950086
43.5,17.0,14333,55123,7319929,1776876310813,2026-04-22T16:45:10.813000+00:00,240000,1500.0,0.0035461604129523,9.999999747378752e-05,9,0.4363323152065277,25.00000012650595,0.0017628269270062,1.2636024624726794,0.5587521413764741,-1.1982478271240415,4294967295,4294967295,9,10,0,7319929,42.43256759643555,17.01527976989746,17.484407424926758,-0.0397703051567077,0.0358070135116577,-0.1770793348550796,43.6961224848743,17.004314959386313,0.5872082075779771,1.2239072147537557,0.18651565337031578,0.6393494372684636,0.5872082075779771
43.5,17.25,14649,55143,7320929,1776876311813,2026-04-22T16:45:11.813000+00:00,240000,1500.0,0.0052217235788702,9.999999747378752e-05,2,-0.296705961227417,-16.999999334703237,0.0018808644963428,1.326345270199573,-0.412433653696983,-1.3490097521700288,4294967295,4294967295,2,9,6,7320929,42.2295150756836,16.978981018066406,17.41364860534668,-0.012390287593007,0.0229271352291107,0.1237818822264671,43.521928519645115,17.27707373124188,-0.36896943777689784,1.3274411840700955,0.14042790892444443,-0.3369126400476277,-0.36896943777689784
43.5,17.5,15741,55212,7324379,1776876315263,2026-04-22T16:45:15.263000+00:00,240000,1500.0,0.0044225309975445,9.999999747378752e-05,0,-0.6457718014717102,-36.99999875288908,0.0017141978023573,0.9810594781191273,-0.7737224702359192,-1.0267644439967154,4294967295,4294967295,0,6,5,7324379,42.84056091308594,17.302927017211914,17.150657653808594,-0.0626305341720581,0.0148257948458194,0.3474515378475189,43.73252846120941,17.71142621268477,-0.7026928119190876,0.9880719476913534,0.12328290254949187,-0.6817404488913043,-0.7026928119190876
43.5,17.75,11130,54921,7309829,1776876300713,2026-04-22T16:45:00.713000+00:00,240000,1500.0,0.0061790435574948,9.999999747378752e-05,3,-0.3141592741012573,-18.000000500895634,0.0027665437664836,1.9095190706938114,-0.6411817968957609,-1.9733546019421304,4294967295,4294967295,3,5,1,7309829,43.903228759765625,19.849937438964844,16.898983001708984,-0.0379862152040004,0.0514846928417682,-1.836896538734436,43.50497349533778,17.9824107789948,-0.6989465498134814,1.9399692188559048,0.12957263692634496,-0.5954155880484551,-0.6989465498134814
43.5,18.0,11304,54932,7310379,1776876301263,2026-04-22T16:45:01.263000+00:00,240000,1500.0,0.00530277332291,9.999999747378752e-05,0,-0.6283185482025146,-36.00000100179127,0.0023277732543647,1.3379637229861627,-1.0261731168926258,-1.412406073432226,4294967295,4294967295,0,11,10,7310379,43.782501220703125,19.52170753479004,16.965723037719727,-0.0242528039962053,0.0267009250819683,-1.837376356124878,43.51586405500996,18.210581474528055,-0.9907291523634367,1.3610293824710384,0.11130282525910146,-0.9523139600518354,-0.9907291523634367
43.5,18.25,11242,54928,7310179,1776876301063,2026-04-22T16:45:01.063000+00:00,240000,1500.0,0.00530277332291,9.999999747378752e-05,0,-0.6632251143455505,-37.99999991908148,0.0023027730640023,1.2631723987541614,-1.0632964945208525,-1.3609574546640284,4294967295,4294967295,0,9,8,7310179,43.830833435058594,19.643329620361328,16.962278366088867,-0.0379560142755508,0.0458127856254577,-1.8383630514144895,43.56686371272499,18.408046456602726,-1.0491584462649606,1.307842815343514,0.10954113068966237,-0.9868565576541665,-1.0491584462649606
43.5,18.5,11145,54922,7309880,1776876300764,2026-04-22T16:45:00.764000+00:00,240000,1500.0,0.0061790435574948,9.999999747378752e-05,0,-0.6632251143455505,-37.99999991908148,0.0021277731284499,1.1633869706953794,-0.982490955788821,-1.2575310812280305,4294967295,4294967295,0,10,9,7309880,43.89455032348633,19.82535552978516,16.90398406982422,-0.0433995351195335,0.0507011786103248,-1.8373265266418457,43.6603039880004,18.685795133011393,-0.9653714776159249,1.208452904989044,0.11337576772593735,-0.9012207526983721,-0.9653714776159249
43.5,18.75,10940,54909,7309229,1776876300113,2026-04-22T16:45:00.113000+00:00,240000,1500.0,0.0070553142577409,9.999999747378752e-05,0,-0.6632251143455505,-37.99999991908148,0.0025886476505547,1.3931841407439587,-1.1952979715684533,-1.5299116411400675,4294967295,4294967295,0,9,8,7309229,44.04202651977539,20.243526458740234,16.95821762084961,-0.0229650028049945,0.067241795361042,-1.838187575340271,43.74911928798148,18.881481157150265,-1.2250566698184087,1.4702031581651374,0.10327698394090641,-1.1267486110913913,-1.2250566698184087
43.5,19.0,10814,54901,7308829,1776876299713,2026-04-22T16:44:59.713000+00:00,240000,1500.0,0.0070553142577409,9.999999747378752e-05,0,-0.6283185482025146,-36.00000100179127,0.0027553143445402,1.5605947590597034,-1.2146498820940574,-1.671822075945978,4294967295,4294967295,0,9,8,7308829,44.14491271972656,20.513126373291016,16.879470825195312,-0.0600244924426078,0.0426232628524303,-1.8508723974227903,43.74534095216099,19.004551415070797,-1.2245976039662771,1.6110090507447743,0.10235863658516078,-1.1529387848361292,-1.2245976039662771
43.75,16.0,13939,55098,7318680,1776876309564,2026-04-22T16:45:09.564000+00:00,240000,1500.0,0.0025914760772138,9.999999747378752e-05,5,-0.1221730485558509,-7.000000052497138,0.0020039759110659,1.487858427923622,-0.1831674227278427,-1.4917789337149785,4294967295,4294967295,5,6,0,7318680,42.5847282409668,16.91503143310547,17.58870506286621,-0.0396365821361541,0.0042980331927537,-0.577381432056427,43.905362701854386,16.22972323801402,-0.12736892826966,1.4811494853155742,0.15130776684305686,-0.11509868493724718,-0.12736892826966
43.75,16.25,13920,55097,7318629,1776876309513,2026-04-22T16:45:09.513000+00:00,240000,1500.0,0.0025914760772138,9.999999747378752e-05,5,-0.2094395160675048,-12.000000333930425,0.0018289760919287,1.3324504723985338,-0.2851991416236328,-1.341756430427528,4294967295,4294967295,5,7,1,7318629,42.592735290527344,16.9052677154541,17.569744110107422,-0.0372098609805107,0.0051957527175545,-0.5993906259536743,43.765117926246184,16.272066944086898,-0.22181137485915686,1.3263604621575191,0.14646583874886918,-0.2096192498719131,-0.22181137485915686
43.75,16.5,14048,55105,7319029,1776876309913,2026-04-22T16:45:09.913000+00:00,240000,1500.0,0.0043434067629277,9.999999747378752e-05,10,0.6108652353286743,34.99999983559887,0.0019684070721268,1.2726266848539487,0.8467739318190958,-1.209318510273906,4294967295,4294967295,10,11,0,7319029,42.54526138305664,16.9582576751709,17.552324295043945,-0.0482586249709129,-2.7186335501028225e-05,-0.4590408205986023,43.77325925521889,16.62419195563754,0.9154700515511365,1.2489185095825202,0.20018376377730318,0.9261712106471058,0.9154700515511365
43.75,16.75,14219,55116,7319579,1776876310463,2026-04-22T16:45:10.463000+00:00,240000,1500.0,0.0035461604129523,9.999999747378752e-05,7,0.5759586691856384,33.000000918308665,0.0018961601890623,1.2749542766640412,0.7745421608194804,-1.1926902945933402,4294967295,4294967295,7,8,0,7319579,42.489524841308594,16.997814178466797,17.501384735107422,-0.0316496379673481,0.0318182967603206,-0.285475879907608,43.75689926009188,16.858995987304176,0.808736440105192,1.228810488495191,0.19675599597057658,0.8549122168689518,0.808736440105192
43.75,17.0,14364,55125,7320029,1776876310913,2026-04-22T16:45:10.913000+00:00,240000,1500.0,0.0035461604129523,9.999999747378752e-05,9,0.3316125571727752,18.999999959540737,0.0018461602739989,1.3604203370583552,0.450788244003997,-1.30918412476799,4294967295,4294967295,9,11,1,7320029,42.41435623168945,17.017141342163086,17.467607498168945,-0.0389878302812576,0.0319471694529056,-0.1468242704868316,43.774773746579704,17.019912382004293,0.4760526485416384,1.329482484357446,0.18139221299801642,0.5262535572477436,0.4760526485416384
43.75,17.25,14649,55143,7320929,1776876311813,2026-04-22T16:45:11.813000+00:00,240000,1500.0,0.0052217235788702,9.999999747378752e-05,4,-0.1221730485558509,-7.000000052497138,0.0021308644209057,1.5785272848656386,-0.1947652873492618,-1.5862359603010787,4294967295,4294967295,4,9,4,7320929,42.2295150756836,16.978981018066406,17.41364860534668,-0.012390287593007,0.0229271352291107,0.1237818822264671,43.77054826883916,17.320982606744113,-0.16917949184482053,1.5749334724402861,0.1507573887140714,-0.13125112061026661,-0.16917949184482053
43.75,17.5,15724,55211,7324329,1776876315213,2026-04-22T16:45:15.213000+00:00,240000,1500.0,0.0044225309975445,9.999999747378752e-05,0,-0.593411922454834,-33.99999866940647,0.0017766978126019,1.064177334320812,-0.7451375806592576,-1.1047119485970212,4294967295,4294967295,0,8,7,7324329,42.80376052856445,17.282913208007812,17.166311264038086,-0.0590148456394672,0.009857534430921,0.3495701253414154,43.77098905379424,17.72669511262309,-0.6736981364668462,1.0673125552141376,0.12463940209108883,-0.6570019078280499,-0.6736981364668462
43.75,17.75,15837,55218,7324679,1776876315563,2026-04-22T16:45:15.563000+00:00,240000,1500.0,0.0044225309975445,9.999999747378752e-05,3,-0.4537855982780456,-25.99999958515105,0.0016100311186164,1.0460731651991353,-0.5293433830172996,-1.085314791659348,4294967295,4294967295,3,9,5,7324679,43.02367782592773,17.40585708618164,17.015954971313477,-0.0369381643831729,0.0408090576529502,0.3372432887554168,43.965257093652646,17.861595552344355,-0.4882533017484597,1.0583926944302366,0.13487994296830808,-0.44076372239509043,-0.4882533017484597
43.75,18.0,10430,54877,7307629,1776876298513,2026-04-22T16:44:58.513000+00:00,240000,1500.0,0.0070553142577409,9.999999747378752e-05,9,0.0523598790168762,3.0000000834826057,0.0043886480852961,3.295936603847463,0.1722630754075792,-3.286975196464642,4294967295,4294967295,9,12,2,7307629,44.46088790893555,21.424867630004883,16.768739700317383,-0.0195481907576322,0.0002619200095068,-1.8330016136169436,43.77297045781033,18.201520351628112,0.14826599334508328,3.2914523870668004,0.1681747659789895,0.15244452474371434,0.14826599334508328
43.75,18.25,10575,54886,7308079,1776876298963,2026-04-22T16:44:58.963000+00:00,240000,1500.0,0.0070553142577409,9.999999747378752e-05,8,-0.1221730485558509,-7.000000052497138,0.0035553143825381,2.639568916332988,-0.3249628744740568,-2.646610205899753,4294967295,4294967295,8,13,4,7308079,44.34480667114258,21.073392868041992,16.81522560119629,-0.0372214056551456,-0.0305172950029373,-1.845337986946106,43.75798275674567,18.49988130646641,-0.2374146006472322,2.627752179431387,0.14457884578921038,-0.3125783062140483,-0.2374146006472322
43.75,18.5,10686,54893,7308429,1776876299313,2026-04-22T16:44:59.313000+00:00,240000,1500.0,0.0070553142577409,9.999999747378752e-05,3,-0.3316125571727752,-18.999999959540737,0.0030886477325111,2.1657613204760686,-0.754174004984795,-2.190280353961569,4294967295,4294967295,3,9,5,7308429,44.26114273071289,20.814733505249023,16.85081672668457,-0.0268089119344949,-0.0171395037323236,-1.8536109924316408,43.758209798625586,18.708176939881668,-0.6847660034837344,2.1511656029141504,0.12421057743453759,-0.7186688097376384,-0.6847660034837344
43.75,18.75,10923,54908,7309180,1776876300064,2026-04-22T16:45:00.064000+00:00,240000,1500.0,0.0070553142577409,9.999999747378752e-05,0,-0.6632251143455505,-37.99999991908148,0.0026219810824841,1.4065960263612685,-1.2106895539500988,-1.549611968273014,4294967295,4294967295,0,9,8,7309180,44.05143737792969,20.26990509033203,16.95484733581543,-0.0250680670142173,0.0705844685435295,-1.8391716480255127,43.75019053719159,18.89594631281335,-1.247442223704908,1.4891346326300035,0.10254657445693202,-1.1430602472425546,-1.247442223704908
43.75,19.0,10782,54899,7308729,1776876299613,2026-04-22T16:44:59.613000+00:00,240000,1500.0,0.0070553142577409,9.999999747378752e-05,0,-0.6457718014717102,-36.99999875288908,0.0026886477135121,1.5234806999822859,-1.2135514044131928,-1.61043717992811,4294967295,4294967295,0,8,7,7308729,44.17367172241211,20.5853214263916,16.86469268798828,-0.0599218010902404,0.0227563790977001,-1.8532968759536743,43.78119269191738,19.113263800535726,-1.1879017447712772,1.549749614246701,0.1024107649821081,-1.148865599975533,-1.1879017447712772
43.75,19.25,10592,54887,7308129,1776876299013,2026-04-22T16:44:59.013000+00:00,240000,1500.0,0.0070553142577409,9.999999747378752e-05,1,-0.593411922454834,-33.99999866940647,0.0026219810824841,1.6076423147068368,-1.099644872909125,-1.6302906494682254,4294967295,4294967295,1,10,8,7308129,44.339874267578125,21.05755424499512,16.818145751953125,-0.0368024483323097,-0.0305710602551698,-1.845752835273743,43.970803314265055,19.49284965835375,-0.9908189763851614,1.575098088723922,0.10781621380694187,-1.0361842167006228,-0.9908189763851614
43.75,19.5,10624,54889,7308229,1776876299113,2026-04-22T16:44:59.113000+00:00,240000,1500.0,0.0070553142577409,9.999999747378752e-05,0,-0.6457718014717102,-36.99999875288908,0.002555314451456,1.5044682665820575,-1.1533699360080891,-1.530573670306849,4294967295,4294967295,0,13,12,7308229,44.31447982788086,20.976465225219727,16.831893920898438,-0.0308655463159084,-0.0279882326722145,-1.8482452630996704,43.97186108670685,19.51152933469456,-1.0460366936210017,1.4728956737325718,0.10526668415874918,-1.0849492103596692,-1.0460366936210017
44.0,16.0,13968,55100,7318779,1776876309663,2026-04-22T16:45:09.663000+00:00,240000,1500.0,0.0025914760772138,9.999999747378752e-05,5,-0.0523598790168762,-3.0000000834826057,0.0023289760574698,1.7445624702641946,-0.0914168943175358,-1.744338207411041,4294967295,4294967295,5,6,0,7318779,42.57236099243164,16.930112838745117,17.602783203125,-0.0439859256148338,0.0022190029267221,-0.5410011410713196,44.14123214476295,16.16713084679712,-0.04647507551420663,1.7378565188193482,0.155661799745513,-0.03580878936013246,-0.04647507551420663
44.0,16.25,14034,55104,7318979,1776876309863,2026-04-22T16:45:09.863000+00:00,240000,1500.0,0.0034654985647648,9.999999747378752e-05,10,0.6457718014717102,36.99999875288908,0.0024684069212526,1.554092073183628,1.114143244165028,-1.4785180896697894,4294967295,4294967295,10,11,0,7318979,42.549747467041016,16.95438003540039,17.564990997314453,-0.0487352274358272,-0.0002682659251149,-0.4724573493003845,44.035447569785994,16.498422387547272,1.1685079802633707,1.5307543762958036,0.21287180823035828,1.1798685115653198,1.1685079802633707
44.0,16.5,14173,55113,7319429,1776876310313,2026-04-22T16:45:10.313000+00:00,240000,1500.0,0.0043434067629277,9.999999747378752e-05,8,0.0174532923847436,0.9999999922536332,0.0020294936839491,1.5316773127464425,0.026564661269876,-1.5218884366768222,4294967295,4294967295,8,13,4,7319429,42.50553131103516,16.990190505981445,17.4941349029541,-0.026224160566926,0.0210977084934711,-0.3264680504798889,44.00048174319393,16.65678595326736,0.056314882632896426,1.5213843334062938,0.16126062935239346,0.09269021455842456,0.056314882632896426
44.0,16.75,14298,55121,7319829,1776876310713,2026-04-22T16:45:10.713000+00:00,240000,1500.0,0.0035461604129523,9.999999747378752e-05,8,0.1745329201221466,9.99999970909292,0.0021128270309418,1.5943845700835424,0.2751664148130211,-1.560546332031068,4294967295,4294967295,8,11,2,7319829,42.45048141479492,17.010974884033203,17.496450424194336,-0.0405071564018726,0.0377096645534038,-0.2073474824428558,44.03841037576222,16.867643895611984,0.2720557754957033,1.5720406119996886,0.1730580569344406,0.33884469223344305,0.2720557754957033
44.0,17.0,14489,55133,7320429,1776876311313,2026-04-22T16:45:11.313000+00:00,240000,1500.0,0.0043475208804011,9.999999747378752e-05,4,-0.1919862180948257,-11.000000021511672,0.0024308541323989,1.7705524752169393,-0.3478716268543975,-1.7896443713885737,4294967295,4294967295,4,7,2,7320429,42.33708190917969,17.00605010986328,17.422927856445312,-0.0460935421288013,0.0155963292345404,-0.0276624597609043,44.10578476352368,17.086959197932824,-0.3277486520238082,1.7706850354805133,0.143491708054459,-0.293870517822474,-0.3277486520238082
44.0,17.25,14635,55142,7320879,1776876311763,2026-04-22T16:45:11.763000+00:00,240000,1500.0,0.0052217235788702,9.999999747378752e-05,7,-0.1570796370506286,-9.000000250447817,0.0024467234034091,1.795927328425612,-0.2870639079577609,-1.8124501324015372,4294967295,4294967295,7,11,3,7320879,42.23812103271485,16.9805850982666,17.421106338500977,-0.0155216008424758,0.0238876454532146,0.1122056618332862,44.001129619824894,17.322865233188576,-0.2793930227539694,1.7964098766678993,0.14637734602719377,-0.23430889383381104,-0.2793930227539694
44.0,17.5,15377,55189,7323229,1776876314113,2026-04-22T16:45:14.113000+00:00,240000,1500.0,0.0044225309975445,9.999999747378752e-05,7,-0.0523598790168762,-3.0000000834826057,0.0025266977027058,1.887189931825891,-0.0991778580633231,-1.892426213344446,4294967295,4294967295,7,10,2,7323229,42.27919006347656,17.045082092285156,17.271692276000977,-0.0532079003751277,0.0436427183449268,0.2916262447834015,44.03698729587166,17.73183876576503,-0.14112297071559107,1.8853942528304006,0.15529350223170674,-0.05073431981706697,-0.14112297071559107
44.0,17.75,16029,55230,7325279,1776876316163,2026-04-22T16:45:16.163000+00:00,240000,1500.0,0.0044225309975445,9.999999747378752e-05,0,-0.6457718014717102,-36.99999875288908,0.0013600310776382,0.7790907082466723,-0.6138653331259608,-0.8146268483888667,4294967295,4294967295,0,6,5,7325279,43.38782501220703,17.63517189025879,16.82862663269043,-0.011135758832097,0.0285167768597602,0.2996320724487304,44.08559194274915,17.98173161428646,-0.535531326588039,0.7839285256081883,0.130868943161232,-0.5119624203856024,-0.535531326588039
44.0,18.0,16043,55231,7325329,1776876316213,2026-04-22T16:45:16.213000+00:00,240000,1500.0,0.0044225309975445,9.999999747378752e-05,1,-0.4537855982780456,-25.99999958515105,0.00138337071985,0.9070360860946209,-0.4548223499194063,-0.9325240284125044,4294967295,4294967295,1,8,6,7325329,43.41291809082031,17.651765823364258,16.82496452331543,-0.0156394112855196,0.032278086990118,0.2958725094795227,44.23247748056037,18.04040044375564,-0.3902847164378583,0.9093920276747092,0.13841634799675917,-0.35900372696081134,-0.3902847164378583
44.0,18.25,9924,54845,7306029,1776876296913,2026-04-22T16:44:56.913000+00:00,240000,1500.0,0.0088078556582331,9.999999747378752e-05,10,0.1396263390779495,7.999999938029066,0.0055995224975049,4.198040739785972,0.5844771779069468,-4.158771247741569,4294967295,4294967295,10,13,2,7306029,44.85034942626953,22.52230834960937,16.608470916748047,-0.0183596648275852,0.0239671878516674,-1.8198413848876955,44.00795651177776,18.409654677037754,0.41751755096381843,4.182192766409216,0.1877364382247601,0.5214265553485694,0.41751755096381843
44.0,18.5,9955,54847,7306129,1776876297013,2026-04-22T16:44:57.013000+00:00,240000,1500.0,0.0088078556582331,9.999999747378752e-05,8,0.0698131695389747,3.999999969014533,0.0050161890685558,3.7708603772541127,0.2624337437626081,-3.752977413215132,4294967295,4294967295,8,12,3,7306129,44.82314682006836,22.438844680786133,16.596704483032227,-0.0240343883633613,0.0369481407105922,-1.823114275932312,44.05486052860355,18.747080311396846,0.0765104370608338,3.7612746300102224,0.17245382642318152,0.21980597607376315,0.0765104370608338
44.0,18.75,10097,54856,7306579,1776876297463,2026-04-22T16:44:57.463000+00:00,240000,1500.0,0.0079315844923257,9.999999747378752e-05,6,-0.0349065847694873,-1.9999999845072665,0.0044440855272114,3.31679820295524,-0.1163222602512017,-3.3310337328190207,4294967295,4294967295,6,10,3,7306579,44.71906661987305,22.145523071289062,16.657827377319336,-0.0613461434841156,0.0376625470817089,-1.8311433792114256,44.00693551672681,18.906075647567103,-0.2717869003521491,3.3214781299435288,0.1544799124626632,-0.13761332523598935,-0.2717869003521491
44.0,19.0,10350,54872,7307379,1776876298263,2026-04-22T16:44:58.263000+00:00,240000,1500.0,0.0079315844923257,9.999999747378752e-05,3,-0.2268927991390228,-12.999999792575526,0.0034315849188715,2.480219845177952,-0.5789539750994244,-2.507725216883613,4294967295,4294967295,3,8,4,7307379,44.51984024047852,21.611120223999023,16.758081436157227,-0.0252471677958965,-0.001191112678498,-1.8289737701416016,44.001757453366814,19.185613945690697,-0.5594654538495439,2.476725666740168,0.13252566606136834,-0.5592485976836054,-0.5594654538495439
44.0,19.25,10416,54876,7307579,1776876298463,2026-04-22T16:44:58.463000+00:00,240000,1500.0,0.0070553142577409,9.999999747378752e-05,1,-0.3839724361896515,-22.000000043023345,0.0031219809316098,2.1284806151352536,-0.8771359827550488,-2.170987734881896,4294967295,4294967295,1,9,7,7307579,44.47003555297852,21.45363044738769,16.766008377075195,-0.0227873567491769,-0.0002721249475143,-1.8318595886230469,44.017089175853215,19.373902266000613,-0.8423124826029087,2.125938614397718,0.11837540126455898,-0.840411993931181,-0.8423124826029087
44.0,19.5,10592,54887,7308129,1776876299013,2026-04-22T16:44:59.013000+00:00,240000,1500.0,0.0070553142577409,9.999999747378752e-05,0,-0.6632251143455505,-37.99999991908148,0.0025219810195267,1.4666245941912508,-1.1645149143138052,-1.4905111244789628,4294967295,4294967295,0,10,9,7308129,44.339874267578125,21.05755424499512,16.818145751953125,-0.0368024483323097,-0.0305710602551698,-1.845752835273743,44.0040524810132,19.629894822039144,-1.0529442844251773,1.432340341469836,0.10473779780701896,-1.0941254527241897,-1.0529442844251773
44.0,19.75,10495,54881,7307829,1776876298713,2026-04-22T16:44:58.713000+00:00,240000,1500.0,0.0070553142577409,9.999999747378752e-05,0,-0.6632251143455505,-37.99999991908148,0.0025219810195267,1.445644327393299,-1.1645149143138052,-1.4905111244789628,4294967295,4294967295,0,10,9,7307829,44.41165542602539,21.275835037231445,16.78278923034668,-0.0189429372549057,-0.0099764121696352,-1.8395917415618896,44.10936198296747,19.862149713119813,-1.0815691587068663,1.432340341469836,0.10473779780701896,-1.0941254527241897,-1.0815691587068663
44.0,20.0,10399,54875,7307529,1776876298413,2026-04-22T16:44:58.413000+00:00,240000,1500.0,0.0079315844923257,9.999999747378752e-05,1,-0.593411922454834,-33.99999866940647,0.0023886477574706,1.4391891014469729,-1.0017861216602943,-1.4852090771715754,4294967295,4294967295,1,14,12,7307529,44.48359298706055,21.49663543701172,16.763917922973633,-0.0271233208477497,-0.0017357978504151,-1.8303922414779663,44.19908135669055,20.085848988994886,-0.9317292767545646,1.4349281703673065,0.11246011319491334,-0.9315141350037851,-0.9317292767545646
44.25,16.0,14003,55102,7318879,1776876309763,2026-04-22T16:45:09.763000+00:00,240000,1500.0,0.0034654985647648,9.999999747378752e-05,8,0.0698131695389747,3.999999969014533,0.002498832065612,1.8818816653406596,0.130732284020831,-1.8695587772890303,4294967295,4294967295,8,11,2,7318879,42.56037521362305,16.943424224853516,17.59260368347168,-0.0476159453392028,0.0004385803476907,-0.5062320232391357,44.283777453591206,16.187538438760097,0.1708191381466659,1.8736920647507957,0.1662039170335285,0.17975562510007292,0.1708191381466659
44.25,16.25,14111,55109,7319229,1776876310113,2026-04-22T16:45:10.113000+00:00,240000,1500.0,0.0043434067629277,9.999999747378752e-05,7,0.0174532923847436,0.9999999922536332,0.0024267402477562,1.8270342182703725,0.0317643425951337,-1.8197779826010412,4294967295,4294967295,7,12,4,7319229,42.52604293823242,16.975435256958008,17.501232147216797,-0.036550898104906,0.0061659258790314,-0.3931776285171509,44.26982195768391,16.430193323453587,0.06625399910712518,1.81917520777829,0.16150738088576028,0.08342994937516542,0.06625399910712518
44.25,16.5,14252,55118,7319679,1776876310563,2026-04-22T16:45:10.563000+00:00,240000,1500.0,0.0035461604129523,9.999999747378752e-05,5,-0.1047197580337524,-6.000000166965211,0.0024461604189127,1.812659497481917,-0.1917700474382996,-1.8245700715851465,4294967295,4294967295,5,9,3,7319679,42.47538375854492,17.003000259399414,17.504148483276367,-0.0369826555252075,0.0356536954641342,-0.2554203271865845,44.26035923278884,16.68741031951051,-0.20984485520827628,1.8131322038633892,0.1508995282019745,-0.13982224705204616,-0.20984485520827628
44.25,16.75,14347,55124,7319979,1776876310863,2026-04-22T16:45:10.863000+00:00,240000,1500.0,0.0035461604129523,9.999999747378752e-05,7,0.0872664600610733,4.99999985454646,0.002429493702948,1.8351177565526946,0.1588082415277886,-1.815186559846287,4294967295,4294967295,7,10,2,7319979,42.42529296875,17.0163631439209,17.47843360900879,-0.0393272340297699,0.0345292761921882,-0.1651112288236618,44.25601448701488,16.889414717475642,0.14067645822198005,1.8207440176050675,0.16753626513954248,0.21040406015884214,0.14067645822198005
44.25,17.0,14444,55130,7320279,1776876311163,2026-04-22T16:45:11.163000+00:00,240000,1500.0,0.0043475208804011,9.999999747378752e-05,5,-0.1221730485558509,-7.000000052497138,0.002555854152888,1.8906886102722797,-0.2336102023320959,-1.9026024024901065,4294967295,4294967295,5,9,3,7320279,42.36841583251953,17.013696670532227,17.428800582885742,-0.0439898893237113,0.0172745827585458,-0.0734666436910629,44.25910354119003,17.015543098333687,-0.22432227170112953,1.8890456927090613,0.14891399837225214,-0.18535073385505063,-0.22432227170112953
44.25,17.25,14680,55145,7321029,1776876311913,2026-04-22T16:45:11.913000+00:00,240000,1500.0,0.0044225309975445,9.999999747378752e-05,6,-0.0523598790168762,-3.0000000834826057,0.0029016979970037,2.1686288412096824,-0.1138973577176569,-2.1732909903936792,4294967295,4294967295,6,8,1,7321029,42.21014404296875,16.97382164001465,17.39719581604004,-0.0068977908231318,0.0202397722750902,0.1517168283462524,44.32516491261061,17.453026994644414,-0.1239107302819772,2.1652153801943412,0.15459498651835787,-0.07904218822076214,-0.1239107302819772
44.25,17.5,14712,55147,7321129,1776876312013,2026-04-22T16:45:12.013000+00:00,240000,1500.0,0.0044225309975445,9.999999747378752e-05,6,-0.0349065847694873,-1.9999999845072665,0.0029225312173366,2.1887287381488325,-0.0764961508444709,-2.1905631677330875,4294967295,4294967295,6,8,1,7321129,42.19087219238281,16.971481323242188,17.386215209960938,-0.0051364935934543,0.0179172698408365,0.1791696697473526,44.31124817238019,17.514195974462094,-0.08249469790225282,2.184279187028148,0.15636986550967197,-0.04256480537626095,-0.08249469790225282
44.25,17.75,15599,55203,7323929,1776876314813,2026-04-22T16:45:14.813000+00:00,240000,1500.0,0.0044225309975445,9.999999747378752e-05,5,-0.0698131695389747,-3.999999969014533,0.0026725311763584,1.9900234209268484,-0.139819762044169,-1.999515768625964,4294967295,4294967295,5,8,2,7323929,42.57294845581055,17.154563903808594,17.15162467956543,0.0007438609027303,0.0446745716035366,0.3553333878517151,44.37972123766412,17.988689392323657,-0.18515656126253166,1.9903888204597324,0.15336483555024938,-0.0964766221502801,-0.18515656126253166
44.25,18.0,16137,55237,7325629,1776876316513,2026-04-22T16:45:16.513000+00:00,240000,1500.0,0.0043477187864482,9.999999747378752e-05,0,-0.6283185482025146,-36.00000100179127,0.0014935518847778,0.8631114943447434,-0.6584158443995906,-0.9062316310623982,4294967295,4294967295,0,6,5,7325629,43.59846115112305,17.77800750732422,16.839006423950195,-0.040386326611042,0.0288695339113473,0.2657720148563385,44.397121153921056,18.10527444974386,-0.5905661271792682,0.8732671859752964,0.12875479302752185,-0.560853302934697,-0.5905661271792682
44.25,18.75,9369,54810,7304279,1776876295163,2026-04-22T16:44:55.163000+00:00,240000,1500.0,0.0096841258928179,9.999999747378752e-05,6,0.1919862180948257,11.000000021511672,0.0066132931970059,4.921721163704464,0.946406875116442,-4.86884128036261,4294967295,4294967295,6,7,0,7304279,45.26509475708008,23.731393814086918,16.474685668945312,-0.0509726963937282,0.0079745333641767,-1.8286248445510864,44.25140297251755,18.915195294593886,0.7973690752356958,4.90896135569326,0.20491185767279801,0.8480838368309602,0.7973690752356958
44.25,19.0,9577,54823,7304929,1776876295813,2026-04-22T16:44:55.813000+00:00,240000,1500.0,0.0096841258928179,9.999999747378752e-05,9,0.0698131695389747,3.999999969014533,0.0055132932029664,4.141824171799483,0.2884409171865573,-4.124897323521868,4294967295,4294967295,9,11,1,7304929,45.10991287231445,23.28770637512207,16.45676612854004,-0.0269714947789907,0.0220024287700653,-1.8215479850769043,44.25730539321754,19.234588074764865,0.13194283180493682,4.134016794166757,0.17368800011950475,0.22771474508441059,0.13194283180493682
44.25,19.25,9747,54834,7305479,1776876296363,2026-04-22T16:44:56.363000+00:00,240000,1500.0,0.0088078556582331,9.999999747378752e-05,7,-0.0349065847694873,-1.9999999845072665,0.0047245221212506,3.5291796421808805,-0.1236625821860628,-3.5412330525534474,4294967295,4294967295,7,11,3,7305479,44.97135543823242,22.89822006225586,16.5483341217041,-0.0304088629782199,0.0248363427817821,-1.8175702095031736,44.25485015724568,19.442539358096102,-0.24738686773686178,3.53107445931965,0.15413157655906948,-0.15513165041501203,-0.24738686773686178
44.25,19.5,9924,54845,7306029,1776876296913,2026-04-22T16:44:56.913000+00:00,240000,1500.0,0.0088078556582331,9.999999747378752e-05,6,-0.1570796370506286,-9.000000250447817,0.0038911886513233,2.848127137888587,-0.4565370238799243,-2.8824612444805338,4294967295,4294967295,6,13,6,7306029,44.85034942626953,22.52230834960937,16.608470916748047,-0.0183596648275852,0.0239671878516674,-1.8198413848876955,44.27502208546876,19.73289503414238,-0.5260865659331242,2.8569513478620236,0.1383349779276115,-0.4552885878910946,-0.5260865659331242
44.25,19.75,9989,54849,7306229,1776876297113,2026-04-22T16:44:57.113000+00:00,240000,1500.0,0.0088078556582331,9.999999747378752e-05,4,-0.2443460971117019,-14.000000104994276,0.0034328554756939,2.43631829675744,-0.6228621825775577,-2.498163746600346,4294967295,4294967295,4,9,4,7306229,44.79939270019531,22.37069320678711,16.595157623291016,-0.0318739861249923,0.0470738001167774,-1.826904058456421,44.290420237334864,19.98813284550246,-0.7217674452541301,2.465048251207659,0.13044199653531702,-0.6025919787896974,-0.7217674452541301
44.25,20.0,10273,54867,7307129,1776876298013,2026-04-22T16:44:58.013000+00:00,240000,1500.0,0.0079315844923257,9.999999747378752e-05,0,-0.6632251143455505,-37.99999991908148,0.0028315850067883,1.59476676559423,-1.3074733497285471,-1.6734895781721382,4294967295,4294967295,0,10,9,7307129,44.58040237426758,21.77632713317871,16.733783721923828,-0.0043124021030962,0.0128156440332531,-1.8304545879364011,44.26111371696846,20.21384968055291,-1.2665472082455451,1.6081776207361167,0.0979536872164415,-1.2456294323283683,-1.2665472082455451
44.25,20.25,10242,54865,7307029,1776876297913,2026-04-22T16:44:57.913000+00:00,240000,1500.0,0.0079315844923257,9.999999747378752e-05,0,-0.6632251143455505,-37.99999991908148,0.0028690849430859,1.6094527087564026,-1.3247887992764165,-1.6956523429931116,4294967295,4294967295,0,13,12,7307029,44.60657501220703,21.84428977966309,16.7139892578125,-0.0081310607492923,0.0174897201359272,-1.830574989318848,44.277699917582524,20.268796462045067,-1.293032118885393,1.629475430333268,0.09713198037334746,-1.263979937547083,-1.293032118885393
44.25,20.5,10034,54852,7306379,1776876297263,2026-04-22T16:44:57.263000+00:00,240000,1500.0,0.0088078556582331,9.999999747378752e-05,0,-0.5585053563117981,-31.999999752116263,0.0028690849430859,1.7089379632361679,-1.140287528652017,-1.8248415227046304,4294967295,4294967295,0,9,8,7306379,44.76597595214844,22.278154373168945,16.613178253173828,-0.0459480546414852,0.0523299016058445,-1.8304808139801023,44.38140918480253,20.613048561623355,-1.1808428706024872,1.7674510071359428,0.10588751145052175,-1.086169240742648,-1.1808428706024872
44.25,20.75,9924,54845,7306029,1776876296913,2026-04-22T16:44:56.913000+00:00,240000,1500.0,0.0088078556582331,9.999999747378752e-05,0,-0.6632251143455505,-37.99999991908148,0.0032245221082121,1.7974264248975333,-1.4889105260801174,-1.905718574488103,4294967295,4294967295,0,13,12,7306029,44.85034942626953,22.52230834960937,16.608470916748047,-0.0183596648275852,0.0239671878516674,-1.8198413848876955,44.4685827942748,20.765892683653465,-1.4827847417127764,1.8313433216957011,0.08934356311960048,-1.4379122744402046,-1.4827847417127764
44.5,15.75,13985,55101,7318829,1776876309713,2026-04-22T16:45:09.713000+00:00,240000,1500.0,0.0025914760772138,9.999999747378752e-05,6,-0.0698131695389747,-3.999999969014533,0.0031154986936599,2.3246667367871243,-0.1629946508575432,-2.3309321216580696,4294967295,4294967295,6,7,0,7318829,42.567291259765625,16.935829162597656,17.60130500793457,-0.0456494428217411,0.0014538873219862,-0.5269193649291992,44.6460556338932,15.895245617666017,-0.1458525782687277,2.320292397287205,0.15226506827748826,-0.13567222186503158,-0.1458525782687277
44.5,16.0,14017,55103,7318929,1776876309813,2026-04-22T16:45:09.813000+00:00,240000,1500.0,0.0034654985647648,9.999999747378752e-05,9,0.5235987901687622,30.000000834826057,0.0031321654096245,2.1067763570491964,1.174562058251383,-2.034401093078418,4294967295,4294967295,9,10,0,7318929,42.55609893798828,16.948036193847656,17.583171844482422,-0.0484820306301116,-5.361306466511451e-05,-0.4926576018333435,44.52626324423411,16.201739185267037,1.2014183842915405,2.088910255278839,0.21573899067625057,1.2131872839871316,1.2014183842915405
44.5,16.25,14097,55108,7319179,1776876310063,2026-04-22T16:45:10.063000+00:00,240000,1500.0,0.0043434067629277,9.999999747378752e-05,10,0.5061454772949219,28.99999966863366,0.0030309068970382,2.0605419595856493,1.102059604817889,-1.988168183364447,4294967295,4294967295,10,11,0,7319179,42.52983093261719,16.972217559814453,17.507909774780273,-0.0395458899438381,0.0045981700532138,-0.4059490859508514,44.50970414404287,16.401310182132207,1.1244184084247821,2.0392192674756373,0.21229837760047054,1.1430940916835919,1.1244184084247821
44.5,16.75,14411,55128,7320179,1776876311063,2026-04-22T16:45:11.063000+00:00,240000,1500.0,0.0035461604129523,9.999999747378752e-05,4,0.1919862180948257,11.000000021511672,0.0028475208673626,2.132430295715825,0.4074994477984999,-2.096402916475217,4294967295,4294967295,4,5,0,7320179,42.38705062866211,17.01732063293457,17.442636489868164,-0.041009847074747,0.0232554376125335,-0.1037411913275718,44.519351315135104,16.993810027806752,0.3878885432996254,2.1136776309481675,0.17933793771206308,0.44488342814305754,0.3878885432996254
44.5,17.0,14458,55131,7320329,1776876311213,2026-04-22T16:45:11.213000+00:00,240000,1500.0,0.0043475208804011,9.999999747378752e-05,5,0.0,0.0,0.0028683540876954,2.1549707568511844,0.0,-2.151265565771609,4294967295,4294967295,5,8,2,7320329,42.35694122314453,17.011470794677734,17.42442512512207,-0.0453134663403034,0.0157421473413705,-0.0559795647859573,44.511522567246736,17.052436567348376,-0.005450866762735424,2.148733802158103,0.16,0.035661215562844226,-0.005450866762735424
44.5,17.25,14585,55139,7320729,1776876311613,2026-04-22T16:45:11.613000+00:00,240000,1500.0,0.0052217235788702,9.999999747378752e-05,7,0.0,0.0,0.0030967234633862,2.3252055811938335,0.0,-2.322542597539723,4294967295,4294967295,7,11,3,7320729,42.27278900146485,16.989757537841797,17.43430519104004,-0.0291842948645353,0.0252095572650432,0.0639384165406227,44.57742298785228,17.29837248174915,-0.03580875919379911,2.3198092628306908,0.16,0.027354088083546127,-0.03580875919379911
44.5,17.75,15502,55197,7323629,1776876314513,2026-04-22T16:45:14.513000+00:00,240000,1500.0,0.0044225309975445,9.999999747378752e-05,5,0.0523598790168762,3.0000000834826057,0.0030266977846622,2.2800789932404864,0.1188038454170201,-2.266912350231866,4294967295,4294967295,5,7,1,7323629,42.4306869506836,17.086841583251953,17.20166015625,0.0166386924684047,0.0399917438626289,0.3399583101272583,44.52036457103546,17.998986121369214,0.0604398039083595,2.2700001127076197,0.16563785147449803,0.1485825554341373,0.0604398039083595
44.5,18.0,16265,55245,7326029,1776876316913,2026-04-22T16:45:16.913000+00:00,240000,1500.0,0.0052255489863455,9.999999747378752e-05,0,-0.6108652353286743,-34.99999983559887,0.0014255490386858,0.8442948812608446,-0.6132460005768343,-0.8758060587149078,4294967295,4294967295,0,10,9,7326029,43.86481857299805,17.929018020629883,16.784896850585938,-0.0440708734095096,0.0146859930828213,0.2214667946100235,44.65796381360382,18.21842167269335,-0.5319334857954717,0.8450657403303682,0.13089833366549591,-0.5143117737299742,-0.5319334857954717
44.5,18.75,8845,54777,7302629,1776876293513,2026-04-22T16:44:53.513000+00:00,240000,1500.0,0.0114366672933101,9.999999747378752e-05,10,0.2268927991390228,12.999999792575526,0.0081866672262549,6.077494107393181,1.3811995464227442,-5.982632611716165,4294967295,4294967295,10,11,0,7302629,45.66269302368164,24.92807960510254,16.289169311523438,-0.0349920690059661,0.0254417769610881,-1.8048675060272217,44.51550157904767,18.959839796351766,1.065103020449522,6.042506069777913,0.22554499875018263,1.2278554148617795,1.065103020449522
