{"packet_index": 10, "message": {"header": {"component_id": 1, "sequence": 130, "system_id": 1}, "message": {"airspeed": 0.030000001192092896, "alt": 16.279998779296875, "climb": -0.08180450648069382, "groundspeed": 0.05098872259259224, "heading": 206, "throttle": 0, "type": "VFR_HUD"}}}
{"packet_index": 35, "message": {"header": {"component_id": 1, "sequence": 144, "system_id": 1}, "message": {"autopilot": {"type": "MAV_AUTOPILOT_ARDUPILOTMEGA"}, "base_mode": {"bits": 129}, "custom_mode": 4, "mavlink_version": 3, "mavtype": {"type": "MAV_TYPE_SURFACE_BOAT"}, "system_status": {"type": "MAV_STATE_STANDBY"}, "type": "HEARTBEAT"}}}
{"packet_index": 37, "message": {"header": {"component_id": 1, "sequence": 147, "system_id": 1}, "message": {"airspeed": 0.030000001192092896, "alt": 16.279998779296875, "climb": -0.07101605087518692, "groundspeed": 0.05313940718770027, "heading": 206, "throttle": 0, "type": "VFR_HUD"}}}
{"packet_index": 61, "message": {"header": {"component_id": 1, "sequence": 152, "system_id": 1}, "message": {"airspeed": 0.0430000014603138, "alt": 16.28999900817871, "climb": -0.032072942703962326, "groundspeed": 0.046287357807159424, "heading": 206, "throttle": 0, "type": "VFR_HUD"}}}
{"packet_index": 85, "message": {"header": {"component_id": 1, "sequence": 158, "system_id": 1}, "message": {"airspeed": 0.0430000014603138, "alt": 16.309999465942383, "climb": 0.019060295075178146, "groundspeed": 0.038643285632133484, "heading": 206, "throttle": 0, "type": "VFR_HUD"}}}
{"packet_index": 109, "message": {"header": {"component_id": 1, "sequence": 163, "system_id": 1}, "message": {"airspeed": 0.04200000315904617, "alt": 16.329999923706055, "climb": 0.06720564514398575, "groundspeed": 0.03127100691199303, "heading": 207, "throttle": 0, "type": "VFR_HUD"}}}
{"packet_index": 135, "message": {"header": {"component_id": 1, "sequence": 190, "system_id": 1}, "message": {"airspeed": 0.04200000315904617, "alt": 16.350000381469727, "climb": 0.09227045625448227, "groundspeed": 0.031795065850019455, "heading": 207, "throttle": 0, "type": "VFR_HUD"}}}
{"packet_index": 159, "message": {"header": {"component_id": 1, "sequence": 195, "system_id": 1}, "message": {"airspeed": 0.014000000432133675, "alt": 16.350000381469727, "climb": 0.09777281433343887, "groundspeed": 0.0404464527964592, "heading": 207, "throttle": 0, "type": "VFR_HUD"}}}
{"packet_index": 183, "message": {"header": {"component_id": 1, "sequence": 200, "system_id": 1}, "message": {"airspeed": 0.014000000432133675, "alt": 16.34000015258789, "climb": 0.08138324320316315, "groundspeed": 0.047262899577617645, "heading": 207, "throttle": 0, "type": "VFR_HUD"}}}
{"packet_index": 209, "message": {"header": {"component_id": 1, "sequence": 218, "system_id": 1}, "message": {"airspeed": 0.06200000271201134, "alt": 16.31999969482422, "climb": 0.059449970722198486, "groundspeed": 0.0472395233809948, "heading": 207, "throttle": 0, "type": "VFR_HUD"}}}
{"packet_index": 222, "message": {"header": {"component_id": 1, "sequence": 221, "system_id": 1}, "message": {"altitude": 32970, "latitude": 634405552, "longitude": 103484873, "time_usec": 8524367481, "type": "GPS_GLOBAL_ORIGIN"}}}
{"packet_index": 223, "message": {"header": {"component_id": 1, "sequence": 222, "system_id": 1}, "message": {"altitude": 6860, "approach_x": 0.0, "approach_y": 0.0, "approach_z": 0.0, "latitude": 634405553, "longitude": 103484876, "q": [null, null, null, null], "time_usec": 8524367490, "type": "HOME_POSITION", "x": 0.011131884530186653, "y": 0.01493206899613142, "z": 26.10999870300293}}}
{"packet_index": 235, "message": {"header": {"component_id": 1, "sequence": 226, "system_id": 1}, "message": {"airspeed": 0.06200000271201134, "alt": 16.309999465942383, "climb": 0.04172343388199806, "groundspeed": 0.038202881813049316, "heading": 207, "throttle": 0, "type": "VFR_HUD"}}}
{"packet_index": 259, "message": {"header": {"component_id": 1, "sequence": 242, "system_id": 1}, "message": {"airspeed": 0.05000000074505806, "alt": 16.299999237060547, "climb": 0.029152140021324158, "groundspeed": 0.029423033818602562, "heading": 207, "throttle": 0, "type": "VFR_HUD"}}}
{"packet_index": 284, "message": {"header": {"component_id": 1, "sequence": 0, "system_id": 1}, "message": {"autopilot": {"type": "MAV_AUTOPILOT_ARDUPILOTMEGA"}, "base_mode": {"bits": 129}, "custom_mode": 4, "mavlink_version": 3, "mavtype": {"type": "MAV_TYPE_SURFACE_BOAT"}, "system_status": {"type": "MAV_STATE_STANDBY"}, "type": "HEARTBEAT"}}}
{"packet_index": 296, "message": {"header": {"component_id": 1, "sequence": 3, "system_id": 1}, "message": {"airspeed": 0.05000000074505806, "alt": 16.299999237060547, "climb": 0.019096627831459045, "groundspeed": 0.0361943282186985, "heading": 207, "throttle": 0, "type": "VFR_HUD"}}}
{"packet_index": 310, "message": {"header": {"component_id": 1, "sequence": 8, "system_id": 1}, "message": {"airspeed": 0.027000000700354576, "alt": 16.279998779296875, "climb": 0.007905370555818081, "groundspeed": 0.05028567835688591, "heading": 207, "throttle": 0, "type": "VFR_HUD"}}}
{"packet_index": 334, "message": {"header": {"component_id": 1, "sequence": 13, "system_id": 1}, "message": {"airspeed": 0.027000000700354576, "alt": 16.270000457763672, "climb": -0.0008428847067989409, "groundspeed": 0.06112369894981384, "heading": 207, "throttle": 0, "type": "VFR_HUD"}}}
{"packet_index": 358, "message": {"header": {"component_id": 1, "sequence": 18, "system_id": 1}, "message": {"airspeed": 0.026000000536441803, "alt": 16.260000228881836, "climb": -0.004533502273261547, "groundspeed": 0.06345254182815552, "heading": 207, "throttle": 0, "type": "VFR_HUD"}}}
{"packet_index": 384, "message": {"header": {"component_id": 1, "sequence": 45, "system_id": 1}, "message": {"airspeed": 0.026000000536441803, "alt": 16.25, "climb": 0.0031922233756631613, "groundspeed": 0.06329938769340515, "heading": 207, "throttle": 0, "type": "VFR_HUD"}}}
{"packet_index": 408, "message": {"header": {"component_id": 1, "sequence": 50, "system_id": 1}, "message": {"airspeed": 0.04500000178813934, "alt": 16.260000228881836, "climb": 0.020063888281583786, "groundspeed": 0.05761754885315895, "heading": 207, "throttle": 0, "type": "VFR_HUD"}}}
{"packet_index": 432, "message": {"header": {"component_id": 1, "sequence": 55, "system_id": 1}, "message": {"airspeed": 0.04500000178813934, "alt": 16.270000457763672, "climb": 0.047667574137449265, "groundspeed": 0.058700524270534515, "heading": 207, "throttle": 0, "type": "VFR_HUD"}}}
{"packet_index": 458, "message": {"header": {"component_id": 1, "sequence": 73, "system_id": 1}, "message": {"airspeed": 0.04500000178813934, "alt": 16.28999900817871, "climb": 0.06946875900030136, "groundspeed": 0.059156179428100586, "heading": 207, "throttle": 0, "type": "VFR_HUD"}}}
{"packet_index": 471, "message": {"header": {"component_id": 1, "sequence": 76, "system_id": 1}, "message": {"altitude": 32970, "latitude": 634405552, "longitude": 103484873, "time_usec": 8525367378, "type": "GPS_GLOBAL_ORIGIN"}}}
{"packet_index": 472, "message": {"header": {"component_id": 1, "sequence": 77, "system_id": 1}, "message": {"altitude": 6860, "approach_x": 0.0, "approach_y": 0.0, "approach_z": 0.0, "latitude": 634405553, "longitude": 103484876, "q": [null, null, null, null], "time_usec": 8525367385, "type": "HOME_POSITION", "x": 0.011131884530186653, "y": 0.01493206899613142, "z": 26.10999870300293}}}
{"packet_index": 484, "message": {"header": {"component_id": 1, "sequence": 81, "system_id": 1}, "message": {"airspeed": 0.04500000178813934, "alt": 16.299999237060547, "climb": 0.07432153820991516, "groundspeed": 0.06276516616344452, "heading": 207, "throttle": 0, "type": "VFR_HUD"}}}
{"packet_index": 508, "message": {"header": {"component_id": 1, "sequence": 97, "system_id": 1}, "message": {"airspeed": 0.04400000348687172, "alt": 16.299999237060547, "climb": 0.06114499643445015, "groundspeed": 0.06722621619701385, "heading": 207, "throttle": 0, "type": "VFR_HUD"}}}
{"packet_index": 533, "message": {"header": {"component_id": 1, "sequence": 111, "system_id": 1}, "message": {"autopilot": {"type": "MAV_AUTOPILOT_ARDUPILOTMEGA"}, "base_mode": {"bits": 129}, "custom_mode": 4, "mavlink_version": 3, "mavtype": {"type": "MAV_TYPE_SURFACE_BOAT"}, "system_status": {"type": "MAV_STATE_STANDBY"}, "type": "HEARTBEAT"}}}
{"packet_index": 535, "message": {"header": {"component_id": 1, "sequence": 114, "system_id": 1}, "message": {"airspeed": 0.04400000348687172, "alt": 16.279998779296875, "climb": 0.038462478667497635, "groundspeed": 0.07261183857917786, "heading": 207, "throttle": 0, "type": "VFR_HUD"}}}
{"packet_index": 559, "message": {"header": {"component_id": 1, "sequence": 119, "system_id": 1}, "message": {"airspeed": 0.06100000441074371, "alt": 16.25, "climb": 0.01322011835873127, "groundspeed": 0.07302292436361313, "heading": 207, "throttle": 0, "type": "VFR_HUD"}}}
{"packet_index": 583, "message": {"header": {"component_id": 1, "sequence": 124, "system_id": 1}, "message": {"airspeed": 0.06100000441074371, "alt": 16.229999542236328, "climb": 0.0024940278381109238, "groundspeed": 0.0749187096953392, "heading": 207, "throttle": 0, "type": "VFR_HUD"}}}
{"packet_index": 607, "message": {"header": {"component_id": 1, "sequence": 129, "system_id": 1}, "message": {"airspeed": 0.07100000232458115, "alt": 16.219999313354492, "climb": 0.006458966992795467, "groundspeed": 0.07861948013305664, "heading": 207, "throttle": 0, "type": "VFR_HUD"}}}
{"packet_index": 633, "message": {"header": {"component_id": 1, "sequence": 156, "system_id": 1}, "message": {"airspeed": 0.07100000232458115, "alt": 16.229999542236328, "climb": 0.016066743060946465, "groundspeed": 0.08319220691919327, "heading": 207, "throttle": 0, "type": "VFR_HUD"}}}
{"packet_index": 657, "message": {"header": {"component_id": 1, "sequence": 161, "system_id": 1}, "message": {"airspeed": 0.07700000703334808, "alt": 16.25, "climb": 0.0297396220266819, "groundspeed": 0.09344985336065292, "heading": 207, "throttle": 0, "type": "VFR_HUD"}}}
{"packet_index": 681, "message": {"header": {"component_id": 1, "sequence": 166, "system_id": 1}, "message": {"airspeed": 0.07700000703334808, "alt": 16.270000457763672, "climb": 0.030636943876743317, "groundspeed": 0.09752383828163147, "heading": 207, "throttle": 0, "type": "VFR_HUD"}}}
{"packet_index": 707, "message": {"header": {"component_id": 1, "sequence": 184, "system_id": 1}, "message": {"airspeed": 0.07100000232458115, "alt": 16.279998779296875, "climb": 0.018358271569013596, "groundspeed": 0.09068179875612259, "heading": 207, "throttle": 0, "type": "VFR_HUD"}}}
{"packet_index": 720, "message": {"header": {"component_id": 1, "sequence": 187, "system_id": 1}, "message": {"altitude": 32970, "latitude": 634405552, "longitude": 103484873, "time_usec": 8526367377, "type": "GPS_GLOBAL_ORIGIN"}}}
{"packet_index": 721, "message": {"header": {"component_id": 1, "sequence": 188, "system_id": 1}, "message": {"altitude": 6860, "approach_x": 0.0, "approach_y": 0.0, "approach_z": 0.0, "latitude": 634405553, "longitude": 103484876, "q": [null, null, null, null], "time_usec": 8526367384, "type": "HOME_POSITION", "x": 0.011131884530186653, "y": 0.01493206899613142, "z": 26.10999870300293}}}
{"packet_index": 733, "message": {"header": {"component_id": 1, "sequence": 192, "system_id": 1}, "message": {"airspeed": 0.07100000232458115, "alt": 16.28999900817871, "climb": -0.0073334816843271255, "groundspeed": 0.06977786868810654, "heading": 207, "throttle": 0, "type": "VFR_HUD"}}}
{"packet_index": 758, "message": {"header": {"component_id": 1, "sequence": 208, "system_id": 1}, "message": {"airspeed": 0.07500000298023224, "alt": 16.279998779296875, "climb": -0.04677519574761391, "groundspeed": 0.039036527276039124, "heading": 207, "throttle": 0, "type": "VFR_HUD"}}}
{"packet_index": 782, "message": {"header": {"component_id": 1, "sequence": 222, "system_id": 1}, "message": {"autopilot": {"type": "MAV_AUTOPILOT_ARDUPILOTMEGA"}, "base_mode": {"bits": 129}, "custom_mode": 4, "mavlink_version": 3, "mavtype": {"type": "MAV_TYPE_SURFACE_BOAT"}, "system_status": {"type": "MAV_STATE_STANDBY"}, "type": "HEARTBEAT"}}}
{"packet_index": 784, "message": {"header": {"component_id": 1, "sequence": 225, "system_id": 1}, "message": {"airspeed": 0.07500000298023224, "alt": 16.260000228881836, "climb": -0.09185118228197098, "groundspeed": 0.019010577350854874, "heading": 208, "throttle": 0, "type": "VFR_HUD"}}}
{"packet_index": 808, "message": {"header": {"component_id": 1, "sequence": 230, "system_id": 1}, "message": {"airspeed": 0.04500000178813934, "alt": 16.229999542236328, "climb": -0.12512880563735962, "groundspeed": 0.02454235777258873, "heading": 208, "throttle": 0, "type": "VFR_HUD"}}}
{"packet_index": 832, "message": {"header": {"component_id": 1, "sequence": 235, "system_id": 1}, "message": {"airspeed": 0.04500000178813934, "alt": 16.219999313354492, "climb": -0.13200928270816803, "groundspeed": 0.02748032659292221, "heading": 208, "throttle": 0, "type": "VFR_HUD"}}}
{"packet_index": 859, "message": {"header": {"component_id": 1, "sequence": 251, "system_id": 1}, "message": {"airspeed": 0.039000000804662704, "alt": 16.209999084472656, "climb": -0.11049354821443558, "groundspeed": 0.027605857700109482, "heading": 208, "throttle": 0, "type": "VFR_HUD"}}}
{"packet_index": 882, "message": {"header": {"component_id": 1, "sequence": 12, "system_id": 1}, "message": {"airspeed": 0.039000000804662704, "alt": 16.209999084472656, "climb": -0.06628543883562088, "groundspeed": 0.031416699290275574, "heading": 208, "throttle": 0, "type": "VFR_HUD"}}}
{"packet_index": 906, "message": {"header": {"component_id": 1, "sequence": 17, "system_id": 1}, "message": {"airspeed": 0.03400000184774399, "alt": 16.219999313354492, "climb": -0.012603147886693478, "groundspeed": 0.04268292337656021, "heading": 208, "throttle": 0, "type": "VFR_HUD"}}}
{"packet_index": 930, "message": {"header": {"component_id": 1, "sequence": 22, "system_id": 1}, "message": {"airspeed": 0.03400000184774399, "alt": 16.229999542236328, "climb": 0.03490841016173363, "groundspeed": 0.059059128165245056, "heading": 208, "throttle": 0, "type": "VFR_HUD"}}}
{"packet_index": 956, "message": {"header": {"component_id": 1, "sequence": 40, "system_id": 1}, "message": {"airspeed": 0.03500000014901161, "alt": 16.229999542236328, "climb": 0.06348387897014618, "groundspeed": 0.07531643658876419, "heading": 208, "throttle": 0, "type": "VFR_HUD"}}}
{"packet_index": 969, "message": {"header": {"component_id": 1, "sequence": 43, "system_id": 1}, "message": {"altitude": 32970, "latitude": 634405552, "longitude": 103484873, "time_usec": 8527367382, "type": "GPS_GLOBAL_ORIGIN"}}}
{"packet_index": 970, "message": {"header": {"component_id": 1, "sequence": 44, "system_id": 1}, "message": {"altitude": 6860, "approach_x": 0.0, "approach_y": 0.0, "approach_z": 0.0, "latitude": 634405553, "longitude": 103484876, "q": [null, null, null, null], "time_usec": 8527367389, "type": "HOME_POSITION", "x": 0.011131884530186653, "y": 0.01493206899613142, "z": 26.10999870300293}}}
{"packet_index": 982, "message": {"header": {"component_id": 1, "sequence": 48, "system_id": 1}, "message": {"airspeed": 0.03500000014901161, "alt": 16.229999542236328, "climb": 0.06176232174038887, "groundspeed": 0.08766935020685196, "heading": 208, "throttle": 0, "type": "VFR_HUD"}}}
{"packet_index": 1006, "message": {"header": {"component_id": 1, "sequence": 64, "system_id": 1}, "message": {"airspeed": 0.06800000369548798, "alt": 16.229999542236328, "climb": 0.04288884624838829, "groundspeed": 0.08911145478487015, "heading": 208, "throttle": 0, "type": "VFR_HUD"}}}
{"packet_index": 1031, "message": {"header": {"component_id": 1, "sequence": 78, "system_id": 1}, "message": {"autopilot": {"type": "MAV_AUTOPILOT_ARDUPILOTMEGA"}, "base_mode": {"bits": 129}, "custom_mode": 4, "mavlink_version": 3, "mavtype": {"type": "MAV_TYPE_SURFACE_BOAT"}, "system_status": {"type": "MAV_STATE_STANDBY"}, "type": "HEARTBEAT"}}}
{"packet_index": 1033, "message": {"header": {"component_id": 1, "sequence": 81, "system_id": 1}, "message": {"airspeed": 0.06800000369548798, "alt": 16.229999542236328, "climb": 0.011292986571788788, "groundspeed": 0.08171937614679337, "heading": 208, "throttle": 0, "type": "VFR_HUD"}}}
{"packet_index": 1057, "message": {"header": {"component_id": 1, "sequence": 86, "system_id": 1}, "message": {"airspeed": 0.07600000500679016, "alt": 16.229999542236328, "climb": -0.012778968550264835, "groundspeed": 0.07019475102424622, "heading": 208, "throttle": 0, "type": "VFR_HUD"}}}
{"packet_index": 1081, "message": {"header": {"component_id": 1, "sequence": 91, "system_id": 1}, "message": {"airspeed": 0.07600000500679016, "alt": 16.229999542236328, "climb": -0.0223580002784729, "groundspeed": 0.06175113841891289, "heading": 208, "throttle": 0, "type": "VFR_HUD"}}}
{"packet_index": 1108, "message": {"header": {"component_id": 1, "sequence": 107, "system_id": 1}, "message": {"airspeed": 0.05100000277161598, "alt": 16.229999542236328, "climb": -0.01388323400169611, "groundspeed": 0.06344353407621384, "heading": 208, "throttle": 0, "type": "VFR_HUD"}}}
{"packet_index": 1131, "message": {"header": {"component_id": 1, "sequence": 123, "system_id": 1}, "message": {"airspeed": 0.05100000277161598, "alt": 16.209999084472656, "climb": 0.012822320684790611, "groundspeed": 0.07531067728996277, "heading": 208, "throttle": 0, "type": "VFR_HUD"}}}
{"packet_index": 1155, "message": {"header": {"component_id": 1, "sequence": 128, "system_id": 1}, "message": {"airspeed": 0.05100000277161598, "alt": 16.190000534057617, "climb": 0.03567690774798393, "groundspeed": 0.08414217829704285, "heading": 208, "throttle": 0, "type": "VFR_HUD"}}}
{"packet_index": 1179, "message": {"header": {"component_id": 1, "sequence": 133, "system_id": 1}, "message": {"airspeed": 0.05100000277161598, "alt": 16.170000076293945, "climb": 0.05257702246308327, "groundspeed": 0.08688085526227951, "heading": 208, "throttle": 0, "type": "VFR_HUD"}}}
{"packet_index": 1205, "message": {"header": {"component_id": 1, "sequence": 151, "system_id": 1}, "message": {"airspeed": 0.07200000435113907, "alt": 16.149999618530273, "climb": 0.055788684636354446, "groundspeed": 0.0851280689239502, "heading": 208, "throttle": 0, "type": "VFR_HUD"}}}
{"packet_index": 1218, "message": {"header": {"component_id": 1, "sequence": 154, "system_id": 1}, "message": {"altitude": 32970, "latitude": 634405552, "longitude": 103484873, "time_usec": 8528367485, "type": "GPS_GLOBAL_ORIGIN"}}}
{"packet_index": 1219, "message": {"header": {"component_id": 1, "sequence": 155, "system_id": 1}, "message": {"altitude": 6860, "approach_x": 0.0, "approach_y": 0.0, "approach_z": 0.0, "latitude": 634405553, "longitude": 103484876, "q": [null, null, null, null], "time_usec": 8528367495, "type": "HOME_POSITION", "x": 0.011131884530186653, "y": 0.01493206899613142, "z": 26.10999870300293}}}
{"packet_index": 1231, "message": {"header": {"component_id": 1, "sequence": 159, "system_id": 1}, "message": {"airspeed": 0.07200000435113907, "alt": 16.139999389648438, "climb": 0.05424943193793297, "groundspeed": 0.08134107291698456, "heading": 208, "throttle": 0, "type": "VFR_HUD"}}}
{"packet_index": 1255, "message": {"header": {"component_id": 1, "sequence": 175, "system_id": 1}, "message": {"airspeed": 0.09000000357627869, "alt": 16.149999618530273, "climb": 0.055120501667261124, "groundspeed": 0.07828130573034286, "heading": 208, "throttle": 0, "type": "VFR_HUD"}}}
{"packet_index": 1280, "message": {"header": {"component_id": 1, "sequence": 189, "system_id": 1}, "message": {"autopilot": {"type": "MAV_AUTOPILOT_ARDUPILOTMEGA"}, "base_mode": {"bits": 129}, "custom_mode": 4, "mavlink_version": 3, "mavtype": {"type": "MAV_TYPE_SURFACE_BOAT"}, "system_status": {"type": "MAV_STATE_STANDBY"}, "type": "HEARTBEAT"}}}
{"packet_index": 1282, "message": {"header": {"component_id": 1, "sequence": 192, "system_id": 1}, "message": {"airspeed": 0.09000000357627869, "alt": 16.15999984741211, "climb": 0.05918615683913231, "groundspeed": 0.07047116756439209, "heading": 208, "throttle": 0, "type": "VFR_HUD"}}}
{"packet_index": 1306, "message": {"header": {"component_id": 1, "sequence": 197, "system_id": 1}, "message": {"airspeed": 0.0860000029206276, "alt": 16.190000534057617, "climb": 0.06018276885151863, "groundspeed": 0.059350766241550446, "heading": 208, "throttle": 0, "type": "VFR_HUD"}}}
{"packet_index": 1330, "message": {"header": {"component_id": 1, "sequence": 202, "system_id": 1}, "message": {"airspeed": 0.0860000029206276, "alt": 16.209999084472656, "climb": 0.05043836683034897, "groundspeed": 0.052618976682424545, "heading": 208, "throttle": 0, "type": "VFR_HUD"}}}
{"packet_index": 1357, "message": {"header": {"component_id": 1, "sequence": 218, "system_id": 1}, "message": {"airspeed": 0.0650000050663948, "alt": 16.219999313354492, "climb": 0.0341205969452858, "groundspeed": 0.06028974428772926, "heading": 208, "throttle": 0, "type": "VFR_HUD"}}}
{"packet_index": 1380, "message": {"header": {"component_id": 1, "sequence": 234, "system_id": 1}, "message": {"airspeed": 0.0650000050663948, "alt": 16.219999313354492, "climb": 0.021234741434454918, "groundspeed": 0.07932841032743454, "heading": 208, "throttle": 0, "type": "VFR_HUD"}}}
{"packet_index": 1404, "message": {"header": {"component_id": 1, "sequence": 239, "system_id": 1}, "message": {"airspeed": 0.08100000023841858, "alt": 16.19999885559082, "climb": 0.007075691595673561, "groundspeed": 0.08607368171215057, "heading": 208, "throttle": 0, "type": "VFR_HUD"}}}
{"packet_index": 1428, "message": {"header": {"component_id": 1, "sequence": 244, "system_id": 1}, "message": {"airspeed": 0.08100000023841858, "alt": 16.170000076293945, "climb": 0.005465167108923197, "groundspeed": 0.08779528737068176, "heading": 208, "throttle": 0, "type": "VFR_HUD"}}}
{"packet_index": 1454, "message": {"header": {"component_id": 1, "sequence": 6, "system_id": 1}, "message": {"airspeed": 0.0990000069141388, "alt": 16.15999984741211, "climb": 0.010644316673278809, "groundspeed": 0.08309239894151688, "heading": 208, "throttle": 0, "type": "VFR_HUD"}}}
{"packet_index": 1467, "message": {"header": {"component_id": 1, "sequence": 9, "system_id": 1}, "message": {"altitude": 32970, "latitude": 634405552, "longitude": 103484873, "time_usec": 8529367401, "type": "GPS_GLOBAL_ORIGIN"}}}
{"packet_index": 1468, "message": {"header": {"component_id": 1, "sequence": 10, "system_id": 1}, "message": {"altitude": 6860, "approach_x": 0.0, "approach_y": 0.0, "approach_z": 0.0, "latitude": 634405553, "longitude": 103484876, "q": [null, null, null, null], "time_usec": 8529367408, "type": "HOME_POSITION", "x": 0.011131884530186653, "y": 0.01493206899613142, "z": 26.10999870300293}}}
{"packet_index": 1480, "message": {"header": {"component_id": 1, "sequence": 14, "system_id": 1}, "message": {"airspeed": 0.0990000069141388, "alt": 16.15999984741211, "climb": 0.018071014434099197, "groundspeed": 0.07817958295345306, "heading": 208, "throttle": 0, "type": "VFR_HUD"}}}
{"packet_index": 1504, "message": {"header": {"component_id": 1, "sequence": 30, "system_id": 1}, "message": {"airspeed": 0.07700000703334808, "alt": 16.18000030517578, "climb": 0.015683230012655258, "groundspeed": 0.07159154862165451, "heading": 208, "throttle": 0, "type": "VFR_HUD"}}}
{"packet_index": 1529, "message": {"header": {"component_id": 1, "sequence": 44, "system_id": 1}, "message": {"autopilot": {"type": "MAV_AUTOPILOT_ARDUPILOTMEGA"}, "base_mode": {"bits": 129}, "custom_mode": 4, "mavlink_version": 3, "mavtype": {"type": "MAV_TYPE_SURFACE_BOAT"}, "system_status": {"type": "MAV_STATE_STANDBY"}, "type": "HEARTBEAT"}}}
{"packet_index": 1531, "message": {"header": {"component_id": 1, "sequence": 47, "system_id": 1}, "message": {"airspeed": 0.07700000703334808, "alt": 16.209999084472656, "climb": 0.014160835184156895, "groundspeed": 0.07504801452159882, "heading": 208, "throttle": 0, "type": "VFR_HUD"}}}
{"packet_index": 1555, "message": {"header": {"component_id": 1, "sequence": 52, "system_id": 1}, "message": {"airspeed": 0.07300000637769699, "alt": 16.239999771118164, "climb": 0.0032174137886613607, "groundspeed": 0.07713008671998978, "heading": 208, "throttle": 0, "type": "VFR_HUD"}}}
{"packet_index": 1579, "message": {"header": {"component_id": 1, "sequence": 57, "system_id": 1}, "message": {"airspeed": 0.07300000637769699, "alt": 16.260000228881836, "climb": -0.011735050939023495, "groundspeed": 0.07616916298866272, "heading": 207, "throttle": 0, "type": "VFR_HUD"}}}
{"packet_index": 1606, "message": {"header": {"component_id": 1, "sequence": 73, "system_id": 1}, "message": {"airspeed": 0.0820000022649765, "alt": 16.270000457763672, "climb": -0.025721019133925438, "groundspeed": 0.0705447793006897, "heading": 208, "throttle": 0, "type": "VFR_HUD"}}}
{"packet_index": 1629, "message": {"header": {"component_id": 1, "sequence": 89, "system_id": 1}, "message": {"airspeed": 0.0820000022649765, "alt": 16.270000457763672, "climb": -0.04358750209212303, "groundspeed": 0.054419759660959244, "heading": 208, "throttle": 0, "type": "VFR_HUD"}}}
{"packet_index": 1653, "message": {"header": {"component_id": 1, "sequence": 94, "system_id": 1}, "message": {"airspeed": 0.06400000303983688, "alt": 16.25, "climb": -0.060686394572257996, "groundspeed": 0.041804928332567215, "heading": 208, "throttle": 0, "type": "VFR_HUD"}}}
{"packet_index": 1677, "message": {"header": {"component_id": 1, "sequence": 99, "system_id": 1}, "message": {"airspeed": 0.06400000303983688, "alt": 16.229999542236328, "climb": -0.07213198393583298, "groundspeed": 0.03563087061047554, "heading": 208, "throttle": 0, "type": "VFR_HUD"}}}
{"packet_index": 1703, "message": {"header": {"component_id": 1, "sequence": 117, "system_id": 1}, "message": {"airspeed": 0.030000001192092896, "alt": 16.19999885559082, "climb": -0.07047266513109207, "groundspeed": 0.03652637451887131, "heading": 208, "throttle": 0, "type": "VFR_HUD"}}}
{"packet_index": 1716, "message": {"header": {"component_id": 1, "sequence": 120, "system_id": 1}, "message": {"altitude": 32970, "latitude": 634405552, "longitude": 103484873, "time_usec": 8530367386, "type": "GPS_GLOBAL_ORIGIN"}}}
{"packet_index": 1717, "message": {"header": {"component_id": 1, "sequence": 121, "system_id": 1}, "message": {"altitude": 6860, "approach_x": 0.0, "approach_y": 0.0, "approach_z": 0.0, "latitude": 634405553, "longitude": 103484876, "q": [null, null, null, null], "time_usec": 8530367394, "type": "HOME_POSITION", "x": 0.011131884530186653, "y": 0.01493206899613142, "z": 26.10999870300293}}}
{"packet_index": 1729, "message": {"header": {"component_id": 1, "sequence": 125, "system_id": 1}, "message": {"airspeed": 0.030000001192092896, "alt": 16.18000030517578, "climb": -0.05084838718175888, "groundspeed": 0.046069033443927765, "heading": 208, "throttle": 0, "type": "VFR_HUD"}}}
{"packet_index": 1753, "message": {"header": {"component_id": 1, "sequence": 141, "system_id": 1}, "message": {"airspeed": 0.03500000014901161, "alt": 16.18000030517578, "climb": -0.025910181924700737, "groundspeed": 0.057449910789728165, "heading": 208, "throttle": 0, "type": "VFR_HUD"}}}
{"packet_index": 1778, "message": {"header": {"component_id": 1, "sequence": 155, "system_id": 1}, "message": {"autopilot": {"type": "MAV_AUTOPILOT_ARDUPILOTMEGA"}, "base_mode": {"bits": 129}, "custom_mode": 4, "mavlink_version": 3, "mavtype": {"type": "MAV_TYPE_SURFACE_BOAT"}, "system_status": {"type": "MAV_STATE_STANDBY"}, "type": "HEARTBEAT"}}}
{"packet_index": 1780, "message": {"header": {"component_id": 1, "sequence": 158, "system_id": 1}, "message": {"airspeed": 0.03500000014901161, "alt": 16.190000534057617, "climb": -0.004963473882526159, "groundspeed": 0.06744599342346191, "heading": 208, "throttle": 0, "type": "VFR_HUD"}}}
{"packet_index": 1804, "message": {"header": {"component_id": 1, "sequence": 163, "system_id": 1}, "message": {"airspeed": 0.04000000283122063, "alt": 16.209999084472656, "climb": 0.005226990673691034, "groundspeed": 0.07299066334962845, "heading": 208, "throttle": 0, "type": "VFR_HUD"}}}
{"packet_index": 1828, "message": {"header": {"component_id": 1, "sequence": 168, "system_id": 1}, "message": {"airspeed": 0.04000000283122063, "alt": 16.239999771118164, "climb": 0.0024355535861104727, "groundspeed": 0.0737876296043396, "heading": 208, "throttle": 0, "type": "VFR_HUD"}}}
{"packet_index": 1855, "message": {"header": {"component_id": 1, "sequence": 184, "system_id": 1}, "message": {"airspeed": 0.05700000375509262, "alt": 16.260000228881836, "climb": -0.0075941081158816814, "groundspeed": 0.07264582812786102, "heading": 208, "throttle": 0, "type": "VFR_HUD"}}}
{"packet_index": 1878, "message": {"header": {"component_id": 1, "sequence": 200, "system_id": 1}, "message": {"airspeed": 0.05700000375509262, "alt": 16.260000228881836, "climb": -0.01834266074001789, "groundspeed": 0.0728263333439827, "heading": 208, "throttle": 0, "type": "VFR_HUD"}}}
{"packet_index": 1902, "message": {"header": {"component_id": 1, "sequence": 205, "system_id": 1}, "message": {"airspeed": 0.06100000441074371, "alt": 16.25, "climb": -0.02079753763973713, "groundspeed": 0.07437071204185486, "heading": 207, "throttle": 0, "type": "VFR_HUD"}}}
{"packet_index": 1926, "message": {"header": {"component_id": 1, "sequence": 210, "system_id": 1}, "message": {"airspeed": 0.06100000441074371, "alt": 16.219999313354492, "climb": -0.016088105738162994, "groundspeed": 0.07650332152843475, "heading": 207, "throttle": 0, "type": "VFR_HUD"}}}
{"packet_index": 1952, "message": {"header": {"component_id": 1, "sequence": 228, "system_id": 1}, "message": {"airspeed": 0.03800000250339508, "alt": 16.190000534057617, "climb": -0.011129671707749367, "groundspeed": 0.07870633155107498, "heading": 207, "throttle": 0, "type": "VFR_HUD"}}}
{"packet_index": 1965, "message": {"header": {"component_id": 1, "sequence": 231, "system_id": 1}, "message": {"altitude": 32970, "latitude": 634405552, "longitude": 103484873, "time_usec": 8531367391, "type": "GPS_GLOBAL_ORIGIN"}}}
{"packet_index": 1966, "message": {"header": {"component_id": 1, "sequence": 232, "system_id": 1}, "message": {"altitude": 6860, "approach_x": 0.0, "approach_y": 0.0, "approach_z": 0.0, "latitude": 634405553, "longitude": 103484876, "q": [null, null, null, null], "time_usec": 8531367398, "type": "HOME_POSITION", "x": 0.011131884530186653, "y": 0.01493206899613142, "z": 26.10999870300293}}}
{"packet_index": 1978, "message": {"header": {"component_id": 1, "sequence": 236, "system_id": 1}, "message": {"airspeed": 0.03800000250339508, "alt": 16.15999984741211, "climb": -0.008712305687367916, "groundspeed": 0.08164533227682114, "heading": 207, "throttle": 0, "type": "VFR_HUD"}}}
{"packet_index": 2002, "message": {"header": {"component_id": 1, "sequence": 252, "system_id": 1}, "message": {"airspeed": 0.049000002443790436, "alt": 16.139999389648438, "climb": -0.007779233157634735, "groundspeed": 0.08419051021337509, "heading": 207, "throttle": 0, "type": "VFR_HUD"}}}
{"packet_index": 2027, "message": {"header": {"component_id": 1, "sequence": 10, "system_id": 1}, "message": {"autopilot": {"type": "MAV_AUTOPILOT_ARDUPILOTMEGA"}, "base_mode": {"bits": 129}, "custom_mode": 4, "mavlink_version": 3, "mavtype": {"type": "MAV_TYPE_SURFACE_BOAT"}, "system_status": {"type": "MAV_STATE_STANDBY"}, "type": "HEARTBEAT"}}}
{"packet_index": 2029, "message": {"header": {"component_id": 1, "sequence": 13, "system_id": 1}, "message": {"airspeed": 0.049000002443790436, "alt": 16.1299991607666, "climb": -0.004744282457977533, "groundspeed": 0.08455710858106613, "heading": 207, "throttle": 0, "type": "VFR_HUD"}}}
{"packet_index": 2053, "message": {"header": {"component_id": 1, "sequence": 18, "system_id": 1}, "message": {"airspeed": 0.06100000441074371, "alt": 16.139999389648438, "climb": 0.0036866245791316032, "groundspeed": 0.08314310759305954, "heading": 207, "throttle": 0, "type": "VFR_HUD"}}}
{"packet_index": 2055, "message": {"header": {"component_id": 1, "sequence": 21, "system_id": 1}, "message": {"board_version": 0, "capabilities": {"bits": 61935}, "flight_custom_version": [51, 102, 99, 55, 48, 49, 49, 97], "flight_sw_version": 67503103, "middleware_custom_version": [0, 0, 0, 0, 0, 0, 0, 0], "middleware_sw_version": 0, "os_custom_version": [0, 0, 0, 0, 0, 0, 0, 0], "os_sw_version": 0, "product_id": 0, "type": "AUTOPILOT_VERSION", "uid": 0, "uid2": [97, 99, 51, 99, 53, 56, 52, 54, 99, 101, 56, 51, 52, 50, 98, 49, 51, 48], "vendor_id": 0}}}
{"packet_index": 2078, "message": {"header": {"component_id": 1, "sequence": 24, "system_id": 1}, "message": {"airspeed": 0.06100000441074371, "alt": 16.149999618530273, "climb": 0.020990686491131783, "groundspeed": 0.07761811465024948, "heading": 207, "throttle": 0, "type": "VFR_HUD"}}}
{"packet_index": 2105, "message": {"header": {"component_id": 1, "sequence": 40, "system_id": 1}, "message": {"airspeed": 0.08000000566244125, "alt": 16.170000076293945, "climb": 0.04736727848649025, "groundspeed": 0.06598727405071259, "heading": 207, "throttle": 0, "type": "VFR_HUD"}}}
{"packet_index": 2128, "message": {"header": {"component_id": 1, "sequence": 56, "system_id": 1}, "message": {"airspeed": 0.08000000566244125, "alt": 16.19999885559082, "climb": 0.07911192625761032, "groundspeed": 0.050301436334848404, "heading": 207, "throttle": 0, "type": "VFR_HUD"}}}
{"packet_index": 2152, "message": {"header": {"component_id": 1, "sequence": 61, "system_id": 1}, "message": {"airspeed": 0.06100000441074371, "alt": 16.209999084472656, "climb": 0.10713909566402435, "groundspeed": 0.043009597808122635, "heading": 207, "throttle": 0, "type": "VFR_HUD"}}}
{"packet_index": 2176, "message": {"header": {"component_id": 1, "sequence": 66, "system_id": 1}, "message": {"airspeed": 0.06100000441074371, "alt": 16.209999084472656, "climb": 0.12306907773017883, "groundspeed": 0.046775709837675095, "heading": 207, "throttle": 0, "type": "VFR_HUD"}}}
{"packet_index": 2202, "message": {"header": {"component_id": 1, "sequence": 84, "system_id": 1}, "message": {"airspeed": 0.06000000238418579, "alt": 16.19999885559082, "climb": 0.12689177691936493, "groundspeed": 0.06874207407236099, "heading": 206, "throttle": 0, "type": "VFR_HUD"}}}
{"packet_index": 2215, "message": {"header": {"component_id": 1, "sequence": 87, "system_id": 1}, "message": {"altitude": 32970, "latitude": 634405552, "longitude": 103484873, "time_usec": 8532367382, "type": "GPS_GLOBAL_ORIGIN"}}}
{"packet_index": 2216, "message": {"header": {"component_id": 1, "sequence": 88, "system_id": 1}, "message": {"altitude": 6860, "approach_x": 0.0, "approach_y": 0.0, "approach_z": 0.0, "latitude": 634405553, "longitude": 103484876, "q": [null, null, null, null], "time_usec": 8532367390, "type": "HOME_POSITION", "x": 0.011131884530186653, "y": 0.01493206899613142, "z": 26.10999870300293}}}
{"packet_index": 2228, "message": {"header": {"component_id": 1, "sequence": 92, "system_id": 1}, "message": {"airspeed": 0.06000000238418579, "alt": 16.170000076293945, "climb": 0.10709071904420853, "groundspeed": 0.08871214091777802, "heading": 206, "throttle": 0, "type": "VFR_HUD"}}}
{"packet_index": 2252, "message": {"header": {"component_id": 1, "sequence": 108, "system_id": 1}, "message": {"airspeed": 0.0650000050663948, "alt": 16.149999618530273, "climb": 0.07171256840229034, "groundspeed": 0.1035054549574852, "heading": 206, "throttle": 0, "type": "VFR_HUD"}}}
{"packet_index": 2277, "message": {"header": {"component_id": 1, "sequence": 122, "system_id": 1}, "message": {"autopilot": {"type": "MAV_AUTOPILOT_ARDUPILOTMEGA"}, "base_mode": {"bits": 129}, "custom_mode": 4, "mavlink_version": 3, "mavtype": {"type": "MAV_TYPE_SURFACE_BOAT"}, "system_status": {"type": "MAV_STATE_STANDBY"}, "type": "HEARTBEAT"}}}
{"packet_index": 2279, "message": {"header": {"component_id": 1, "sequence": 125, "system_id": 1}, "message": {"airspeed": 0.0650000050663948, "alt": 16.139999389648438, "climb": 0.03678799420595169, "groundspeed": 0.1141459196805954, "heading": 206, "throttle": 0, "type": "VFR_HUD"}}}
{"packet_index": 2303, "message": {"header": {"component_id": 1, "sequence": 130, "system_id": 1}, "message": {"airspeed": 0.1120000034570694, "alt": 16.149999618530273, "climb": 0.019259154796600342, "groundspeed": 0.11904983222484589, "heading": 206, "throttle": 0, "type": "VFR_HUD"}}}
{"packet_index": 2327, "message": {"header": {"component_id": 1, "sequence": 135, "system_id": 1}, "message": {"airspeed": 0.1120000034570694, "alt": 16.18000030517578, "climb": 0.021501479670405388, "groundspeed": 0.11663682013750076, "heading": 206, "throttle": 0, "type": "VFR_HUD"}}}
{"packet_index": 2354, "message": {"header": {"component_id": 1, "sequence": 151, "system_id": 1}, "message": {"airspeed": 0.12200000882148743, "alt": 16.219999313354492, "climb": 0.031330738216638565, "groundspeed": 0.1088443323969841, "heading": 206, "throttle": 0, "type": "VFR_HUD"}}}
{"packet_index": 2377, "message": {"header": {"component_id": 1, "sequence": 167, "system_id": 1}, "message": {"airspeed": 0.12200000882148743, "alt": 16.25, "climb": 0.02846086397767067, "groundspeed": 0.09663683921098709, "heading": 206, "throttle": 0, "type": "VFR_HUD"}}}
{"packet_index": 2401, "message": {"header": {"component_id": 1, "sequence": 172, "system_id": 1}, "message": {"airspeed": 0.11800000816583633, "alt": 16.270000457763672, "climb": 0.00011475765495561063, "groundspeed": 0.08114073425531387, "heading": 206, "throttle": 0, "type": "VFR_HUD"}}}
{"packet_index": 2425, "message": {"header": {"component_id": 1, "sequence": 177, "system_id": 1}, "message": {"airspeed": 0.11800000816583633, "alt": 16.260000228881836, "climb": -0.05019406974315643, "groundspeed": 0.06268391013145447, "heading": 206, "throttle": 0, "type": "VFR_HUD"}}}
{"packet_index": 2451, "message": {"header": {"component_id": 1, "sequence": 195, "system_id": 1}, "message": {"airspeed": 0.10400000214576721, "alt": 16.229999542236328, "climb": -0.10110918432474136, "groundspeed": 0.046803269535303116, "heading": 206, "throttle": 0, "type": "VFR_HUD"}}}
{"packet_index": 2464, "message": {"header": {"component_id": 1, "sequence": 198, "system_id": 1}, "message": {"altitude": 32970, "latitude": 634405552, "longitude": 103484873, "time_usec": 8533367445, "type": "GPS_GLOBAL_ORIGIN"}}}
{"packet_index": 2465, "message": {"header": {"component_id": 1, "sequence": 199, "system_id": 1}, "message": {"altitude": 6860, "approach_x": 0.0, "approach_y": 0.0, "approach_z": 0.0, "latitude": 634405553, "longitude": 103484876, "q": [null, null, null, null], "time_usec": 8533367455, "type": "HOME_POSITION", "x": 0.011131884530186653, "y": 0.01493206899613142, "z": 26.10999870300293}}}
{"packet_index": 2477, "message": {"header": {"component_id": 1, "sequence": 203, "system_id": 1}, "message": {"airspeed": 0.10400000214576721, "alt": 16.190000534057617, "climb": -0.1261112093925476, "groundspeed": 0.04878645017743111, "heading": 206, "throttle": 0, "type": "VFR_HUD"}}}
{"packet_index": 2501, "message": {"header": {"component_id": 1, "sequence": 219, "system_id": 1}, "message": {"airspeed": 0.058000002056360245, "alt": 16.15999984741211, "climb": -0.13092726469039917, "groundspeed": 0.051791250705718994, "heading": 206, "throttle": 0, "type": "VFR_HUD"}}}
{"packet_index": 2526, "message": {"header": {"component_id": 1, "sequence": 233, "system_id": 1}, "message": {"autopilot": {"type": "MAV_AUTOPILOT_ARDUPILOTMEGA"}, "base_mode": {"bits": 129}, "custom_mode": 4, "mavlink_version": 3, "mavtype": {"type": "MAV_TYPE_SURFACE_BOAT"}, "system_status": {"type": "MAV_STATE_STANDBY"}, "type": "HEARTBEAT"}}}
{"packet_index": 2528, "message": {"header": {"component_id": 1, "sequence": 236, "system_id": 1}, "message": {"airspeed": 0.058000002056360245, "alt": 16.139999389648438, "climb": -0.10228995978832245, "groundspeed": 0.05776664614677429, "heading": 206, "throttle": 0, "type": "VFR_HUD"}}}
{"packet_index": 2552, "message": {"header": {"component_id": 1, "sequence": 241, "system_id": 1}, "message": {"airspeed": 0.00800000037997961, "alt": 16.149999618530273, "climb": -0.0530078150331974, "groundspeed": 0.0629313513636589, "heading": 206, "throttle": 0, "type": "VFR_HUD"}}}
{"packet_index": 2576, "message": {"header": {"component_id": 1, "sequence": 246, "system_id": 1}, "message": {"airspeed": 0.00800000037997961, "alt": 16.15999984741211, "climb": -0.0025091723073273897, "groundspeed": 0.06625032424926758, "heading": 206, "throttle": 0, "type": "VFR_HUD"}}}
{"packet_index": 2603, "message": {"header": {"component_id": 1, "sequence": 6, "system_id": 1}, "message": {"airspeed": 0.03800000250339508, "alt": 16.190000534057617, "climb": 0.029961058869957924, "groundspeed": 0.06078389659523964, "heading": 205, "throttle": 0, "type": "VFR_HUD"}}}
{"packet_index": 2626, "message": {"header": {"component_id": 1, "sequence": 22, "system_id": 1}, "message": {"airspeed": 0.03800000250339508, "alt": 16.209999084472656, "climb": 0.05035009980201721, "groundspeed": 0.0585920475423336, "heading": 205, "throttle": 0, "type": "VFR_HUD"}}}
{"packet_index": 2650, "message": {"header": {"component_id": 1, "sequence": 27, "system_id": 1}, "message": {"airspeed": 0.05700000375509262, "alt": 16.239999771118164, "climb": 0.05030973628163338, "groundspeed": 0.051132310181856155, "heading": 205, "throttle": 0, "type": "VFR_HUD"}}}
{"packet_index": 2674, "message": {"header": {"component_id": 1, "sequence": 32, "system_id": 1}, "message": {"airspeed": 0.05700000375509262, "alt": 16.25, "climb": 0.03956982493400574, "groundspeed": 0.040059152990579605, "heading": 205, "throttle": 0, "type": "VFR_HUD"}}}
{"packet_index": 2700, "message": {"header": {"component_id": 1, "sequence": 50, "system_id": 1}, "message": {"airspeed": 0.03500000014901161, "alt": 16.260000228881836, "climb": 0.030842259526252747, "groundspeed": 0.028712360188364983, "heading": 205, "throttle": 0, "type": "VFR_HUD"}}}
{"packet_index": 2713, "message": {"header": {"component_id": 1, "sequence": 53, "system_id": 1}, "message": {"altitude": 32970, "latitude": 634405552, "longitude": 103484873, "time_usec": 8534367402, "type": "GPS_GLOBAL_ORIGIN"}}}
{"packet_index": 2714, "message": {"header": {"component_id": 1, "sequence": 54, "system_id": 1}, "message": {"altitude": 6860, "approach_x": 0.0, "approach_y": 0.0, "approach_z": 0.0, "latitude": 634405553, "longitude": 103484876, "q": [null, null, null, null], "time_usec": 8534367409, "type": "HOME_POSITION", "x": 0.011131884530186653, "y": 0.01493206899613142, "z": 26.10999870300293}}}
{"packet_index": 2726, "message": {"header": {"component_id": 1, "sequence": 58, "system_id": 1}, "message": {"airspeed": 0.03500000014901161, "alt": 16.270000457763672, "climb": 0.030408473685383797, "groundspeed": 0.020824359729886055, "heading": 205, "throttle": 0, "type": "VFR_HUD"}}}
{"packet_index": 2750, "message": {"header": {"component_id": 1, "sequence": 74, "system_id": 1}, "message": {"airspeed": 0.02500000037252903, "alt": 16.270000457763672, "climb": 0.028486227616667747, "groundspeed": 0.018733913078904152, "heading": 205, "throttle": 0, "type": "VFR_HUD"}}}
{"packet_index": 2775, "message": {"header": {"component_id": 1, "sequence": 88, "system_id": 1}, "message": {"autopilot": {"type": "MAV_AUTOPILOT_ARDUPILOTMEGA"}, "base_mode": {"bits": 129}, "custom_mode": 4, "mavlink_version": 3, "mavtype": {"type": "MAV_TYPE_SURFACE_BOAT"}, "system_status": {"type": "MAV_STATE_STANDBY"}, "type": "HEARTBEAT"}}}
{"packet_index": 2777, "message": {"header": {"component_id": 1, "sequence": 91, "system_id": 1}, "message": {"airspeed": 0.02500000037252903, "alt": 16.260000228881836, "climb": 0.019603727385401726, "groundspeed": 0.018162434920668602, "heading": 205, "throttle": 0, "type": "VFR_HUD"}}}
{"packet_index": 2801, "message": {"header": {"component_id": 1, "sequence": 96, "system_id": 1}, "message": {"airspeed": 0.01600000075995922, "alt": 16.239999771118164, "climb": 0.00026309394161216915, "groundspeed": 0.019794151186943054, "heading": 205, "throttle": 0, "type": "VFR_HUD"}}}
{"packet_index": 2825, "message": {"header": {"component_id": 1, "sequence": 101, "system_id": 1}, "message": {"airspeed": 0.01600000075995922, "alt": 16.219999313354492, "climb": -0.021706286817789078, "groundspeed": 0.02636311575770378, "heading": 205, "throttle": 0, "type": "VFR_HUD"}}}
{"packet_index": 2852, "message": {"header": {"component_id": 1, "sequence": 117, "system_id": 1}, "message": {"airspeed": 0.00800000037997961, "alt": 16.19999885559082, "climb": -0.02902919240295887, "groundspeed": 0.03799191489815712, "heading": 205, "throttle": 0, "type": "VFR_HUD"}}}
{"packet_index": 2875, "message": {"header": {"component_id": 1, "sequence": 133, "system_id": 1}, "message": {"airspeed": 0.00800000037997961, "alt": 16.190000534057617, "climb": -0.011200501583516598, "groundspeed": 0.051708947867155075, "heading": 204, "throttle": 0, "type": "VFR_HUD"}}}
{"packet_index": 2899, "message": {"header": {"component_id": 1, "sequence": 138, "system_id": 1}, "message": {"airspeed": 0.021000001579523087, "alt": 16.19999885559082, "climb": 0.02624506875872612, "groundspeed": 0.06257172673940659, "heading": 204, "throttle": 0, "type": "VFR_HUD"}}}
{"packet_index": 2923, "message": {"header": {"component_id": 1, "sequence": 143, "system_id": 1}, "message": {"airspeed": 0.021000001579523087, "alt": 16.219999313354492, "climb": 0.058504361659288406, "groundspeed": 0.06956744194030762, "heading": 204, "throttle": 0, "type": "VFR_HUD"}}}
{"packet_index": 2949, "message": {"header": {"component_id": 1, "sequence": 161, "system_id": 1}, "message": {"airspeed": 0.05400000140070915, "alt": 16.25, "climb": 0.06884774565696716, "groundspeed": 0.07556873559951782, "heading": 204, "throttle": 0, "type": "VFR_HUD"}}}
{"packet_index": 2962, "message": {"header": {"component_id": 1, "sequence": 164, "system_id": 1}, "message": {"altitude": 32970, "latitude": 634405552, "longitude": 103484873, "time_usec": 8535367387, "type": "GPS_GLOBAL_ORIGIN"}}}
{"packet_index": 2963, "message": {"header": {"component_id": 1, "sequence": 165, "system_id": 1}, "message": {"altitude": 6860, "approach_x": 0.0, "approach_y": 0.0, "approach_z": 0.0, "latitude": 634405553, "longitude": 103484876, "q": [null, null, null, null], "time_usec": 8535367395, "type": "HOME_POSITION", "x": 0.011131884530186653, "y": 0.01493206899613142, "z": 26.10999870300293}}}
{"packet_index": 2975, "message": {"header": {"component_id": 1, "sequence": 169, "system_id": 1}, "message": {"airspeed": 0.05400000140070915, "alt": 16.270000457763672, "climb": 0.0614999458193779, "groundspeed": 0.07979961484670639, "heading": 204, "throttle": 0, "type": "VFR_HUD"}}}
{"packet_index": 2999, "message": {"header": {"component_id": 1, "sequence": 185, "system_id": 1}, "message": {"airspeed": 0.07500000298023224, "alt": 16.279998779296875, "climb": 0.05266914144158363, "groundspeed": 0.07767551392316818, "heading": 204, "throttle": 0, "type": "VFR_HUD"}}}
{"packet_index": 3024, "message": {"header": {"component_id": 1, "sequence": 199, "system_id": 1}, "message": {"autopilot": {"type": "MAV_AUTOPILOT_ARDUPILOTMEGA"}, "base_mode": {"bits": 129}, "custom_mode": 4, "mavlink_version": 3, "mavtype": {"type": "MAV_TYPE_SURFACE_BOAT"}, "system_status": {"type": "MAV_STATE_STANDBY"}, "type": "HEARTBEAT"}}}
{"packet_index": 3026, "message": {"header": {"component_id": 1, "sequence": 202, "system_id": 1}, "message": {"airspeed": 0.07500000298023224, "alt": 16.279998779296875, "climb": 0.04893934726715088, "groundspeed": 0.07278119027614594, "heading": 204, "throttle": 0, "type": "VFR_HUD"}}}
{"packet_index": 3050, "message": {"header": {"component_id": 1, "sequence": 207, "system_id": 1}, "message": {"airspeed": 0.07600000500679016, "alt": 16.279998779296875, "climb": 0.04560762271285057, "groundspeed": 0.07235588878393173, "heading": 204, "throttle": 0, "type": "VFR_HUD"}}}
{"packet_index": 3074, "message": {"header": {"component_id": 1, "sequence": 212, "system_id": 1}, "message": {"airspeed": 0.07600000500679016, "alt": 16.270000457763672, "climb": 0.038584113121032715, "groundspeed": 0.07739335298538208, "heading": 204, "throttle": 0, "type": "VFR_HUD"}}}
{"packet_index": 3101, "message": {"header": {"component_id": 1, "sequence": 228, "system_id": 1}, "message": {"airspeed": 0.08800000697374344, "alt": 16.25, "climb": 0.030453620478510857, "groundspeed": 0.08620941638946533, "heading": 203, "throttle": 0, "type": "VFR_HUD"}}}
{"packet_index": 3124, "message": {"header": {"component_id": 1, "sequence": 244, "system_id": 1}, "message": {"airspeed": 0.08800000697374344, "alt": 16.239999771118164, "climb": 0.027288829907774925, "groundspeed": 0.09296813607215881, "heading": 203, "throttle": 0, "type": "VFR_HUD"}}}
{"packet_index": 3148, "message": {"header": {"component_id": 1, "sequence": 249, "system_id": 1}, "message": {"airspeed": 0.0950000062584877, "alt": 16.25, "climb": 0.032586026936769485, "groundspeed": 0.09428711980581284, "heading": 203, "throttle": 0, "type": "VFR_HUD"}}}
{"packet_index": 3172, "message": {"header": {"component_id": 1, "sequence": 254, "system_id": 1}, "message": {"airspeed": 0.0950000062584877, "alt": 16.270000457763672, "climb": 0.03703230619430542, "groundspeed": 0.08744926750659943, "heading": 203, "throttle": 0, "type": "VFR_HUD"}}}
{"packet_index": 3198, "message": {"header": {"component_id": 1, "sequence": 17, "system_id": 1}, "message": {"airspeed": 0.0990000069141388, "alt": 16.299999237060547, "climb": 0.031394973397254944, "groundspeed": 0.07069379836320877, "heading": 203, "throttle": 0, "type": "VFR_HUD"}}}
{"packet_index": 3211, "message": {"header": {"component_id": 1, "sequence": 20, "system_id": 1}, "message": {"altitude": 32970, "latitude": 634405552, "longitude": 103484873, "time_usec": 8536367373, "type": "GPS_GLOBAL_ORIGIN"}}}
{"packet_index": 3212, "message": {"header": {"component_id": 1, "sequence": 21, "system_id": 1}, "message": {"altitude": 6860, "approach_x": 0.0, "approach_y": 0.0, "approach_z": 0.0, "latitude": 634405553, "longitude": 103484876, "q": [null, null, null, null], "time_usec": 8536367381, "type": "HOME_POSITION", "x": 0.011131884530186653, "y": 0.01493206899613142, "z": 26.10999870300293}}}
{"packet_index": 3224, "message": {"header": {"component_id": 1, "sequence": 25, "system_id": 1}, "message": {"airspeed": 0.0990000069141388, "alt": 16.329999923706055, "climb": 0.02067994326353073, "groundspeed": 0.062010735273361206, "heading": 203, "throttle": 0, "type": "VFR_HUD"}}}
{"packet_index": 3248, "message": {"header": {"component_id": 1, "sequence": 41, "system_id": 1}, "message": {"airspeed": 0.06800000369548798, "alt": 16.350000381469727, "climb": 0.0012757547665387392, "groundspeed": 0.05622066929936409, "heading": 203, "throttle": 0, "type": "VFR_HUD"}}}
{"packet_index": 3273, "message": {"header": {"component_id": 1, "sequence": 55, "system_id": 1}, "message": {"autopilot": {"type": "MAV_AUTOPILOT_ARDUPILOTMEGA"}, "base_mode": {"bits": 129}, "custom_mode": 4, "mavlink_version": 3, "mavtype": {"type": "MAV_TYPE_SURFACE_BOAT"}, "system_status": {"type": "MAV_STATE_STANDBY"}, "type": "HEARTBEAT"}}}
{"packet_index": 3275, "message": {"header": {"component_id": 1, "sequence": 58, "system_id": 1}, "message": {"airspeed": 0.06800000369548798, "alt": 16.350000381469727, "climb": -0.012890681624412537, "groundspeed": 0.05407802388072014, "heading": 203, "throttle": 0, "type": "VFR_HUD"}}}
{"packet_index": 3299, "message": {"header": {"component_id": 1, "sequence": 63, "system_id": 1}, "message": {"airspeed": 0.04200000315904617, "alt": 16.34000015258789, "climb": -0.0257723331451416, "groundspeed": 0.03783239424228668, "heading": 203, "throttle": 0, "type": "VFR_HUD"}}}
{"packet_index": 3323, "message": {"header": {"component_id": 1, "sequence": 68, "system_id": 1}, "message": {"airspeed": 0.04200000315904617, "alt": 16.329999923706055, "climb": -0.0205523744225502, "groundspeed": 0.026850778609514236, "heading": 203, "throttle": 0, "type": "VFR_HUD"}}}
{"packet_index": 3350, "message": {"header": {"component_id": 1, "sequence": 84, "system_id": 1}, "message": {"airspeed": 0.04800000041723251, "alt": 16.31999969482422, "climb": -0.0004768111975863576, "groundspeed": 0.03394715115427971, "heading": 203, "throttle": 0, "type": "VFR_HUD"}}}
{"packet_index": 3373, "message": {"header": {"component_id": 1, "sequence": 100, "system_id": 1}, "message": {"airspeed": 0.04800000041723251, "alt": 16.31999969482422, "climb": 0.031134475022554398, "groundspeed": 0.03934531286358833, "heading": 203, "throttle": 0, "type": "VFR_HUD"}}}
{"packet_index": 3397, "message": {"header": {"component_id": 1, "sequence": 106, "system_id": 1}, "message": {"airspeed": 0.036000002175569534, "alt": 16.34000015258789, "climb": 0.06422455608844757, "groundspeed": 0.03232866898179054, "heading": 202, "throttle": 0, "type": "VFR_HUD"}}}
{"packet_index": 3421, "message": {"header": {"component_id": 1, "sequence": 111, "system_id": 1}, "message": {"airspeed": 0.036000002175569534, "alt": 16.35999870300293, "climb": 0.08032884448766708, "groundspeed": 0.015200940892100334, "heading": 202, "throttle": 0, "type": "VFR_HUD"}}}
{"packet_index": 3447, "message": {"header": {"component_id": 1, "sequence": 129, "system_id": 1}, "message": {"airspeed": 0.04000000283122063, "alt": 16.3799991607666, "climb": 0.08970890939235687, "groundspeed": 0.03063715621829033, "heading": 202, "throttle": 0, "type": "VFR_HUD"}}}
{"packet_index": 3460, "message": {"header": {"component_id": 1, "sequence": 132, "system_id": 1}, "message": {"altitude": 32970, "latitude": 634405552, "longitude": 103484873, "time_usec": 8537367420, "type": "GPS_GLOBAL_ORIGIN"}}}
{"packet_index": 3461, "message": {"header": {"component_id": 1, "sequence": 133, "system_id": 1}, "message": {"altitude": 6860, "approach_x": 0.0, "approach_y": 0.0, "approach_z": 0.0, "latitude": 634405553, "longitude": 103484876, "q": [null, null, null, null], "time_usec": 8537367428, "type": "HOME_POSITION", "x": 0.011131884530186653, "y": 0.01493206899613142, "z": 26.10999870300293}}}
{"packet_index": 3473, "message": {"header": {"component_id": 1, "sequence": 138, "system_id": 1}, "message": {"airspeed": 0.04000000283122063, "alt": 16.389999389648438, "climb": 0.0825505405664444, "groundspeed": 0.04517105221748352, "heading": 202, "throttle": 0, "type": "VFR_HUD"}}}
{"packet_index": 3497, "message": {"header": {"component_id": 1, "sequence": 154, "system_id": 1}, "message": {"airspeed": 0.04400000348687172, "alt": 16.389999389648438, "climb": 0.0665287971496582, "groundspeed": 0.04801561310887337, "heading": 202, "throttle": 0, "type": "VFR_HUD"}}}
{"packet_index": 3522, "message": {"header": {"component_id": 1, "sequence": 168, "system_id": 1}, "message": {"autopilot": {"type": "MAV_AUTOPILOT_ARDUPILOTMEGA"}, "base_mode": {"bits": 129}, "custom_mode": 4, "mavlink_version": 3, "mavtype": {"type": "MAV_TYPE_SURFACE_BOAT"}, "system_status": {"type": "MAV_STATE_STANDBY"}, "type": "HEARTBEAT"}}}
{"packet_index": 3524, "message": {"header": {"component_id": 1, "sequence": 171, "system_id": 1}, "message": {"airspeed": 0.04400000348687172, "alt": 16.389999389648438, "climb": 0.04353828355669975, "groundspeed": 0.045275408774614334, "heading": 202, "throttle": 0, "type": "VFR_HUD"}}}
{"packet_index": 3548, "message": {"header": {"component_id": 1, "sequence": 176, "system_id": 1}, "message": {"airspeed": 0.05100000277161598, "alt": 16.389999389648438, "climb": 0.03127799928188324, "groundspeed": 0.05161544680595398, "heading": 201, "throttle": 0, "type": "VFR_HUD"}}}
{"packet_index": 3572, "message": {"header": {"component_id": 1, "sequence": 181, "system_id": 1}, "message": {"airspeed": 0.05100000277161598, "alt": 16.389999389648438, "climb": 0.02823551557958126, "groundspeed": 0.04923323541879654, "heading": 201, "throttle": 0, "type": "VFR_HUD"}}}
{"packet_index": 3599, "message": {"header": {"component_id": 1, "sequence": 197, "system_id": 1}, "message": {"airspeed": 0.06400000303983688, "alt": 16.40999984741211, "climb": 0.04331091791391373, "groundspeed": 0.047265682369470596, "heading": 201, "throttle": 0, "type": "VFR_HUD"}}}
{"packet_index": 3622, "message": {"header": {"component_id": 1, "sequence": 213, "system_id": 1}, "message": {"airspeed": 0.06400000303983688, "alt": 16.43000030517578, "climb": 0.062492743134498596, "groundspeed": 0.04554106295108795, "heading": 201, "throttle": 0, "type": "VFR_HUD"}}}
{"packet_index": 3646, "message": {"header": {"component_id": 1, "sequence": 218, "system_id": 1}, "message": {"airspeed": 0.0560000017285347, "alt": 16.44999885559082, "climb": 0.059681136161088943, "groundspeed": 0.040958039462566376, "heading": 201, "throttle": 0, "type": "VFR_HUD"}}}
{"packet_index": 3670, "message": {"header": {"component_id": 1, "sequence": 223, "system_id": 1}, "message": {"airspeed": 0.0560000017285347, "alt": 16.459999084472656, "climb": 0.026856720447540283, "groundspeed": 0.037633251398801804, "heading": 201, "throttle": 0, "type": "VFR_HUD"}}}
{"packet_index": 3696, "message": {"header": {"component_id": 1, "sequence": 241, "system_id": 1}, "message": {"airspeed": 0.05300000309944153, "alt": 16.44999885559082, "climb": -0.019523682072758675, "groundspeed": 0.04726109653711319, "heading": 201, "throttle": 0, "type": "VFR_HUD"}}}
{"packet_index": 3709, "message": {"header": {"component_id": 1, "sequence": 244, "system_id": 1}, "message": {"altitude": 32970, "latitude": 634405552, "longitude": 103484873, "time_usec": 8538367411, "type": "GPS_GLOBAL_ORIGIN"}}}
{"packet_index": 3710, "message": {"header": {"component_id": 1, "sequence": 245, "system_id": 1}, "message": {"altitude": 6860, "approach_x": 0.0, "approach_y": 0.0, "approach_z": 0.0, "latitude": 634405553, "longitude": 103484876, "q": [null, null, null, null], "time_usec": 8538367419, "type": "HOME_POSITION", "x": 0.011131884530186653, "y": 0.01493206899613142, "z": 26.10999870300293}}}
{"packet_index": 3722, "message": {"header": {"component_id": 1, "sequence": 249, "system_id": 1}, "message": {"airspeed": 0.05300000309944153, "alt": 16.420000076293945, "climb": -0.05371026694774628, "groundspeed": 0.06634432822465897, "heading": 201, "throttle": 0, "type": "VFR_HUD"}}}
{"packet_index": 3746, "message": {"header": {"component_id": 1, "sequence": 9, "system_id": 1}, "message": {"airspeed": 0.05300000309944153, "alt": 16.389999389648438, "climb": -0.062260452657938004, "groundspeed": 0.08197154849767685, "heading": 201, "throttle": 0, "type": "VFR_HUD"}}}
{"packet_index": 3771, "message": {"header": {"component_id": 1, "sequence": 23, "system_id": 1}, "message": {"autopilot": {"type": "MAV_AUTOPILOT_ARDUPILOTMEGA"}, "base_mode": {"bits": 129}, "custom_mode": 4, "mavlink_version": 3, "mavtype": {"type": "MAV_TYPE_SURFACE_BOAT"}, "system_status": {"type": "MAV_STATE_STANDBY"}, "type": "HEARTBEAT"}}}
{"packet_index": 3773, "message": {"header": {"component_id": 1, "sequence": 26, "system_id": 1}, "message": {"airspeed": 0.05300000309944153, "alt": 16.3799991607666, "climb": -0.04531364515423775, "groundspeed": 0.0876469835639, "heading": 201, "throttle": 0, "type": "VFR_HUD"}}}
{"packet_index": 3797, "message": {"header": {"component_id": 1, "sequence": 31, "system_id": 1}, "message": {"airspeed": 0.04200000315904617, "alt": 16.3799991607666, "climb": -0.01631857268512249, "groundspeed": 0.0901089757680893, "heading": 201, "throttle": 0, "type": "VFR_HUD"}}}
{"packet_index": 3821, "message": {"header": {"component_id": 1, "sequence": 36, "system_id": 1}, "message": {"airspeed": 0.04200000315904617, "alt": 16.389999389648438, "climb": 0.015517691150307655, "groundspeed": 0.0930311307311058, "heading": 201, "throttle": 0, "type": "VFR_HUD"}}}
