packet_index,time_boot_ms,x_m,y_m,z_m,vx_mps,vy_mps,vz_mps
33,8523587,-5.149098873138428,14.410381317138672,16.688114166259766,-0.03298942744731903,0.04026131331920624,0.07099879533052444
116,8523927,-5.155149459838867,14.421481132507324,16.62892723083496,-0.02550867758691311,0.017858922481536865,-0.07554272562265396
195,8524247,-5.162059307098389,14.429977416992188,16.631559371948242,-0.0317993089556694,0.03730703145265579,-0.07267385721206665
282,8524587,-5.170643329620361,14.441378593444824,16.668195724487305,-0.03354240208864212,-0.003237460507079959,-0.02116750366985798
370,8524927,-5.1880106925964355,14.44228458404541,16.710514068603516,-0.06388026475906372,0.001402895082719624,0.004070999566465616
445,8525247,-5.205738544464111,14.448149681091309,16.684886932373047,-0.058188650757074356,0.00725143775343895,-0.05775393173098564
531,8525587,-5.224697589874268,14.447242736816406,16.68486213684082,-0.06061072647571564,-0.03620678186416626,-0.04246062785387039
619,8525927,-5.240923881530762,14.433446884155273,16.7449951171875,-0.05139751359820366,-0.061359357088804245,-0.0077719842083752155
693,8526247,-5.258620262145996,14.413304328918457,16.689573287963867,-0.04977443069219589,-0.08244477212429047,-0.0270768441259861
780,8526587,-5.270387649536133,14.400762557983398,16.70269775390625,-0.01962617225944996,-0.006587565876543522,0.08313900232315063
856,8526907,-5.272993087768555,14.410208702087402,16.755353927612305,2.905782821471803e-05,0.02760584093630314,0.11049354821443558
943,8527247,-5.268581390380859,14.424269676208496,16.73470115661621,-0.027057748287916183,0.06024569272994995,-0.0490916408598423
1029,8527587,-5.274491310119629,14.450092315673828,16.734458923339844,-0.03912049159407616,0.07463274896144867,-0.01710852049291134
1105,8527907,-5.277890682220459,14.469959259033203,16.738100051879883,-0.04856650158762932,0.04082127660512924,0.01388323400169611
1192,8528247,-5.294694423675537,14.47981071472168,16.807252883911133,-0.08521107584238052,0.011537415906786919,-0.05451083555817604
1278,8528587,-5.314999103546143,14.48726749420166,16.805805206298828,-0.07185835391283035,0.009739451110363007,-0.058127451688051224
1354,8528907,-5.329145431518555,14.490734100341797,16.744659423828125,-0.04378972947597504,-0.04144047200679779,-0.0341205969452858
1440,8529247,-5.346291542053223,14.474306106567383,16.798433303833008,-0.055396031588315964,-0.06563179194927216,-0.005531577859073877
1527,8529587,-5.363131523132324,14.454595565795898,16.764707565307617,-0.03101360611617565,-0.06684836745262146,-0.015017597004771233
1603,8529907,-5.380823135375977,14.438911437988281,16.692705154418945,-0.05673700571060181,-0.04192228242754936,0.025721019133925438
1689,8530247,-5.396909236907959,14.431947708129883,16.750244140625,-0.03394642844796181,-0.007077582646161318,0.07396256923675537
1776,8530587,-5.4097580909729,14.435332298278809,16.777013778686523,-0.05203311890363693,0.040483295917510986,0.008467791602015495
1852,8530907,-5.4239397048950195,14.44955062866211,16.709348678588867,-0.05888127535581589,0.04254893213510513,0.0075941081158816814
1939,8531247,-5.439744472503662,14.464408874511719,16.75809097290039,-0.05600355938076973,0.05372091382741928,0.01386274304240942
2025,8531587,-5.446004390716553,14.487112998962402,16.835159301757812,-0.02831225097179413,0.07976227253675461,0.005483189597725868
2102,8531907,-5.451685905456543,14.506464958190918,16.790008544921875,-0.042115647345781326,0.05079953372478485,-0.04736727848649025
2188,8532247,-5.461676120758057,14.50859546661377,16.756759643554688,-0.04331927001476288,-0.033581849187612534,-0.12677738070487976
2275,8532587,-5.483267307281494,14.486196517944336,16.827177047729492,-0.08089975267648697,-0.07827761769294739,-0.04306661710143089
2351,8532907,-5.510906219482422,14.458760261535645,16.74789047241211,-0.060768093913793564,-0.09030131250619888,-0.031330738216638565
2437,8533247,-5.538004398345947,14.440089225769043,16.714603424072266,-0.05128604546189308,-0.021930383518338203,0.07195435464382172
2515,8533567,-5.558295249938965,14.438188552856445,16.815088272094727,-0.04962007701396942,0.024303633719682693,0.11662226915359497
2600,8533907,-5.576993942260742,14.436506271362305,16.779834747314453,-0.06065646931529045,0.003933794796466827,-0.029961058869957924
2687,8534247,-5.589405536651611,14.436968803405762,16.7059326171875,-0.035217057913541794,0.003511767601594329,-0.034754280000925064
2764,8534567,-5.589824199676514,14.44284725189209,16.704051971435547,-0.012344117276370525,0.013324683532118797,-0.02445012331008911
2849,8534907,-5.590480327606201,14.44611644744873,16.767269134521484,-0.037905577570199966,0.0025598180945962667,0.02902919240295887
2935,8535247,-5.601774215698242,14.446677207946777,16.73231315612793,-0.07142331451177597,0.007353849709033966,-0.06553519517183304
3013,8535567,-5.618780136108398,14.450614929199219,16.681598663330078,-0.07379631698131561,-0.010407299734652042,-0.04970063641667366
3098,8535907,-5.636435031890869,14.44327163696289,16.711990356445312,-0.07904917001724243,-0.034399013966321945,-0.030453620478510857
3185,8536247,-5.664166450500488,14.441523551940918,16.68569564819336,-0.07564430683851242,0.002955978037789464,-0.03258391097187996
3262,8536567,-5.680805206298828,14.443910598754883,16.614835739135742,-0.04570750147104263,-0.02590319886803627,0.010029183700680733
3347,8536907,-5.686188697814941,14.444883346557617,16.645320892333984,-0.024600692093372345,0.023392625153064728,0.0004768111975863576
3434,8537247,-5.689361572265625,14.452802658081055,16.599470138549805,-0.013850422576069832,-0.013790837489068508,-0.08529944717884064
3511,8537567,-5.687204360961914,14.444382667541504,16.57322120666504,-0.017461149021983147,-0.04284387826919556,-0.05246584862470627
3596,8537907,-5.692695140838623,14.434228897094727,16.55649185180664,-0.03017069585621357,-0.03638370335102081,-0.04331091791391373
3683,8538247,-5.698052406311035,14.425548553466797,16.50885581970215,-0.0354609340429306,-0.01785610429942608,-0.008131100796163082
3760,8538567,-5.714971542358398,14.42825984954834,16.58128547668457,-0.08278584480285645,0.02332857996225357,0.05426710098981857
3846,8538907,-5.736523151397705,14.437681198120117,16.558685302734375,-0.09219720214605331,0.02397536300122738,-0.04495314136147499
3933,8539247,-5.756552219390869,14.445475578308105,16.527250289916992,-0.060237713158130646,-0.014445622451603413,-0.10475804656744003
4010,8539567,-5.766650676727295,14.445220947265625,16.507417678833008,-0.04048745334148407,-0.034602090716362,-0.10593687742948532
4095,8539907,-5.7820844650268555,14.436239242553711,16.517351150512695,-0.03768693655729294,-0.058175697922706604,-0.012010758742690086
4182,8540227,-5.793303489685059,14.424398422241211,16.54450225830078,-0.023954428732395172,-0.03733640909194946,0.008137485943734646
4259,8540567,-5.804403781890869,14.417219161987305,16.512758255004883,-0.031889986246824265,0.003988415468484163,-0.037327542901039124
4344,8540907,-5.814783573150635,14.419807434082031,16.47525978088379,-0.028827711939811707,0.0015174910658970475,-0.058398470282554626
4430,8541227,-5.826122283935547,14.421332359313965,16.489381790161133,-0.05788032338023186,0.013619938865303993,-0.0228761974722147
4508,8541567,-5.850702285766602,14.42874526977539,16.508203506469727,-0.11849259585142136,0.0002828340802807361,-0.016209676861763
4593,8541907,-5.897352695465088,14.433639526367188,16.47704315185547,-0.1757677048444748,-0.012114522978663445,-0.024403521791100502
4679,8542227,-5.94290828704834,14.441104888916016,16.478862762451172,-0.1323944479227066,-0.021838439628481865,-0.0585605688393116
4759,8542567,-5.977336883544922,14.450379371643066,16.498794555664062,-0.08868658542633057,-0.008541056886315346,-0.012933668680489063
4844,8542907,-6.008051872253418,14.456318855285645,16.415958404541016,-0.08850918710231781,-0.03347547724843025,-0.10905956476926804
4930,8543227,-6.051767349243164,14.458145141601562,16.443517684936523,-0.15620338916778564,0.0002203637413913384,-0.06702607870101929
5008,8543567,-6.1150102615356445,14.471908569335938,16.547842025756836,-0.18111884593963623,0.04140320420265198,0.012732512317597866
5093,8543907,-6.172072887420654,14.495789527893066,16.520681381225586,-0.1748230904340744,0.1042213961482048,0.005593887530267239
5179,8544227,-6.222367286682129,14.538070678710938,16.52095603942871,-0.18291635811328888,0.16107207536697388,0.014722859486937523
5257,8544567,-6.273934364318848,14.59228515625,16.562625885009766,-0.18662996590137482,0.17604051530361176,0.005006119143217802
5342,8544907,-6.326029300689697,14.661874771118164,16.550649642944336,-0.20929411053657532,0.20602522790431976,-0.03446320816874504
5424,8545227,-6.377753734588623,14.718792915344238,16.492015838623047,-0.19177372753620148,0.13716860115528107,-0.09332988411188126
5506,8545567,-6.418807029724121,14.771002769470215,16.49116325378418,-0.11210174858570099,0.11046288907527924,-0.06917120516300201
5591,8545907,-6.441441059112549,14.800363540649414,16.468563079833984,-0.04155547544360161,0.03139689192175865,-0.03970331326127052
5678,8546227,-6.444561958312988,14.815509796142578,16.428112030029297,0.01013315562158823,0.05194496735930443,-0.0003443772438913584
5755,8546567,-6.446007251739502,14.82913875579834,16.389493942260742,-0.007447703275829554,0.03590649738907814,0.024024205282330513
5839,8546887,-6.452619552612305,14.840948104858398,16.3594913482666,-0.018327390775084496,0.06169820576906204,-0.009226101450622082
5923,8547227,-6.472023010253906,14.864943504333496,16.33588981628418,-0.13242672383785248,0.13048429787158966,-0.05529684200882912
6004,8547567,-6.533060073852539,14.925919532775879,16.33306312561035,-0.28294891119003296,0.2532350718975067,-0.026541531085968018
6088,8547887,-6.628415107727051,15.027111053466797,16.28963851928711,-0.3985680341720581,0.33485183119773865,-0.10758659988641739
6175,8548227,-6.746273994445801,15.16230297088623,16.247135162353516,-0.4601632356643677,0.35296928882598877,-0.1205216497182846
6253,8548567,-6.876276016235352,15.324387550354004,16.25531578063965,-0.48647162318229675,0.3762757480144501,-0.040724173188209534
6338,8548887,-7.000734329223633,15.487873077392578,16.22573471069336,-0.4479402005672455,0.38391536474227905,-0.07374488562345505
6425,8549227,-7.1164116859436035,15.674406051635742,16.194393157958984,-0.43588322401046753,0.42530006170272827,-0.011056526564061642
6503,8549567,-7.240737438201904,15.871746063232422,16.268224716186523,-0.43349602818489075,0.46072545647621155,0.03229683265089989
6587,8549887,-7.353894233703613,16.063621520996094,16.192459106445312,-0.42957690358161926,0.4889720380306244,-0.054805293679237366
6674,8550227,-7.484743595123291,16.2802677154541,16.205066680908203,-0.48559850454330444,0.5165544152259827,0.02715136483311653
6752,8550567,-7.635031223297119,16.490108489990234,16.239534378051758,-0.4852991998195648,0.47360706329345703,-0.11206451803445816
6789,8550707,-7.696573734283447,16.572410583496094,16.246763229370117,-0.4763576090335846,0.479864239692688,-0.13229045271873474
6802,8550747,-7.713731288909912,16.596637725830078,16.251169204711914,-0.47699761390686035,0.4843224287033081,-0.12654650211334229
6816,8550787,-7.732117652893066,16.621204376220703,16.25674057006836,-0.48077836632728577,0.48444420099258423,-0.116928830742836
6830,8550807,-7.7412004470825195,16.632997512817383,16.25922393798828,-0.47945135831832886,0.48471927642822266,-0.10909901559352875
6845,8550847,-7.760019302368164,16.656566619873047,16.264978408813477,-0.4820308983325958,0.4787818193435669,-0.0960361436009407
6848,8550887,-7.778504371643066,16.680553436279297,16.271747589111328,-0.48426157236099243,0.4738811254501343,-0.08287795633077621
6863,8550907,-7.787768363952637,16.69300079345703,16.274978637695312,-0.4836466908454895,0.46933111548423767,-0.0770416259765625
6866,8550947,-7.806437969207764,16.717004776000977,16.2801456451416,-0.4833342134952545,0.4594082534313202,-0.06887759268283844
6879,8550987,-7.825299263000488,16.739839553833008,16.283985137939453,-0.4860435128211975,0.4482037127017975,-0.06186757981777191
6883,8551007,-7.83479642868042,16.750835418701172,16.285661697387695,-0.4867965579032898,0.4413890838623047,-0.060065750032663345
6896,8551047,-7.853888988494873,16.77203369140625,16.286712646484375,-0.48734694719314575,0.4290890097618103,-0.057401735335588455
6910,8551087,-7.873186111450195,16.79380226135254,16.285831451416016,-0.4872916340827942,0.4184010326862335,-0.058172065764665604
6914,8551107,-7.883390426635742,16.805452346801758,16.28533172607422,-0.48960721492767334,0.412632554769516,-0.0589355044066906
6928,8551147,-7.902970790863037,16.827011108398438,16.282997131347656,-0.49360689520835876,0.40218791365623474,-0.06298647820949554
6941,8551187,-7.922811508178711,16.84747886657715,16.27931022644043,-0.49759024381637573,0.39469894766807556,-0.06655031442642212
6945,8551207,-7.932829856872559,16.857351303100586,16.277450561523438,-0.5007272958755493,0.3898579478263855,-0.07036694139242172
6960,8551247,-7.953048229217529,16.876447677612305,16.274730682373047,-0.5055792331695557,0.385438472032547,-0.07161225378513336
6973,8551287,-7.973779678344727,16.896276473999023,16.27300262451172,-0.511787474155426,0.3830818235874176,-0.07486288994550705
6977,8551307,-7.984351634979248,16.90660285949707,16.27212142944336,-0.5127276182174683,0.38204479217529297,-0.07380881905555725
6990,8551347,-8.005658149719238,16.926652908325195,16.273557662963867,-0.5184049606323242,0.38098761439323425,-0.0760643482208252
6997,8551367,-8.016375541687012,16.93642807006836,16.27562713623047,-0.5211292505264282,0.3818325698375702,-0.07764744013547897
7010,8551407,-8.038371086120605,16.955860137939453,16.27889633178711,-0.5228846073150635,0.37790942192077637,-0.07935420423746109
7023,8551447,-8.059866905212402,16.974267959594727,16.28489112854004,-0.5212234258651733,0.37868693470954895,-0.07855701446533203
7028,8551467,-8.070588111877441,16.983285903930664,16.28915023803711,-0.5197845101356506,0.3767181932926178,-0.07883448153734207
7041,8551507,-8.092877388000488,17.003652572631836,16.296842575073242,-0.5183142423629761,0.37644439935684204,-0.07365689426660538
7055,8551547,-8.114977836608887,17.023296356201172,16.304899215698242,-0.5168313980102539,0.37652766704559326,-0.06653037667274475
7060,8551567,-8.125962257385254,17.03287124633789,16.30923080444336,-0.5155019760131836,0.3766132891178131,-0.062466710805892944
7074,8551607,-8.147787094116211,17.051549911499023,16.317045211791992,-0.5131415724754333,0.3749794363975525,-0.052297838032245636
7087,8551647,-8.169479370117188,17.069664001464844,16.322509765625,-0.5131891369819641,0.37566834688186646,-0.0440615750849247
7092,8551667,-8.1802978515625,17.078554153442383,16.324338912963867,-0.5137794613838196,0.37488648295402527,-0.04048799350857735
7105,8551707,-8.203798294067383,17.09842872619629,16.32792854309082,-0.5156587362289429,0.3755874037742615,-0.03222848102450371
7118,8551747,-8.226673126220703,17.117368698120117,16.32839012145996,-0.518650233745575,0.37719860672950745,-0.029385751113295555
7123,8551767,-8.238066673278809,17.12665367126465,16.32724952697754,-0.5191514492034912,0.37941795587539673,-0.0268880445510149
7136,8551807,-8.2608060836792,17.144920349121094,16.325061798095703,-0.5233993530273438,0.3825259506702423,-0.029492629691958427
7149,8551847,-8.283520698547363,17.162853240966797,16.3204402923584,-0.5254168510437012,0.38486534357070923,-0.03486049920320511
7154,8551867,-8.29484748840332,17.17168617248535,16.31703758239746,-0.5267642736434937,0.3845948576927185,-0.03834915533661842
7168,8551907,-8.318327903747559,17.190980911254883,16.310569763183594,-0.5290452241897583,0.3867945969104767,-0.04679342359304428
7181,8551947,-8.341655731201172,17.20976448059082,16.30406379699707,-0.5299468040466309,0.389888733625412,-0.053401898592710495
7186,8551967,-8.35378360748291,17.219425201416016,16.300718307495117,-0.5299443006515503,0.39259955286979675,-0.05723094195127487
7199,8552007,-8.376876831054688,17.237743377685547,16.2944278717041,-0.5309615731239319,0.3966432511806488,-0.05791253224015236
7203,8552027,-8.38836669921875,17.246816635131836,16.29146385192871,-0.531791090965271,0.3986768126487732,-0.05776538699865341
7217,8552067,-8.411248207092285,17.26485824584961,16.28873062133789,-0.5321283936500549,0.4046737849712372,-0.05180623009800911
7230,8552107,-8.435580253601074,17.28468132019043,16.28656005859375,-0.5347127318382263,0.4125736951828003,-0.039811622351408005
7243,8552127,-8.447668075561523,17.294498443603516,16.285680770874023,-0.5362046957015991,0.4157489538192749,-0.03237881883978844
7248,8552167,-8.471656799316406,17.31398582458496,16.288183212280273,-0.537115216255188,0.42331138253211975,-0.012066163122653961
7261,8552207,-8.495390892028809,17.33325958251953,16.291105270385742,-0.5365003347396851,0.4259589612483978,0.013058549724519253
7275,8552227,-8.507164001464844,17.342792510986328,16.292783737182617,-0.535122811794281,0.42744216322898865,0.025406191125512123
7280,8552267,-8.531111717224121,17.362085342407227,16.298355102539062,-0.5347675085067749,0.427410751581192,0.053978048264980316
7293,8552307,-8.555663108825684,17.382095336914062,16.30442237854004,-0.5373604893684387,0.42977550625801086,0.08053073287010193
7306,8552327,-8.567834854125977,17.391939163208008,16.30765151977539,-0.5389707088470459,0.4307470917701721,0.09190087020397186
7311,8552367,-8.592025756835938,17.41139030456543,16.312698364257812,-0.5418269038200378,0.4330221712589264,0.11239036917686462
7326,8552407,-8.61603832244873,17.430627822875977,16.318281173706055,-0.5435327887535095,0.4379885792732239,0.1262027770280838
7333,8552427,-8.627971649169922,17.440204620361328,16.321176528930664,-0.5432909727096558,0.44196781516075134,0.1295151710510254
7344,8552467,-8.651678085327148,17.459379196166992,16.322402954101562,-0.5449098348617554,0.4503662586212158,0.12865613400936127
7357,8552507,-8.676238059997559,17.479984283447266,16.323116302490234,-0.5451698899269104,0.4584433138370514,0.11976301670074463
7363,8552527,-8.688373565673828,17.490264892578125,16.323482513427734,-0.5398359298706055,0.462700217962265,0.11122141033411026
7378,8552567,-8.712828636169434,17.511220932006836,16.31932258605957,-0.5350262522697449,0.4680193364620209,0.09194567799568176
7390,8552607,-8.736236572265625,17.531578063964844,16.315217971801758,-0.5291127562522888,0.4730108976364136,0.06699077785015106
7403,8552627,-8.747747421264648,17.541709899902344,16.313129425048828,-0.5259808897972107,0.47456616163253784,0.05348871275782585
7408,8552667,-8.770323753356934,17.561798095703125,16.306262969970703,-0.5165146589279175,0.47447648644447327,0.02744421362876892
7420,8552687,-8.782135009765625,17.571796417236328,16.302425384521484,-0.5112940669059753,0.4735923111438751,0.013978783041238785
7430,8552727,-8.805238723754883,17.59156036376953,16.294784545898438,-0.5040977001190186,0.47219324111938477,-0.00994142610579729
7439,8552767,-8.827696800231934,17.610994338989258,16.288084030151367,-0.4959225654602051,0.4676457345485687,-0.031971849501132965
7451,8552787,-8.838698387145996,17.620586395263672,16.284704208374023,-0.4907868504524231,0.4669610857963562,-0.04114771634340286
7456,8552827,-8.8607816696167,17.6400203704834,16.27788734436035,-0.48381927609443665,0.46428683400154114,-0.05672936886548996
7470,8552867,-8.881930351257324,17.65873146057129,16.27593421936035,-0.48009467124938965,0.46038585901260376,-0.06487433612346649
7484,8552887,-8.893087387084961,17.668405532836914,16.274826049804688,-0.48041146993637085,0.46137773990631104,-0.06771976500749588
7491,8552927,-8.915066719055176,17.687559127807617,16.27247428894043,-0.47721385955810547,0.4616454243659973,-0.06827320158481598
7502,8552967,-8.936674118041992,17.706541061401367,16.27621841430664,-0.47869598865509033,0.4603177309036255,-0.06114973872900009
7514,8552987,-8.947379112243652,17.715961456298828,16.27786636352539,-0.4775277376174927,0.46125078201293945,-0.05790387839078903
7522,8553027,-8.968585014343262,17.73475456237793,16.280921936035156,-0.4794657230377197,0.46290016174316406,-0.044590361416339874
7533,8553067,-8.989603996276855,17.75350570678711,16.288742065429688,-0.4812489449977875,0.4667832851409912,-0.027407150715589523
7545,8553087,-9.00088882446289,17.762975692749023,16.292627334594727,-0.4807174801826477,0.4688495993614197,-0.01755346916615963
7552,8553127,-9.023792266845703,17.782411575317383,16.300121307373047,-0.48732104897499084,0.47332698106765747,0.0032788121607154608
7564,8553167,-9.0460205078125,17.801406860351562,16.30895233154297,-0.49188706278800964,0.4757577180862427,0.026331597939133644
7576,8553187,-9.057092666625977,17.810903549194336,16.313274383544922,-0.4935280680656433,0.47764062881469727,0.03546171635389328
7591,8553227,-9.079136848449707,17.829946517944336,16.321720123291016,-0.4982519745826721,0.48027142882347107,0.055737730115652084
7596,8553267,-9.101133346557617,17.848905563354492,16.32880401611328,-0.5034949779510498,0.47946810722351074,0.07062417268753052
7608,8553287,-9.112874984741211,17.8582706451416,16.33224105834961,-0.5068097114562988,0.479155957698822,0.07705210149288177
7613,8553327,-9.136274337768555,17.876970291137695,16.33904266357422,-0.514583945274353,0.4792196452617645,0.08707982301712036
7625,8553347,-9.147944450378418,17.88629722595215,16.34098243713379,-0.517276406288147,0.4788757860660553,0.09017780423164368
7641,8553387,-9.1718111038208,17.905427932739258,16.345048904418945,-0.5260935425758362,0.480147123336792,0.09255953133106232
7646,8553427,-9.195108413696289,17.924074172973633,16.348936080932617,-0.5321635007858276,0.48183465003967285,0.09032120555639267
7658,8553447,-9.20674991607666,17.93340301513672,16.348854064941406,-0.5340595841407776,0.4807167053222656,0.08583155274391174
7672,8553487,-9.230809211730957,17.952245712280273,16.34842300415039,-0.5377277135848999,0.48055917024612427,0.07618358731269836
7686,8553527,-9.255558967590332,17.971254348754883,16.347610473632812,-0.542026937007904,0.47984862327575684,0.06150674819946289
7690,8553547,-9.267844200134277,17.980690002441406,16.345626831054688,-0.5443110466003418,0.476411908864975,0.05250965431332588
7704,8553587,-9.292198181152344,17.999366760253906,16.341690063476562,-0.5457978844642639,0.47280922532081604,0.032454054802656174
7710,8553627,-9.316304206848145,18.017803192138672,16.337583541870117,-0.5461005568504333,0.4656118154525757,0.008879763074219227
7722,8553647,-9.328269958496094,18.026901245117188,16.335073471069336,-0.5478845834732056,0.46276259422302246,-0.0025487837847322226
7736,8553687,-9.353399276733398,18.045162200927734,16.32952117919922,-0.5505325198173523,0.4547765851020813,-0.03036368452012539
7741,8553727,-9.37849235534668,18.06250762939453,16.323320388793945,-0.5516765117645264,0.44846123456954956,-0.05610230937600136
7753,8553747,-9.390922546386719,18.071083068847656,16.321422576904297,-0.55170738697052,0.44556838274002075,-0.06939130276441574
7767,8553787,-9.415655136108398,18.088058471679688,16.31702995300293,-0.5570815205574036,0.43863022327423096,-0.09100621938705444
7776,8553827,-9.440221786499023,18.104812622070312,16.311946868896484,-0.5616970658302307,0.43367090821266174,-0.10981094837188721
7785,8553847,-9.452467918395996,18.11311149597168,16.311931610107422,-0.5627980828285217,0.4317830204963684,-0.11684653908014297
7798,8553887,-9.477622985839844,18.129592895507812,16.311290740966797,-0.5690186619758606,0.4270917773246765,-0.1262572705745697
7808,8553927,-9.503398895263672,18.145946502685547,16.309921264648438,-0.5755446553230286,0.42478421330451965,-0.13192376494407654
7816,8553947,-9.516247749328613,18.15410041809082,16.31202507019043,-0.5781406760215759,0.42393696308135986,-0.1343349814414978
7830,8553987,-9.54248046875,18.17076873779297,16.31502914428711,-0.5842147469520569,0.42194169759750366,-0.1357942521572113
7834,8554007,-9.555272102355957,18.178874969482422,16.316171646118164,-0.5883559584617615,0.42138543725013733,-0.1347019225358963
7847,8554047,-9.580780982971191,18.194992065429688,16.31987190246582,-0.5908939838409424,0.4174630641937256,-0.13181647658348083
7861,8554087,-9.607307434082031,18.210769653320312,16.32491683959961,-0.5946187973022461,0.41249778866767883,-0.1283964216709137
7865,8554107,-9.621054649353027,18.218494415283203,16.327186584472656,-0.5949810743331909,0.40909603238105774,-0.12628717720508575
7878,8554147,-9.648260116577148,18.233795166015625,16.331096649169922,-0.596897542476654,0.4013359546661377,-0.12472926080226898
7892,8554187,-9.675025939941406,18.248746871948242,16.334091186523438,-0.5960838794708252,0.389803022146225,-0.12392966449260712
7896,8554207,-9.688247680664062,18.256044387817383,16.335168838500977,-0.5938080549240112,0.38291916251182556,-0.1255757212638855
7910,8554247,-9.714977264404297,18.27065086364746,16.335248947143555,-0.5928203463554382,0.3700513541698456,-0.12796510756015778
7924,8554287,-9.741950035095215,18.28437614440918,16.333911895751953,-0.5929197072982788,0.35706228017807007,-0.13104493916034698
7928,8554307,-9.755842208862305,18.291053771972656,16.33319091796875,-0.5939338207244873,0.35063105821609497,-0.13315406441688538
7942,8554347,-9.78333568572998,18.304140090942383,16.329713821411133,-0.5980401039123535,0.34242337942123413,-0.13718421757221222
7957,8554387,-9.810513496398926,18.316967010498047,16.32440948486328,-0.601241409778595,0.3360087275505066,-0.1413862407207489
7961,8554407,-9.824004173278809,18.32332992553711,16.32169532775879,-0.6031535267829895,0.33547261357307434,-0.14082349836826324
7974,8554447,-9.850823402404785,18.335969924926758,16.31581687927246,-0.6068822741508484,0.33150339126586914,-0.14113812148571014
7988,8554487,-9.878795623779297,18.348295211791992,16.31010627746582,-0.60792076587677,0.33211395144462585,-0.13856367766857147
7992,8554507,-9.893303871154785,18.354333877563477,16.30753517150879,-0.6089429259300232,0.33203303813934326,-0.1349482387304306
8005,8554547,-9.922480583190918,18.3668270111084,16.302833557128906,-0.6071534752845764,0.33320170640945435,-0.12797996401786804
8020,8554587,-9.95043659210205,18.3791446685791,16.29888153076172,-0.603598415851593,0.3339930772781372,-0.11986301839351654
8025,8554607,-9.964165687561035,18.38532257080078,16.296968460083008,-0.6011885404586792,0.3335413336753845,-0.11522874236106873
8038,8554647,-9.991086959838867,18.39771270751953,16.294010162353516,-0.5931596755981445,0.3324751555919647,-0.1069931611418724
8043,8554667,-10.004288673400879,18.403913497924805,16.29292106628418,-0.5894503593444824,0.33220383524894714,-0.10314470529556274
8056,8554707,-10.0330810546875,18.416288375854492,16.29161262512207,-0.5833621621131897,0.33278682827949524,-0.09326037764549255
8069,8554747,-10.061005592346191,18.428730010986328,16.290346145629883,-0.5797205567359924,0.33357924222946167,-0.08069539815187454
8074,8554767,-10.074700355529785,18.43499755859375,16.28977394104004,-0.5783030390739441,0.334190309047699,-0.07498402893543243
8087,8554807,-10.101641654968262,18.447635650634766,16.2888240814209,-0.5772505402565002,0.3369726538658142,-0.06011848896741867
8100,8554847,-10.128718376159668,18.460826873779297,16.287473678588867,-0.5801323652267456,0.34303683042526245,-0.044408995658159256
8105,8554867,-10.141850471496582,18.467388153076172,16.28667449951172,-0.581704318523407,0.34761762619018555,-0.03540921211242676
8119,8554907,-10.170707702636719,18.480199813842773,16.28611183166504,-0.5872789621353149,0.3560192286968231,-0.015568672679364681
8133,8554947,-10.19912052154541,18.493459701538086,16.285242080688477,-0.5928412079811096,0.3642173409461975,0.0029484089463949203
8137,8554967,-10.213150024414062,18.500259399414062,16.284622192382812,-0.5935702919960022,0.36934730410575867,0.013865279033780098
8150,8555007,-10.240830421447754,18.51416778564453,16.28409767150879,-0.5940645933151245,0.37682533264160156,0.032024234533309937
8164,8555047,-10.267964363098145,18.528417587280273,16.283815383911133,-0.5904736518859863,0.38113242387771606,0.04601854830980301
8168,8555067,-10.281293869018555,18.535619735717773,16.283676147460938,-0.5879418849945068,0.3827648460865021,0.05219097435474396
8181,8555107,-10.310576438903809,18.549339294433594,16.28384017944336,-0.5829282999038696,0.3838721513748169,0.06006816402077675
8194,8555147,-10.338362693786621,18.56285858154297,16.284242630004883,-0.5750527381896973,0.3809586763381958,0.06358619779348373
8199,8555167,-10.351909637451172,18.56964683532715,16.284473419189453,-0.5718302726745605,0.3816159963607788,0.06587987393140793
8212,8555207,-10.378323554992676,18.58325958251953,16.285125732421875,-0.5618470907211304,0.37659260630607605,0.06381641328334808
8226,8555247,-10.403879165649414,18.59685516357422,16.286466598510742,-0.5514844059944153,0.37282633781433105,0.05880565196275711
8231,8555267,-10.416352272033691,18.6036434173584,16.287376403808594,-0.5489643216133118,0.3718504011631012,0.0554511696100235
8244,8555307,-10.443024635314941,18.615936279296875,16.288387298583984,-0.5426686406135559,0.3693605363368988,0.04652100056409836
8248,8555327,-10.45603084564209,18.622148513793945,16.288793563842773,-0.5382928848266602,0.3685944676399231,0.04157674312591553
8262,8555367,-10.481456756591797,18.634681701660156,16.29229164123535,-0.5330609679222107,0.367107093334198,0.03417625650763512
8277,8555407,-10.506638526916504,18.647783279418945,16.295225143432617,-0.52699875831604,0.3671201765537262,0.02614373154938221
8284,8555427,-10.518685340881348,18.65422821044922,16.296470642089844,-0.5232970118522644,0.3674872815608978,0.023446066305041313
8295,8555467,-10.54227066040039,18.667287826538086,16.301992416381836,-0.5167065262794495,0.3673211932182312,0.02036946825683117
8308,8555507,-10.56737995147705,18.67863655090332,16.306293487548828,-0.5140663981437683,0.37076810002326965,0.01906323991715908
8312,8555527,-10.579673767089844,18.68446159362793,16.308252334594727,-0.515562891960144,0.3695887625217438,0.019662659615278244
8327,8555567,-10.603842735290527,18.696430206298828,16.314308166503906,-0.5152570009231567,0.3737115263938904,0.025043318048119545
8341,8555607,-10.627497673034668,18.70876693725586,16.319910049438477,-0.5124042630195618,0.37202006578445435,0.03187089413404465
8345,8555627,-10.639089584350586,18.714998245239258,16.322616577148438,-0.5079816579818726,0.3713901937007904,0.03894609957933426
8359,8555667,-10.661762237548828,18.727670669555664,16.32771873474121,-0.503262460231781,0.3719983398914337,0.047947000712156296
8372,8555707,-10.686164855957031,18.739351272583008,16.332616806030273,-0.5010104775428772,0.3696616291999817,0.060828797519207
8376,8555727,-10.697914123535156,18.745113372802734,16.335050582885742,-0.5022130012512207,0.3685491383075714,0.06358073651790619
8390,8555767,-10.721139907836914,18.75690460205078,16.33763313293457,-0.5056387782096863,0.36811092495918274,0.07485858350992203
8403,8555807,-10.74410629272461,18.768896102905273,16.340499877929688,-0.5112672448158264,0.3654991686344147,0.07963681221008301
8416,8555827,-10.755521774291992,18.774959564208984,16.34202003479004,-0.5129187107086182,0.3629395365715027,0.08215752989053726
8421,8555867,-10.778138160705566,18.78712272644043,16.34121322631836,-0.514407217502594,0.35829371213912964,0.0849229171872139
8435,8555907,-10.802066802978516,18.797714233398438,16.34052276611328,-0.5112063884735107,0.3483561873435974,0.08487225323915482
8439,8555927,-10.813765525817871,18.80301856994629,16.340364456176758,-0.5061518549919128,0.34687721729278564,0.08506885915994644
8453,8555967,-10.836935043334961,18.814006805419922,16.336048126220703,-0.4893389940261841,0.3361376225948334,0.07578408718109131
8465,8555987,-10.847825050354004,18.819290161132812,16.334125518798828,-0.4785550832748413,0.3300188183784485,0.07592035830020905
8473,8556027,-10.868451118469238,18.82969093322754,16.330638885498047,-0.44525110721588135,0.3161486089229584,0.06278272718191147
8484,8556067,-10.887415885925293,18.83977699279785,16.32452964782715,-0.4106086492538452,0.30012309551239014,0.044637005776166916
8496,8556087,-10.89708137512207,18.84377670288086,16.32135009765625,-0.3974038064479828,0.2943437695503235,0.040365539491176605
8510,8556127,-10.91520881652832,18.851451873779297,16.31541633605957,-0.36339011788368225,0.2711360454559326,0.02749507501721382
8515,8556167,-10.931546211242676,18.859128952026367,16.310317993164062,-0.3347177505493164,0.26264819502830505,0.01352959405630827
8527,8556187,-10.939157485961914,18.862817764282227,16.307783126831055,-0.31894201040267944,0.24962083995342255,0.003477295860648155
8542,8556227,-10.953431129455566,18.86992073059082,16.303016662597656,-0.300820916891098,0.23606716096401215,-0.004325183108448982
8547,8556267,-10.966686248779297,18.877155303955078,16.30354881286621,-0.26974835991859436,0.22896239161491394,-0.01235674787312746
8559,8556287,-10.973611831665039,18.87982940673828,16.303544998168945,-0.2653743028640747,0.2224368155002594,-0.016349390149116516
8564,8556327,-10.986952781677246,18.885257720947266,16.30327606201172,-0.2531745731830597,0.21972167491912842,-0.019158028066158295
8578,8556367,-11.00021743774414,18.890531539916992,16.31036376953125,-0.27589544653892517,0.19255533814430237,-0.020792575553059578
8592,8556387,-11.006826400756836,18.893049240112305,16.313552856445312,-0.2780613303184509,0.19349871575832367,-0.01778222620487213
8597,8556427,-11.019989967346191,18.89834976196289,16.31907081604004,-0.28391948342323303,0.1903539001941681,-0.02657337486743927
8611,8556467,-11.032815933227539,18.90406608581543,16.331687927246094,-0.27907466888427734,0.20334428548812866,-0.01926831714808941
8623,8556487,-11.040510177612305,18.905670166015625,16.33731460571289,-0.27666163444519043,0.201936736702919,-0.02240050956606865
8630,8556527,-11.055197715759277,18.90939712524414,16.34754753112793,-0.2620013356208801,0.2029624730348587,-0.010840022005140781
8643,8556567,-11.068610191345215,18.913711547851562,16.361862182617188,-0.2276272177696228,0.1999260038137436,-0.013805988244712353
8657,8556587,-11.074531555175781,18.9158992767334,16.368331909179688,-0.21401682496070862,0.1978764533996582,-0.008425273001194
8672,8556627,-11.08519172668457,18.920557022094727,16.380109786987305,-0.1884029060602188,0.19570255279541016,-0.003186810063198209
8675,8556647,-11.0900297164917,18.92300033569336,16.38721466064453,-0.1737411767244339,0.19728069007396698,-0.00463549280539155
8689,8556687,-11.099954605102539,18.926721572875977,16.39990997314453,-0.15968960523605347,0.19665686786174774,-0.005616066511720419
8701,8556727,-11.109787940979004,18.92950439453125,16.4106502532959,-0.14242683351039886,0.19377177953720093,-0.013281786814332008
8704,8556747,-11.114270210266113,18.931081771850586,16.417510986328125,-0.13879261910915375,0.19240589439868927,-0.013832567259669304
8718,8556787,-11.122682571411133,18.934568405151367,16.429643630981445,-0.13280947506427765,0.18601593375205994,-0.023859778419137
8725,8556827,-11.130475044250488,18.938514709472656,16.439781188964844,-0.12111026793718338,0.17945919930934906,-0.02480790764093399
8736,8556847,-11.134001731872559,18.94045066833496,16.44749641418457,-0.1144438087940216,0.18154792487621307,-0.028399018570780754
8750,8556887,-11.142041206359863,18.942487716674805,16.461105346679688,-0.10952339321374893,0.17190305888652802,-0.02708945982158184
8757,8556927,-11.150732040405273,18.942842483520508,16.47264289855957,-0.10273989289999008,0.16496099531650543,-0.03232596442103386
8767,8556947,-11.154777526855469,18.943185806274414,16.48133087158203,-0.10052691400051117,0.15887123346328735,-0.0348411500453949
8781,8556987,-11.162410736083984,18.944089889526367,16.49694061279297,-0.09842593222856522,0.14916148781776428,-0.028076035901904106
8788,8557027,-11.169524192810059,18.945354461669922,16.51051139831543,-0.09851814061403275,0.14742077887058258,-0.021411897614598274
8799,8557047,-11.172928810119629,18.946109771728516,16.52014923095703,-0.09920065104961395,0.14075958728790283,-0.016638100147247314
8812,8557087,-11.180377960205078,18.945472717285156,16.537656784057617,-0.10279098153114319,0.1330963671207428,-0.011227374896407127
8821,8557127,-11.188444137573242,18.943239212036133,16.552989959716797,-0.1059093177318573,0.12500175833702087,-0.0068184323608875275
8831,8557147,-11.192272186279297,18.942279815673828,16.562448501586914,-0.1059737578034401,0.12191373854875565,-0.0030396482907235622
8845,8557187,-11.19966983795166,18.940763473510742,16.57958984375,-0.10927391052246094,0.1146250069141388,0.003267826745286584
8854,8557227,-11.206693649291992,18.939735412597656,16.594575881958008,-0.10794910788536072,0.10950139164924622,0.005015380214899778
8863,8557247,-11.210046768188477,18.939382553100586,16.602346420288086,-0.10754622519016266,0.10579977929592133,0.006441354751586914
8877,8557287,-11.217308044433594,18.9367733001709,16.616281509399414,-0.10379540920257568,0.09856975078582764,0.005256200209259987
8881,8557307,-11.221193313598633,18.934606552124023,16.622480392456055,-0.10261113196611404,0.09519701451063156,0.001867432612925768
8895,8557347,-11.228483200073242,18.930747985839844,16.633319854736328,-0.09797894209623337,0.08618858456611633,-0.007326651830226183
8911,8557387,-11.235306739807129,18.92755126953125,16.642210006713867,-0.09636003524065018,0.07890668511390686,-0.018854515627026558
8925,8557407,-11.238502502441406,18.92609977722168,16.64596939086914,-0.09553611278533936,0.07500031590461731,-0.02626396156847477
8928,8557447,-11.24460220336914,18.923538208007812,16.651626586914062,-0.09584181010723114,0.06872177869081497,-0.04258881136775017
8941,8557487,-11.251376152038574,18.91933250427246,16.65517234802246,-0.09796448796987534,0.06019929423928261,-0.05824415758252144
8945,8557507,-11.255082130432129,18.916452407836914,16.656414031982422,-0.09984081238508224,0.05652226507663727,-0.06476319581270218
8959,8557547,-11.262232780456543,18.91119956970215,16.657405853271484,-0.10296804457902908,0.04802360013127327,-0.08133570104837418
8973,8557587,-11.2691011428833,18.90644645690918,16.656726837158203,-0.10652349144220352,0.038059379905462265,-0.09425853192806244
8978,8557607,-11.272440910339355,18.904239654541016,16.656047821044922,-0.10704895108938217,0.03397037833929062,-0.09853801876306534
8992,8557647,-11.278885841369629,18.900062561035156,16.653593063354492,-0.10733367502689362,0.02344110608100891,-0.10149692744016647
9005,8557687,-11.286116600036621,18.894052505493164,16.650394439697266,-0.10861578583717346,0.01322118192911148,-0.10186564922332764
9009,8557707,-11.289997100830078,18.890161514282227,16.64893341064453,-0.10755069553852081,0.0056917848996818066,-0.09938289225101471
9023,8557747,-11.297380447387695,18.882774353027344,16.645292282104492,-0.10728812217712402,-0.005185895133763552,-0.09460216015577316
9036,8557787,-11.304313659667969,18.875886917114258,16.641155242919922,-0.10478562861680984,-0.014200731180608273,-0.08573301881551743
9040,8557807,-11.307594299316406,18.87262535095215,16.63922119140625,-0.10354266315698624,-0.019188759848475456,-0.07975618541240692
9054,8557847,-11.313821792602539,18.866409301757812,16.634567260742188,-0.1010793149471283,-0.026751818135380745,-0.06843553483486176
9067,8557887,-11.320480346679688,18.85860824584961,16.62992286682129,-0.09774062782526016,-0.03414348512887955,-0.05569252371788025
9072,8557907,-11.324048042297363,18.85397720336914,16.628063201904297,-0.09728100895881653,-0.036539990454912186,-0.04875623434782028
9085,8557947,-11.330798149108887,18.845319747924805,16.62362289428711,-0.09365296363830566,-0.041703592985868454,-0.033594921231269836
9090,8557967,-11.334057807922363,18.841203689575195,16.621082305908203,-0.09236102551221848,-0.044516731053590775,-0.027636364102363586
9103,8558007,-11.340056419372559,18.833608627319336,16.61676788330078,-0.09076973795890808,-0.0460452064871788,-0.014745783992111683
9117,8558047,-11.345664978027344,18.826702117919922,16.612428665161133,-0.08951730281114578,-0.04669191315770149,-0.00170763093046844
9121,8558067,-11.348365783691406,18.823501586914062,16.61016845703125,-0.09077093005180359,-0.045284271240234375,0.003812207607552409
9134,8558107,-11.355566024780273,18.813465118408203,16.606718063354492,-0.09182565659284592,-0.04742895066738129,0.014983906410634518
9148,8558147,-11.362396240234375,18.80446434020996,16.60384178161621,-0.0947612076997757,-0.04688717797398567,0.025136202573776245
9152,8558167,-11.36568546295166,18.800323486328125,16.60258674621582,-0.09542861580848694,-0.04543329402804375,0.029267212375998497
9165,8558207,-11.372052192687988,18.79276466369629,16.6005916595459,-0.09798407554626465,-0.041749656200408936,0.03591279312968254
9180,8558247,-11.37828540802002,18.78606605529785,16.59984016418457,-0.10075537860393524,-0.03767532855272293,0.041301555931568146
9184,8558267,-11.381275177001953,18.78304100036621,16.59988784790039,-0.10235375910997391,-0.036608342081308365,0.04328825697302818
9197,8558307,-11.388604164123535,18.7731876373291,16.60007095336914,-0.10492205619812012,-0.03354578837752342,0.0485667921602726
9210,8558347,-11.395596504211426,18.764541625976562,16.601604461669922,-0.10701913386583328,-0.030393315479159355,0.051879748702049255
9215,8558367,-11.398983001708984,18.76062774658203,16.60292625427246,-0.10864201933145523,-0.02753331884741783,0.05542943999171257
9230,8558407,-11.40553092956543,18.753572463989258,16.60563850402832,-0.10896346718072891,-0.02470470778644085,0.05995042622089386
9244,8558447,-11.411778450012207,18.74745750427246,16.60918617248535,-0.10950843244791031,-0.019607657566666603,0.06351939588785172
9248,8558467,-11.41479206085205,18.74472999572754,16.61134147644043,-0.10838278383016586,-0.017401468008756638,0.06607682257890701
9261,8558507,-11.42138385772705,18.735591888427734,16.615198135375977,-0.10616708546876907,-0.013310246169567108,0.07197939604520798
9275,8558547,-11.427623748779297,18.727712631225586,16.619369506835938,-0.10181771963834763,-0.008883989416062832,0.07750185579061508
9280,8558567,-11.43051815032959,18.724220275878906,16.621519088745117,-0.10073000192642212,-0.006020877510309219,0.08001790940761566
9294,8558607,-11.435930252075195,18.718076705932617,16.62582778930664,-0.09365130960941315,0.00027217520982958376,0.0863281637430191
9301,8558627,-11.438444137573242,18.715408325195312,16.62800407409668,-0.0909065529704094,0.003521198173984885,0.08955388516187668
9312,8558667,-11.443099021911621,18.710824966430664,16.630887985229492,-0.08377281576395035,0.01120553445070982,0.09488652646541595
9325,8558707,-11.448356628417969,18.7028865814209,16.63353729248047,-0.07392477989196777,0.014309737831354141,0.10008019208908081
9329,8558727,-11.450728416442871,18.69940757751465,16.634981155395508,-0.07060571014881134,0.01822095550596714,0.10261517763137817
9343,8558767,-11.455034255981445,18.693389892578125,16.635225296020508,-0.06257317215204239,0.02403457649052143,0.10744567960500717
9356,8558807,-11.458782196044922,18.688522338867188,16.63605308532715,-0.05579397454857826,0.030494825914502144,0.10904307663440704
9363,8558827,-11.460524559020996,18.686521530151367,16.63673210144043,-0.05287082865834236,0.03431665897369385,0.10798017680644989
9374,8558867,-11.463582992553711,18.683149337768555,16.63445281982422,-0.04795760661363602,0.038477085530757904,0.10285109281539917
9388,8558907,-11.466987609863281,18.676097869873047,16.63217544555664,-0.04445640370249748,0.041850943118333817,0.09742844849824905
9392,8558927,-11.468523025512695,18.67305564880371,16.631235122680664,-0.042914312332868576,0.044026341289281845,0.09484603255987167
9406,8558967,-11.471391677856445,18.667818069458008,16.625520706176758,-0.04168298840522766,0.046054158359766006,0.08683007955551147
9419,8559007,-11.47402286529541,18.663583755493164,16.62063980102539,-0.041569698601961136,0.04832886904478073,0.0794636681675911
9428,8559027,-11.475260734558105,18.661815643310547,16.61849594116211,-0.04163801297545433,0.049307648092508316,0.07688292860984802
9437,8559067,-11.477619171142578,18.65886116027832,16.610614776611328,-0.041358813643455505,0.04994920641183853,0.06833785772323608
9450,8559107,-11.480506896972656,18.652984619140625,16.603424072265625,-0.04222078248858452,0.04933967441320419,0.06383157521486282
9454,8559127,-11.481918334960938,18.65047264099121,16.600276947021484,-0.04270954802632332,0.04804359748959541,0.06046638637781143
9468,8559167,-11.484589576721191,18.646041870117188,16.591392517089844,-0.044972486793994904,0.047100577503442764,0.05703013762831688
9481,8559207,-11.487137794494629,18.64242172241211,16.583805084228516,-0.047000039368867874,0.04612497612833977,0.053530823439359665
9495,8559227,-11.488382339477539,18.640884399414062,16.580440521240234,-0.04742481932044029,0.046340975910425186,0.0524415485560894
9500,8559267,-11.490814208984375,18.638269424438477,16.57273292541504,-0.049128271639347076,0.04442306607961655,0.04879235103726387
9512,8559287,-11.491983413696289,18.63520050048828,16.56920623779297,-0.05048466473817825,0.042663272470235825,0.04632752016186714
9519,8559327,-11.49425220489502,18.629772186279297,16.56283187866211,-0.05120610073208809,0.03927505016326904,0.04052343592047691
9531,8559367,-11.4964599609375,18.62523651123047,16.55718421936035,-0.05169018730521202,0.04011623188853264,0.032677944749593735
9545,8559387,-11.497537612915039,18.623279571533203,16.554590225219727,-0.05189954861998558,0.03919438272714615,0.02974231168627739
9559,8559427,-11.499687194824219,18.61997413635254,16.549789428710938,-0.05309385061264038,0.03917210176587105,0.02071152813732624
9564,8559467,-11.501714706420898,18.6173152923584,16.547292709350586,-0.05139622464776039,0.03899131715297699,0.010811539366841316
9576,8559487,-11.502236366271973,18.61441421508789,16.54599380493164,-0.050823044031858444,0.04002418369054794,0.006157246883958578
9590,8559527,-11.503259658813477,18.609352111816406,16.543378829956055,-0.04900367185473442,0.03808007016777992,-0.0039217486046254635
9596,8559567,-11.504236221313477,18.605121612548828,16.544784545898438,-0.04813765361905098,0.03622160851955414,-0.014477766118943691
9608,8559587,-11.504731178283691,18.603271484375,16.545251846313477,-0.04743796959519386,0.0348825678229332,-0.018758323043584824
9617,8559627,-11.5056734085083,18.60004997253418,16.54580307006836,-0.04527550935745239,0.0321224071085453,-0.02505466155707836
9628,8559667,-11.506555557250977,18.597349166870117,16.55169677734375,-0.043109968304634094,0.028887566179037094,-0.029542669653892517
9640,8559687,-11.506964683532715,18.594541549682617,16.55425453186035,-0.042594946920871735,0.027525881305336952,-0.03120424412190914
9648,8559727,-11.507643699645996,18.589445114135742,16.558725357055664,-0.03901097550988197,0.02194998785853386,-0.03323647379875183
9659,8559767,-11.508248329162598,18.584959030151367,16.567956924438477,-0.03707117587327957,0.015996241942048073,-0.03515653312206268
9671,8559787,-11.50852108001709,18.58290672302246,16.572023391723633,-0.035398777574300766,0.012566055171191692,-0.034097250550985336
9685,8559827,-11.509021759033203,18.579120635986328,16.57925033569336,-0.03433045744895935,0.006127215456217527,-0.032782185822725296
9690,8559867,-11.509516716003418,18.57567596435547,16.58952522277832,-0.034113671630620956,0.0010591233149170876,-0.030251340940594673
9704,8559887,-11.50969123840332,18.57233238220215,16.594268798828125,-0.03320729732513428,-0.004699532873928547,-0.028521938249468803
9717,8559927,-11.510075569152832,18.566116333007812,16.602752685546875,-0.034029945731163025,-0.011978156864643097,-0.027915718033909798
9721,8559947,-11.510290145874023,18.563228607177734,16.607311248779297,-0.0338720940053463,-0.013553861528635025,-0.025541607290506363
9734,8559987,-11.51076889038086,18.557846069335938,16.615436553955078,-0.032645367085933685,-0.018478933721780777,-0.025934627279639244
9748,8560027,-11.511296272277832,18.552976608276367,16.62236213684082,-0.03563593700528145,-0.02326234057545662,-0.02523898147046566
9752,8560047,-11.511584281921387,18.550708770751953,16.624950408935547,-0.034215375781059265,-0.02550727315247059,-0.02781866490840912
9765,8560087,-11.511942863464355,18.545001983642578,16.62953758239746,-0.040018148720264435,-0.030170464888215065,-0.030179334804415703
9779,8560127,-11.512145042419434,18.538476943969727,16.633325576782227,-0.043242424726486206,-0.03476354479789734,-0.03612857684493065
9783,8560147,-11.512351036071777,18.535430908203125,16.63325309753418,-0.04419124871492386,-0.03853324428200722,-0.03977769985795021
9796,8560187,-11.512874603271484,18.5296573638916,16.632688522338867,-0.047314781695604324,-0.04425366222858429,-0.049796730279922485
9805,8560227,-11.513689994812012,18.524280548095703,16.63148307800293,-0.05091644451022148,-0.049292802810668945,-0.06292135268449783
9814,8560247,-11.514195442199707,18.521738052368164,16.628114700317383,-0.05498204380273819,-0.051473475992679596,-0.06697238981723785
9828,8560287,-11.515253067016602,18.515371322631836,16.621639251708984,-0.05843862146139145,-0.056854262948036194,-0.07773936539888382
9842,8560327,-11.516319274902344,18.50813865661621,16.61550521850586,-0.0648479014635086,-0.061192210763692856,-0.0857168436050415
9845,8560347,-11.5169677734375,18.504722595214844,16.609880447387695,-0.06626018136739731,-0.06453493982553482,-0.08906200528144836
9861,8560387,-11.51850700378418,18.49821662902832,16.599172592163086,-0.07191381603479385,-0.06874925643205643,-0.09412041306495667
9869,8560427,-11.520297050476074,18.49214744567871,16.589248657226562,-0.07527240365743637,-0.07363896816968918,-0.09636931866407394
9878,8560447,-11.521291732788086,18.489242553710938,16.58245849609375,-0.078353650867939,-0.07503876835107803,-0.09729350358247757
9892,8560487,-11.523029327392578,18.482336044311523,16.570297241210938,-0.08201749622821808,-0.0811963826417923,-0.0932784304022789
9900,8560527,-11.52458667755127,18.474580764770508,16.559843063354492,-0.08417144417762756,-0.08722135424613953,-0.08556703478097916
9911,8560547,-11.525543212890625,18.47078514099121,16.554107666015625,-0.08449391275644302,-0.09037317335605621,-0.0802498310804367
9924,8560587,-11.527424812316895,18.463651657104492,16.54390525817871,-0.08568357676267624,-0.09602775424718857,-0.06935588270425797
9929,8560607,-11.52843189239502,18.460224151611328,16.539335250854492,-0.0863923504948616,-0.0970156341791153,-0.06302157789468765
9943,8560647,-11.53052806854248,18.453643798828125,16.53148651123047,-0.08501356840133667,-0.10017233341932297,-0.046777259558439255
9956,8560687,-11.532402992248535,18.446443557739258,16.525596618652344,-0.08436412364244461,-0.10402174293994904,-0.028448186814785004
9960,8560707,-11.533236503601074,18.442543029785156,16.52332305908203,-0.0822470635175705,-0.10526974499225616,-0.020146101713180542
9974,8560747,-11.534896850585938,18.435117721557617,16.520368576049805,-0.07928470522165298,-0.10722112655639648,-0.0020099044777452946
9987,8560787,-11.536592483520508,18.42816925048828,16.519161224365234,-0.07624936103820801,-0.10698685050010681,0.016623353585600853
9991,8560807,-11.537443161010742,18.42487907409668,16.51889991760254,-0.07462064921855927,-0.10699936002492905,0.02554408274590969
10005,8560847,-11.53917407989502,18.418529510498047,16.51973533630371,-0.07055892795324326,-0.10524386912584305,0.04170830547809601
10018,8560887,-11.54035758972168,18.411760330200195,16.52199363708496,-0.06611097604036331,-0.101577028632164,0.055585313588380814
10023,8560907,-11.540740013122559,18.408103942871094,16.52334213256836,-0.06343323737382889,-0.10164274275302887,0.06282003968954086
10037,8560947,-11.54155158996582,18.401323318481445,16.526226043701172,-0.061734382063150406,-0.09696817398071289,0.07422477006912231
10050,8560987,-11.542393684387207,18.395187377929688,16.529356002807617,-0.058494627475738525,-0.09249722957611084,0.0839875340461731
10054,8561007,-11.542854309082031,18.39234733581543,16.53107261657715,-0.05823845416307449,-0.08978695422410965,0.08889973163604736
10068,8561047,-11.543802261352539,18.387088775634766,16.533409118652344,-0.05468352884054184,-0.08647710084915161,0.09560414403676987
10081,8561087,-11.544453620910645,18.3813533782959,16.534648895263672,-0.054245587438344955,-0.0819459930062294,0.0982452929019928
10085,8561107,-11.544646263122559,18.378225326538086,16.535337448120117,-0.05424052104353905,-0.07968395203351974,0.0982707291841507
10099,8561147,-11.545195579528809,18.37240219116211,16.53481674194336,-0.05216940492391586,-0.0742608830332756,0.09521494805812836
10112,8561187,-11.545788764953613,18.3673038482666,16.532611846923828,-0.05311997979879379,-0.0702187791466713,0.09112122654914856
10116,8561207,-11.546154022216797,18.364990234375,16.53171730041504,-0.05175413563847542,-0.06651834398508072,0.08749115467071533
10131,8561247,-11.54693603515625,18.360864639282227,16.52787971496582,-0.04999442771077156,-0.05945076420903206,0.08135243505239487
10135,8561267,-11.547362327575684,18.359027862548828,16.525022506713867,-0.05126207694411278,-0.055250801146030426,0.0770995169878006
10148,8561307,-11.54719352722168,18.35435676574707,16.519418716430664,-0.04989571124315262,-0.04622931033372879,0.06698755919933319
10162,8561347,-11.547178268432617,18.35053062438965,16.512453079223633,-0.04692694544792175,-0.03597528114914894,0.05865352600812912
10166,8561367,-11.54720401763916,18.348913192749023,16.50827407836914,-0.04561644047498703,-0.031285274773836136,0.05387795716524124
10181,8561407,-11.547344207763672,18.346229553222656,16.50066566467285,-0.04252736270427704,-0.02112909033894539,0.04275214299559593
10195,8561447,-11.54752254486084,18.344282150268555,16.49233055114746,-0.04060990735888481,-0.010946189984679222,0.035465553402900696
10199,8561467,-11.547650337219238,18.343568801879883,16.48777961730957,-0.04118005931377411,-0.0061147152446210384,0.03134419023990631
10212,8561507,-11.54680061340332,18.340883255004883,16.479305267333984,-0.038175150752067566,0.004997684620320797,0.023028792813420296
10226,8561547,-11.546085357666016,18.339086532592773,16.47064208984375,-0.03653804957866669,0.015307211317121983,0.01668437197804451
10231,8561567,-11.545802116394043,18.338489532470703,16.466093063354492,-0.03643402084708214,0.02083681710064411,0.01237854640930891
10245,8561607,-11.545395851135254,18.337858200073242,16.4577579498291,-0.03635014593601227,0.029708337038755417,0.007328279782086611
10259,8561647,-11.54516887664795,18.337907791137695,16.449539184570312,-0.03618406504392624,0.03940342366695404,0.0005762998480349779
10263,8561667,-11.545108795166016,18.338167190551758,16.44537925720215,-0.03524250164628029,0.04319789633154869,-0.00027315947227180004
10276,8561707,-11.543639183044434,18.33749008178711,16.437891006469727,-0.03730210289359093,0.050028134137392044,-0.0076584885828197
10290,8561747,-11.542484283447266,18.337446212768555,16.430936813354492,-0.03550942987203598,0.055959302932024,-0.0128193199634552
10294,8561767,-11.541991233825684,18.337642669677734,16.427587509155273,-0.03627283126115799,0.05803365632891655,-0.01809929870069027
10307,8561807,-11.541275024414062,18.338380813598633,16.421236038208008,-0.03895813226699829,0.061475686728954315,-0.02597115747630596
10321,8561847,-11.540912628173828,18.339540481567383,16.415956497192383,-0.04154553264379501,0.06303709745407104,-0.03430267050862312
10325,8561867,-11.540858268737793,18.34023666381836,16.413705825805664,-0.04503803327679634,0.06263943761587143,-0.03794392943382263
10339,8561907,-11.539383888244629,18.340612411499023,16.409629821777344,-0.047465730458498,0.05989975482225418,-0.0446661077439785
10349,8561927,-11.538836479187012,18.34089469909668,16.407625198364258,-0.0496763214468956,0.058581188321113586,-0.04805539548397064
10357,8561967,-11.538081169128418,18.341562271118164,16.406503677368164,-0.0526597760617733,0.05223808065056801,-0.0515756830573082
10370,8562007,-11.537793159484863,18.342330932617188,16.405109405517578,-0.05508390814065933,0.045492514967918396,-0.054894331842660904
10380,8562027,-11.537763595581055,18.34266471862793,16.404376983642578,-0.05609970912337303,0.04126415401697159,-0.05579650402069092
10388,8562067,-11.537908554077148,18.343313217163086,16.40713119506836,-0.05739418417215347,0.03457663580775261,-0.05296443775296211
10401,8562107,-11.536392211914062,18.342496871948242,16.409900665283203,-0.05670700594782829,0.025710443034768105,-0.04924561828374863
10412,8562127,-11.535778999328613,18.342111587524414,16.411128997802734,-0.05459024757146835,0.022639228031039238,-0.04699628800153732
10419,8562167,-11.534762382507324,18.341358184814453,16.41664695739746,-0.05256587266921997,0.01490086130797863,-0.04219494387507439
10432,8562207,-11.53403091430664,18.340633392333984,16.421472549438477,-0.05106212943792343,0.009390683844685555,-0.03482645004987717
10443,8562227,-11.533747673034668,18.340299606323242,16.423667907714844,-0.049406349658966064,0.008134574629366398,-0.033508360385894775
10451,8562267,-11.53339958190918,18.33971405029297,16.42918586730957,-0.04868011921644211,0.004600427113473415,-0.02843722514808178
10464,8562307,-11.531551361083984,18.33799171447754,16.434534072875977,-0.04547041282057762,0.001291713211685419,-0.024447575211524963
10477,8562327,-11.530746459960938,18.337209701538086,16.43698501586914,-0.04410526528954506,-0.00036864433786831796,-0.02014114521443844
10482,8562367,-11.5293550491333,18.33580780029297,16.440235137939453,-0.041509442031383514,-0.0022368687205016613,-0.014684822410345078
10497,8562407,-11.528200149536133,18.334630966186523,16.443193435668945,-0.03907818719744682,-0.003478136844933033,-0.011827148497104645
10504,8562427,-11.52772045135498,18.33409881591797,16.444549560546875,-0.03850645571947098,-0.0042612734250724316,-0.011257837526500225
10515,8562467,-11.526959419250488,18.333114624023438,16.442840576171875,-0.0380554124712944,-0.0077400775626301765,-0.013310232199728489
10528,8562507,-11.525222778320312,18.33201026916504,16.441526412963867,-0.034298207610845566,-0.011990777216851711,-0.018266210332512856
10535,8562527,-11.524466514587402,18.33146095275879,16.440828323364258,-0.03503579646348953,-0.014893700368702412,-0.021197572350502014
10547,8562567,-11.523284912109375,18.330333709716797,16.434328079223633,-0.03618188574910164,-0.019680188968777657,-0.03143114969134331
10559,8562587,-11.52280330657959,18.329757690429688,16.431201934814453,-0.03617710992693901,-0.0232731644064188,-0.03923322632908821
10568,8562627,-11.52214527130127,18.328519821166992,16.425033569335938,-0.04087644815444946,-0.03014811873435974,-0.051345095038414
10579,8562667,-11.521941184997559,18.327144622802734,16.41564178466797,-0.0447283573448658,-0.03640676662325859,-0.06512518972158432
10591,8562687,-11.521206855773926,18.32638931274414,16.411325454711914,-0.04687318205833435,-0.04143452271819115,-0.07203296571969986
10596,8562727,-11.520139694213867,18.324695587158203,16.40288543701172,-0.05018921568989754,-0.04993048682808876,-0.08488128334283829
10610,8562767,-11.51959228515625,18.3227481842041,16.395414352416992,-0.055090829730033875,-0.058557745069265366,-0.09596650302410126
10622,8562787,-11.519513130187988,18.321674346923828,16.391742706298828,-0.057281166315078735,-0.06398739665746689,-0.09907887130975723
10631,8562827,-11.519804000854492,18.319265365600586,16.38448715209961,-0.06286610662937164,-0.071772500872612,-0.10470538586378098
10641,8562867,-11.52051067352295,18.316682815551758,16.38094711303711,-0.06862585991621017,-0.07879643142223358,-0.10543153434991837
10655,8562887,-11.520524978637695,18.31560516357422,16.379568099975586,-0.07017677277326584,-0.0808887705206871,-0.10533059388399124
