packet_index,time_boot_ms,roll_rad,pitch_rad,yaw_rad,roll_deg,pitch_deg,yaw_deg,rollspeed_radps,pitchspeed_radps,yawspeed_radps
9,8523507,-0.05116478353738785,0.036025889217853546,-2.6788034439086914,-2.931526156392758,2.0641314053888666,-153.48413148107798,0.006717754527926445,0.0028525348752737045,0.0014694621786475182
36,8523607,-0.045927051454782486,0.02844204381108284,-2.6775729656219482,-2.631426213839204,1.62960907110123,-153.4136302684651,0.04708513990044594,-0.07463254034519196,0.006264974363148212
60,8523707,-0.03568388521671295,0.016025060787796974,-2.6750242710113525,-2.044536019546923,0.9181683495813567,-153.26760082401023,0.09877379983663559,-0.12485691905021667,0.018038250505924225
84,8523807,-0.021263401955366135,0.005387239158153534,-2.6719400882720947,-1.2183031901327015,0.3086660669898081,-153.09089016980366,0.1428712010383606,-0.11362835764884949,0.026601791381835938
108,8523907,-0.007257962599396706,0.0001858571486081928,-2.6693735122680664,-0.41585062480923146,0.01064883020758519,-152.94383619697328,0.14311043918132782,-0.05694907531142235,0.024820476770401
134,8524007,1.3591597962658852e-05,0.000311215000692755,-2.6681482791900635,0.0007787412000989605,0.017831306060855853,-152.8736355126839,0.08142353594303131,-0.0007718168199062347,0.012945320457220078
158,8524107,-0.003496414516121149,0.003920931834727526,-2.668039083480835,-0.20032979520201777,0.22465284588837364,-152.86737905940416,-0.026241905987262726,0.03397759795188904,0.0013686241582036018
182,8524207,-0.01701422408223152,0.010324826464056969,-2.668213367462158,-0.9748432316017127,0.5915689805954455,-152.87736479597072,-0.13149793446063995,0.06352565437555313,-0.0010213665664196014
208,8524307,-0.034176137298345566,0.016595065593719482,-2.6679272651672363,-1.9581484272548366,0.95082721926289,-152.86097234196268,-0.17513182759284973,0.06468338519334793,0.004560044035315514
234,8524407,-0.047145940363407135,0.02085036039352417,-2.6670196056365967,-2.7012634039987033,1.1946376518756652,-152.80896728162222,-0.13822704553604126,0.044358719140291214,0.010940921492874622
258,8524507,-0.05065179243683815,0.021389447152614594,-2.665842056274414,-2.9021339314034895,1.2255250479629323,-152.74149867300082,-0.042943865060806274,0.008073752745985985,0.012529014609754086
285,8524607,-0.04505043849349022,0.01719202846288681,-2.665184736251831,-2.581199990890692,0.9850306721921983,-152.70383700991738,0.052175574004650116,-0.03920143097639084,0.005473870784044266
309,8524707,-0.035164497792720795,0.009167433716356754,-2.6656739711761475,-2.0147773122200006,0.5252552609131734,-152.73186810627112,0.1007770448923111,-0.07939302921295166,-0.007769279181957245
333,8524807,-0.02666177600622177,0.0006186676328070462,-2.6670055389404297,-1.5276072394796711,0.035447044281193094,-152.80816131930015,0.08915290236473083,-0.08707039058208466,-0.01689816266298294
357,8524907,-0.02268729917705059,-0.0038041130173951387,-2.6678738594055176,-1.2998864913956247,-0.21795962068751817,-152.85791241721452,0.04382815212011337,-0.04963373765349388,-0.012095504440367222
383,8525007,-0.022880718111991882,-0.0017000376246869564,-2.6672980785369873,-1.310968580045676,-0.09740498090800805,-152.82492260352336,3.276020288467407e-05,0.01547226682305336,0.004165171645581722
407,8525107,-0.025046532973647118,0.005302394740283489,-2.6653244495391846,-1.4350606308252314,0.3038048399306102,-152.71184199162462,-0.02230173349380493,0.06831656396389008,0.020464971661567688
431,8525207,-0.027530932798981667,0.01419876329600811,-2.662802219390869,-1.57740625543994,0.8135292111665267,-152.5673288491655,-0.026130950078368187,0.08903344720602036,0.027812805026769638
457,8525307,-0.029466137290000916,0.021390218287706375,-2.660597562789917,-1.6882853052701055,1.2255692307491257,-152.44101133065527,-0.020512687042355537,0.07544701546430588,0.02500668726861477
483,8525407,-0.03040270507335663,0.023593995720148087,-2.65944242477417,-1.7419466864843107,1.3518363766142127,-152.37482679759785,-0.010642802342772484,0.025942524895071983,0.013360788114368916
507,8525507,-0.029286304488778114,0.02010061964392662,-2.6595726013183594,-1.677981644742024,1.151680671194751,-152.3822853641715,0.008892623707652092,-0.03173087537288666,-0.001644892618060112
534,8525607,-0.02492636628448963,0.013519815169274807,-2.660285472869873,-1.428175586698447,0.7746283489963951,-152.42312989540818,0.041097961366176605,-0.06648479402065277,-0.009455226361751556
558,8525707,-0.01778668724000454,0.00802910141646862,-2.6604726314544678,-1.0191021103714548,0.460033624446163,-152.4338532924051,0.07046014070510864,-0.058224424719810486,-0.004327985458076
582,8525807,-0.01073427964001894,0.005606095306575298,-2.659738063812256,-0.6150289194862939,0.3212056006148639,-152.3917656667395,0.07364939898252487,-0.02789243310689926,0.006368173286318779
606,8525907,-0.007133156061172485,0.0073828441090881824,-2.6588990688323975,-0.4086997369133455,0.4230058082537752,-152.34369479536093,0.040462788194417953,0.014844736084342003,0.008962719701230526
632,8526007,-0.009267973713576794,0.010724767111241817,-2.6587624549865723,-0.5310157784261388,0.6144838917348681,-152.3358673985721,-0.01711476966738701,0.035349588841199875,0.0027992669492959976
656,8526107,-0.016234392300248146,0.012988445349037647,-2.659365177154541,-0.9301621617638991,0.7441831009361806,-152.3704008350157,-0.06814365088939667,0.024472257122397423,-0.005094461143016815
680,8526207,-0.02524547465145588,0.014083976857364178,-2.659914970397949,-1.4464591493329249,0.806952432686892,-152.4019016674678,-0.09031340479850769,0.011568933725357056,-0.005563448183238506
706,8526307,-0.03408435732126236,0.015123606659471989,-2.659240484237671,-1.9528898219241615,0.8665188326036906,-152.36325645714385,-0.08971909433603287,0.008798398077487946,0.0060805995017290115
732,8526407,-0.04292717203497887,0.019029170274734497,-2.656938076019287,-2.4595457840363024,1.0902911443780878,-152.23133818351423,-0.08839280903339386,0.03442461043596268,0.023871570825576782
757,8526507,-0.05249045044183731,0.026769770309329033,-2.653670072555542,-3.007481275057885,1.5337948572591737,-152.0440953776075,-0.09471198171377182,0.07325033843517303,0.03641200065612793
783,8526607,-0.061449434608221054,0.036184534430503845,-2.650940179824829,-3.5207932565162037,2.0732211065136843,-151.8876840456142,-0.09241630136966705,0.09362924098968506,0.03402356803417206
807,8526707,-0.0664847195148468,0.04374034330248833,-2.649528980255127,-3.809293830311784,2.5061370656858983,-151.8068282662196,-0.056087687611579895,0.07843524217605591,0.020083466544747353
831,8526807,-0.06429356336593628,0.04634055122733116,-2.6490182876586914,-3.683749830725072,2.6551180056358628,-151.77756773581527,0.015391792170703411,0.030160127207636833,0.006546969525516033
858,8526907,-0.053923845291137695,0.04218723252415657,-2.6485369205474854,-3.089608750298588,2.4171503729712103,-151.74998743194675,0.09876291453838348,-0.03664034605026245,0.0011358270421624184
881,8527007,-0.03849727660417557,0.03113947995007038,-2.647549629211426,-2.205731472166986,1.7841607773712802,-151.69341980524072,0.15427350997924805,-0.10726656019687653,0.0032313698902726173
905,8527107,-0.02394980378448963,0.014702768996357918,-2.6458992958068848,-1.3722226770177026,0.842406610647106,-151.59886266637105,0.14881059527397156,-0.16281139850616455,0.009904978796839714
929,8527207,-0.016266101971268654,-0.0021813251078128815,-2.64383864402771,-0.9319789920831225,-0.12498072242359738,-151.4807960163782,0.08437440544366837,-0.17348310351371765,0.016794905066490173
955,8527307,-0.01737992838025093,-0.014006889425218105,-2.6418039798736572,-0.9957965444280193,-0.802535648171421,-151.36421834762444,-0.005372567102313042,-0.1267738938331604,0.018855232745409012
981,8527407,-0.025646256282925606,-0.015944886952638626,-2.640415906906128,-1.4694222453225076,-0.9135747271994058,-151.2846876249288,-0.07998284697532654,-0.027076520025730133,0.01447044312953949
1005,8527507,-0.036721426993608475,-0.008319668471813202,-2.6397905349731445,-2.103982784431541,-0.4766818903829518,-151.24885645254292,-0.11267834156751633,0.07028001546859741,0.00941972341388464
1032,8527607,-0.04544121026992798,0.005924235098063946,-2.639627695083618,-2.6035895644334057,0.3394336679623355,-151.2395264141367,-0.09181061387062073,0.14087404310703278,0.008010814897716045
1056,8527707,-0.047902561724185944,0.02023022063076496,-2.6395673751831055,-2.7446146146607746,1.1591062607613185,-151.23607033841665,-0.03089800290763378,0.14770764112472534,0.008095192722976208
1080,8527807,-0.04343948885798454,0.02866613306105137,-2.6395585536956787,-2.4888993757680784,1.642448439358679,-151.23556490441808,0.040629368275403976,0.09151646494865417,0.004739701747894287
1107,8527907,-0.03404906392097473,0.02800929918885231,-2.639822006225586,-1.9508676590430145,1.6048146306404376,-151.2506596224838,0.09250079095363617,-0.00041126273572444916,-0.002167041413486004
1130,8528007,-0.02361997216939926,0.019847750663757324,-2.6407594680786133,-1.3533247175230407,1.137192345861273,-151.30437223011677,0.1063576340675354,-0.07955723255872726,-0.011152932420372963
1154,8528107,-0.01493444386869669,0.008004925213754177,-2.64265775680542,-0.8556806030513497,0.4586484300659727,-151.41313616246006,0.09042854607105255,-0.1187567487359047,-0.020673736929893494
1178,8528207,-0.010203804820775986,-0.0039246585220098495,-2.645080804824829,-0.5846349512057074,-0.2248663693412159,-151.55196658752973,0.05095110088586807,-0.12193469703197479,-0.025184188038110733
1204,8528307,-0.009833269752562046,-0.011351154185831547,-2.6473593711853027,-0.5634048556354566,-0.6503732274504058,-151.68251882332538,0.006464967504143715,-0.08003401011228561,-0.023379381746053696
1230,8528407,-0.014658689498901367,-0.011367897503077984,-2.64877986907959,-0.8398810414797879,-0.6513325488636752,-151.76390735747523,-0.04497230798006058,-0.006365060806274414,-0.014138718135654926
1254,8528507,-0.024257833138108253,-0.003707931376993656,-2.64929461479187,-1.3898714589461922,-0.21244881862586826,-151.79340011431137,-0.09397251158952713,0.07172329723834991,-0.0030766278505325317
1281,8528607,-0.03445729240775108,0.009347045794129372,-2.6494061946868896,-1.9742574284123116,0.53554627491912,-151.7997931713745,-0.1050005629658699,0.12941695749759674,0.00366375595331192
1305,8528707,-0.039790183305740356,0.023901864886283875,-2.649176597595215,-2.2798095694708285,1.3694759804760053,-151.78663822703305,-0.060565248131752014,0.14795026183128357,0.008544228971004486
1329,8528807,-0.03636518120765686,0.03431093692779541,-2.648362159729004,-2.0835714044271922,1.96587187710224,-151.73997437462353,0.027403494343161583,0.10964173078536987,0.012609892524778843
1356,8528907,-0.02515260875225067,0.03496965765953064,-2.6471683979034424,-1.4411383252477792,2.003613794908438,-151.671576860275,0.10954029113054276,0.015138218179345131,0.012763296253979206
1379,8529007,-0.011169596575200558,0.02566617541015148,-2.646533489227295,-0.6399707426227705,1.4705635272441346,-151.63519927275553,0.142511785030365,-0.08926725387573242,0.0057524507865309715
1403,8529107,-0.0005444021080620587,0.011739865876734257,-2.6472766399383545,-0.03119194314998093,0.6726447667865249,-151.67777867204137,0.11202485859394073,-0.1391962617635727,-0.007108723744750023
1427,8529207,0.0014499792596325278,-0.0011261423351243138,-2.6490063667297363,0.08307769195844766,-0.06452320293363034,-151.77688471689825,0.028499355539679527,-0.13511471450328827,-0.016667194664478302
1453,8529307,-0.004835507366806269,-0.005717380437999964,-2.6508052349090576,-0.2770541639224173,-0.32758176896805596,-151.87995227147377,-0.058722399175167084,-0.05569518730044365,-0.017938431352376938
1479,8529407,-0.016442932188510895,0.0006020308355800807,-2.651703357696533,-0.9421106172214844,0.034493826015473024,-151.93141091668065,-0.11522038280963898,0.05698300898075104,-0.008150932379066944
1503,8529507,-0.02911151759326458,0.012798738665878773,-2.651576519012451,-1.6679670933149042,0.7333137086457515,-151.92414359540373,-0.1289188712835312,0.12428645044565201,0.004899356514215469
1530,8529607,-0.040626078844070435,0.023182692006230354,-2.6514413356781006,-2.327702855930958,1.3282704097086704,-151.91639816088494,-0.1157776340842247,0.10840705037117004,0.0070149535313248634
1554,8529707,-0.05089208111166954,0.02788153849542141,-2.652165412902832,-2.9159014583361196,1.597494482119182,-151.9578847299036,-0.10357556492090225,0.05367700755596161,-0.0031003206968307495
1578,8529807,-0.059808149933815,0.02587118372321129,-2.653111696243286,-3.4267545716932335,1.4823096383475582,-152.01210277153515,-0.09079669415950775,-0.01607191003859043,-0.010625205934047699
1605,8529907,-0.0646284893155098,0.02172468975186348,-2.6529288291931152,-3.7029396740850458,1.244733034012889,-152.00162526134835,-0.05258507281541824,-0.043771494179964066,-0.002413187175989151
1628,8530007,-0.061475012451410294,0.0189661867916584,-2.650695562362671,-3.5222587589799947,1.086682456618794,-151.87366849743734,0.023975206539034843,-0.03140388801693916,0.018474021926522255
1652,8530107,-0.05012461543083191,0.019488954916596413,-2.6472065448760986,-2.871928913902989,1.1166348638417098,-151.67376252080942,0.10832608491182327,0.0008453745394945145,0.034707583487033844
1676,8530207,-0.034039318561553955,0.02195347473025322,-2.6438231468200684,-1.950309291078366,1.2578414476906128,-151.47990809178611,0.1600443422794342,0.02332093007862568,0.035422686487436295
1702,8530307,-0.020140379667282104,0.023077847436070442,-2.6422228813171387,-1.1539587527263617,1.3222632583336442,-151.38821963236785,0.145511195063591,0.013699350878596306,0.018354622647166252
1728,8530407,-0.014145432971417904,0.02235966920852661,-2.6429240703582764,-0.8104736086474451,1.2811146769571966,-151.42839480506586,0.06839469820261002,-0.006451057270169258,-0.005498830229043961
1752,8530507,-0.018325751647353172,0.020342234522104263,-2.645210027694702,-1.0499882257982525,1.1655241839818975,-151.55937051259005,-0.03503188118338585,-0.019345559179782867,-0.02257588505744934
1779,8530607,-0.03041602298617363,0.017452968284487724,-2.6474177837371826,-1.742709746680648,0.9999814226768273,-151.68586561601867,-0.11847016215324402,-0.028284868225455284,-0.023315809667110443
1803,8530707,-0.04506997391581535,0.013897495344281197,-2.648521661758423,-2.582319288140928,0.7962678290300236,-151.749113167733,-0.15000440180301666,-0.0350477509200573,-0.012712720781564713
1827,8530807,-0.05536698177456856,0.01033105794340372,-2.6486711502075195,-3.1722943800605274,0.5919260180621373,-151.7576782249522,-0.10998201370239258,-0.036077968776226044,-0.0024266159161925316
1854,8530907,-0.05637586861848831,0.008298761211335659,-2.6490390300750732,-3.230099338223403,0.4754839925964079,-151.77875618873085,-0.01818174310028553,-0.022503340616822243,-0.0032057873904705048
1877,8531007,-0.04846831411123276,0.008781454525887966,-2.650545597076416,-2.7770298386880086,0.5031402823194357,-151.86507611946146,0.07522183656692505,0.0031325891613960266,-0.01325575914233923
1901,8531107,-0.036640092730522156,0.01199069432914257,-2.6531388759613037,-2.099322674426888,0.6870161784913192,-152.01366005466593,0.11998063325881958,0.03126613795757294,-0.023750364780426025
1925,8531207,-0.027372896671295166,0.017009727656841278,-2.6557188034057617,-1.568351452312913,0.9745856054039563,-152.16147900868333,0.0986492782831192,0.05045986920595169,-0.024989206343889236
1951,8531307,-0.023084014654159546,0.02253309264779091,-2.656911611557007,-1.3226166139014865,1.2910511080956844,-152.2298218815185,0.047192078083753586,0.056120365858078,-0.012012943625450134
1977,8531407,-0.022587783634662628,0.02700122259557247,-2.6560678482055664,-1.294184670820839,1.5470560964195768,-152.18147780257314,0.0052692946046590805,0.045830026268959045,0.008827760815620422
2001,8531507,-0.023494679480791092,0.028940923511981964,-2.654370069503784,-1.3461459752619458,1.6581927724474987,-152.08420224841382,-0.010498598217964172,0.021339818835258484,0.019128069281578064
2028,8531607,-0.024810418486595154,0.027195878326892853,-2.6538443565368652,-1.4215322672352575,1.558209048282267,-152.05408111417407,-0.013508087024092674,-0.01474539004266262,0.008203539997339249
2052,8531707,-0.02745499461889267,0.021158520132303238,-2.655705690383911,-1.573055318216936,1.2122939043235597,-152.16072768787464,-0.024914858862757683,-0.05716779828071594,-0.017141129821538925
2077,8531807,-0.031015267595648766,0.0121743343770504,-2.6593852043151855,-1.7770439336995385,0.6975379781860181,-152.37154830679626,-0.035762134939432144,-0.08865994960069656,-0.03821020573377609
2104,8531907,-0.033173076808452606,0.0028081408236175776,-2.6634464263916016,-1.9006772945876451,0.16089461747167813,-152.60423919144026,-0.024236125871539116,-0.09344141185283661,-0.04340332746505737
2127,8532007,-0.030714889988303185,-0.004664167761802673,-2.6665496826171875,-1.759833564538399,-0.26723712769227265,-152.78204267591403,0.019332779571413994,-0.07668328285217285,-0.034186311066150665
2151,8532107,-0.021901285275816917,-0.008126036264002323,-2.6684160232543945,-1.2548512122163225,-0.4655875820975883,-152.88897611755974,0.08350034803152084,-0.03799726814031601,-0.019902754575014114
2175,8532207,-0.008388876914978027,-0.007531039882451296,-2.669527769088745,-0.4806472420829673,-0.43149680060915885,-152.95267446175927,0.13377700746059418,0.0046592094004154205,-0.010475088842213154
2201,8532307,0.004699764773249626,-0.004618604201823473,-2.6707968711853027,0.26927668621146195,-0.2646265280058733,-153.02538865566325,0.13551625609397888,0.028217550367116928,-0.011536617763340473
2227,8532407,0.011951296590268612,-0.0007632749038748443,-2.672764301300049,0.684758854331483,-0.04373243060028218,-153.13811409772512,0.07999926805496216,0.03976285457611084,-0.018359633162617683
2251,8532507,0.009365765377879143,0.0016227781306952238,-2.675687551498413,0.5366188280622235,0.09297833797496544,-153.30560399655218,-0.017931127920746803,0.025557247921824455,-0.027240708470344543
2278,8532607,-0.0030137537978589535,0.002656229306012392,-2.6793696880340576,-0.17267537310884107,0.1521907286534737,-153.51657487963553,-0.11880500614643097,0.00998804159462452,-0.035234320908784866
2302,8532707,-0.021192414686083794,0.004285703878849745,-2.6825954914093018,-1.2142359192036647,0.24555274450093664,-153.7013997985761,-0.1820819079875946,0.014911612495779991,-0.03157089278101921
2326,8532807,-0.039434704929590225,0.008740922436118126,-2.684021472930908,-2.259442158809262,0.5008179646407785,-153.78310252142776,-0.18518489599227905,0.04189688712358475,-0.013118932023644447
2353,8532907,-0.05264577642083168,0.01701204478740692,-2.6836507320404053,-3.0163807981030004,0.9747183672059484,-153.76186063310902,-0.13804951310157776,0.08002541959285736,0.007968657650053501
2376,8533007,-0.05993448197841644,0.02773882821202278,-2.682774066925049,-3.4339928646661546,1.5893177851873248,-153.71163142195275,-0.07670754194259644,0.10722225904464722,0.016641035676002502
2400,8533107,-0.06277105957269669,0.038221362978219986,-2.6829493045806885,-3.596516789079785,2.18992278588958,-153.72167180003268,-0.029158933088183403,0.1065436601638794,0.006694599986076355
2424,8533207,-0.06256397068500519,0.04452958703041077,-2.6842126846313477,-3.5846514698310035,2.5513574003030257,-153.79405814485648,0.001712968572974205,0.06937409937381744,-0.007904148660600185
2450,8533307,-0.05972045660018921,0.0440920814871788,-2.6852080821990967,-3.421730113785043,2.5262901791622556,-153.8510902244261,0.027487462386488914,0.002242621034383774,-0.01143279392272234
2476,8533407,-0.05412682890892029,0.03778466954827309,-2.6848702430725098,-3.101238854907827,2.1649020954125304,-153.83173346831825,0.05364326760172844,-0.0600704662501812,-0.0018942514434456825
2500,8533507,-0.04556994512677193,0.025538356974720955,-2.6834218502044678,-2.6109655284067848,1.46324007035,-153.7487466699026,0.08341868221759796,-0.11898308992385864,0.007602626457810402
2527,8533607,-0.03564262390136719,0.010243657045066357,-2.682265281677246,-2.0421719203204525,0.5869183154617543,-153.68248017457515,0.09872782230377197,-0.15477214753627777,0.0059873973950743675
2551,8533707,-0.025486990809440613,-0.002108684740960598,-2.6824889183044434,-1.460297005869665,-0.12081873598067953,-153.69529360945808,0.1014237254858017,-0.12900400161743164,-0.005223440006375313
2575,8533807,-0.016715122386813164,-0.006442400626838207,-2.684525489807129,-0.9577059668090334,-0.36912236585026525,-153.81198056123858,0.08944059908390045,-0.05071772634983063,-0.020214799791574478
2602,8533907,-0.010138634592294693,-0.002149189356714487,-2.688142776489258,-0.580900972163826,-0.12313947951417649,-154.01923582141345,0.06653961539268494,0.03909425809979439,-0.03443809598684311
2625,8534007,-0.007601938676089048,0.008234101347625256,-2.692301034927368,-0.43555900225717104,0.47177925530191067,-154.25748648004185,0.028809525072574615,0.10161972045898438,-0.04036575183272362
2649,8534107,-0.009629572741687298,0.020866209641098976,-2.695774793624878,-0.5517338766129031,1.1955457468701596,-154.456518192456,-0.01700396090745926,0.12967216968536377,-0.033707812428474426
2673,8534207,-0.016380414366722107,0.029935169965028763,-2.6977663040161133,-0.9385286098886358,1.7151588980029322,-154.57062333273024,-0.0639042779803276,0.09550438821315765,-0.01842721737921238
2699,8534307,-0.02638738788664341,0.03294346481561661,-2.6981704235076904,-1.5118859582793,1.8875214964725544,-154.5937776740166,-0.0993843600153923,0.03411561995744705,-0.0026743123307824135
2725,8534407,-0.036995090544223785,0.031856730580329895,-2.6978001594543457,-2.119662550888363,1.8252562113382487,-154.57256310645454,-0.10804618895053864,-0.010498556308448315,0.004973071627318859
2749,8534507,-0.045640602707862854,0.028704121708869934,-2.6978204250335693,-2.6150139095938982,1.6446250285480914,-154.57372423861344,-0.0890643373131752,-0.03156299889087677,0.00055647362023592
2776,8534607,-0.0493176244199276,0.023987220600247383,-2.6988730430603027,-2.825691734873176,1.3743665026434402,-154.63403480898464,-0.041259363293647766,-0.046060867607593536,-0.011375724337995052
2800,8534707,-0.04721919447183609,0.017042741179466248,-2.7006819248199463,-2.7054605552436763,0.9764771409172267,-154.73767609945043,0.01739949733018875,-0.06657540798187256,-0.02105388045310974
2824,8534807,-0.03985310345888138,0.0072638471610844135,-2.702378988265991,-2.283414628692126,0.41618778535822154,-154.8349106724747,0.07107265293598175,-0.09471044689416885,-0.021362757310271263
2851,8534907,-0.030228739604353905,-0.0035419194027781487,-2.703989267349243,-1.7319791993294407,-0.20293703315468503,-154.92717286778324,0.09758904576301575,-0.10916519910097122,-0.019527409225702286
2874,8535007,-0.02222309820353985,-0.01137238834053278,-2.706185817718506,-1.273289734767595,-0.6515898548963143,-155.0530259334299,0.08362826704978943,-0.08321446925401688,-0.023166626691818237
2898,8535107,-0.019140489399433136,-0.01239804644137621,-2.7090187072753906,-1.0966692604024104,-0.7103557352980462,-155.21533854886607,0.034857019782066345,-0.01578616537153721,-0.028036506846547127
2922,8535207,-0.02263711392879486,-0.006222315598279238,-2.711869716644287,-1.2970110884767552,-0.35651242257982013,-155.3786893530561,-0.03116811439394951,0.05853893980383873,-0.02714296244084835
2948,8535307,-0.030453570187091827,0.004136889241635799,-2.7145562171936035,-1.7448610428257905,0.2370262938588071,-155.5326144961915,-0.07830354571342468,0.10432393848896027,-0.0235675647854805
2974,8535407,-0.038022615015506744,0.015249540098011494,-2.717294454574585,-2.1785353664392875,0.8737342871315743,-155.68950394142672,-0.07893297076225281,0.11301467567682266,-0.022327087819576263
2998,8535507,-0.04021193087100983,0.02392023615539074,-2.7198572158813477,-2.3039739249806876,1.3705285766601278,-155.83633934820364,-0.027938799932599068,0.09118249267339706,-0.02168581634759903
3025,8535607,-0.03493667021393776,0.028119007125496864,-2.72165584564209,-2.0017237534990486,1.611100432389259,-155.9393932424008,0.04816749691963196,0.046955302357673645,-0.016723427921533585
3049,8535707,-0.02431626431643963,0.026055362075567245,-2.7224740982055664,-1.3932193188565565,1.4928622806152279,-155.98627566086375,0.10559364408254623,-0.015759337693452835,-0.008891284465789795
3073,8535807,-0.014386927708983421,0.017330916598439217,-2.7228267192840576,-0.8243102378845687,0.9929883761837921,-156.00647936042867,0.10470422357320786,-0.08371284604072571,-0.00485268235206604
3100,8535907,-0.010796220041811466,0.004737481940537691,-2.7236318588256836,-0.6185778430903501,0.2714377207122569,-156.05261045808294,0.04290622100234032,-0.12608349323272705,-0.008544592186808586
3123,8536007,-0.016209563240408897,-0.005024190992116928,-2.725245952606201,-0.9287395614258324,-0.28786493931594587,-156.1450912194449,-0.04788502678275108,-0.10433140397071838,-0.01655714213848114
3147,8536107,-0.02862178534269333,-0.006140083074569702,-2.727264165878296,-1.6399075022657283,-0.35180084603255424,-156.2607263220932,-0.12295284867286682,-0.020127536728978157,-0.02006107196211815
3171,8536207,-0.04256002604961395,0.003945726435631514,-2.7293033599853516,-2.4385098686097213,0.2260734718748834,-156.37756353803545,-0.14198929071426392,0.09471476823091507,-0.01628868095576763
3197,8536307,-0.05141402408480644,0.018835559487342834,-2.731074333190918,-2.945806587843374,1.079198063392341,-156.47903282834517,-0.09555478394031525,0.15170767903327942,-0.009936640970408916
3223,8536407,-0.05152086168527603,0.03426743671298027,-2.732879161834717,-2.9519279314435862,1.96337949838542,-156.58244189237917,-0.0080516766756773,0.1584586799144745,-0.008617126382887363
3247,8536507,-0.04223564267158508,0.04399898275732994,-2.735133647918701,-2.41992407010447,2.520956014863887,-156.71161442996242,0.08897408097982407,0.10481351613998413,-0.0164992343634367
3274,8536607,-0.02845173142850399,0.04504924640059471,-2.7375996112823486,-1.6301641306929995,2.581131688998992,-156.85290372313332,0.1406601220369339,0.016992758959531784,-0.024401947855949402
3298,8536707,-0.016239045187830925,0.03931489586830139,-2.7393767833709717,-0.9304287525849412,2.2525776052499875,-156.95472818327988,0.12904396653175354,-0.05349517613649368,-0.02042635716497898
3322,8536807,-0.011232594028115273,0.028195463120937347,-2.7398078441619873,-0.6435802307948578,1.6154810382464702,-156.97942614731863,0.057427097111940384,-0.11005711555480957,-0.0069292811676859856
3349,8536907,-0.01487684901803732,0.01607639156281948,-2.739567279815674,-0.8523806611868815,0.921109386349282,-156.96564282557355,-0.031263332813978195,-0.12355519086122513,0.0014088461175560951
3372,8537007,-0.024730706587433815,0.006053895223885775,-2.7398056983947754,-1.4169651118363404,0.3468626459430615,-156.9793032039136,-0.09751787036657333,-0.10410285741090775,-0.002786600962281227
3396,8537107,-0.03567056730389595,0.0002854500198736787,-2.7412304878234863,-2.043772959350586,0.01635508140068726,-157.06093762487356,-0.11249993741512299,-0.0609515942633152,-0.014355571009218693
3420,8537207,-0.04088442772626877,-0.0005849609733559191,-2.743706226348877,-2.342505156522845,-0.03351579495315877,-157.2027869935564,-0.059897758066654205,-0.009214772842824459,-0.024182863533496857
3446,8537307,-0.037537697702646255,0.002305012196302414,-2.746591567993164,-2.1507516509995566,0.13206747057430873,-157.3681048922274,0.02653012052178383,0.026703253388404846,-0.027311615645885468
3472,8537407,-0.0260215662419796,0.010103171691298485,-2.7495245933532715,-1.4909259219855293,0.578869097607453,-157.53615486656636,0.11159827560186386,0.07666127383708954,-0.026273690164089203
3496,8537507,-0.012939606793224812,0.018105410039424896,-2.75223970413208,-0.741384857810591,1.037363581612836,-157.69171925510258,0.13584300875663757,0.08436178416013718,-0.024936139583587646
3523,8537607,-0.0047622849233448505,0.021856971085071564,-2.754997491836548,-0.2728588269464427,1.252312196114076,-157.84972885136168,0.08996383845806122,0.04312752187252045,-0.026354152709245682
3547,8537707,-0.005292631685733795,0.02016519196331501,-2.758065700531006,-0.3032454581097567,1.1553803925690764,-158.02552426021944,0.0030784085392951965,-0.014631761237978935,-0.02945839986205101
3571,8537807,-0.014477378688752651,0.015321223065257072,-2.761091947555542,-0.8294926972781688,0.8778414186177205,-158.1989154424894,-0.08671661466360092,-0.04735814779996872,-0.030282847583293915
3598,8537907,-0.028835538774728775,0.010004774667322636,-2.76322340965271,-1.652154671777796,0.5732313634169893,-158.32103922484922,-0.1425173431634903,-0.05549747869372368,-0.02228490635752678
3621,8538007,-0.04327714443206787,0.008052271790802479,-2.764073610305786,-2.479597725335579,0.4613611891052314,-158.36975213400976,-0.14792528748512268,-0.022917740046977997,-0.009097212925553322
3645,8538107,-0.05397963151335716,0.00966290757060051,-2.7638320922851562,-3.092805065386742,0.5536438216204208,-158.3559141707513,-0.11197167634963989,0.01474897563457489,0.0034519368782639503
3669,8538207,-0.060484036803245544,0.01135836448520422,-2.763097047805786,-3.4654800367399132,0.6507863471734858,-158.31379922432902,-0.06713403761386871,0.018918778747320175,0.009217046201229095
3695,8538307,-0.062013089656829834,0.010841886512935162,-2.7629683017730713,-3.553088311902728,0.621194339150994,-158.3064226200254,-0.018567441031336784,-0.0029205456376075745,0.0025621792301535606
3721,8538407,-0.05947694927453995,0.008617767132818699,-2.7645184993743896,-3.4077781717448223,0.4937616855370678,-158.39524239999224,0.02386418916285038,-0.02140844240784645,-0.015394999645650387
3745,8538507,-0.05399644374847412,0.006873070262372494,-2.7671942710876465,-3.0937683355031256,0.3937979183308173,-158.54855282610234,0.05341833829879761,-0.01773785427212715,-0.027887925505638123
3772,8538607,-0.04644965007901192,0.007153677754104137,-2.7695720195770264,-2.6613689093868937,0.4098755433067926,-158.68478777928743,0.07528309524059296,0.002146320417523384,-0.02521323412656784
3796,8538707,-0.03809138014912605,0.00931977853178978,-2.7709245681762695,-2.182475318373327,0.5339839758681854,-158.76228310561038,0.08385063707828522,0.02137124538421631,-0.013751083984971046
3820,8538807,-0.029088633134961128,0.012251751497387886,-2.772146463394165,-1.6666559104376735,0.7019736524434125,-158.832292544603,0.08907332271337509,0.029776623472571373,-0.010440205223858356
3848,8538907,-0.020555347204208374,0.01484947744756937,-2.7742695808410645,-1.177734641227176,0.8508123857204231,-158.95393821372093,0.08638564497232437,0.027191713452339172,-0.019444698467850685
3871,8539007,-0.012819078750908375,0.01668194681406021,-2.777367115020752,-0.734479109672885,0.9558051465073599,-159.13141384911455,0.07893790304660797,0.019086617976427078,-0.030145008116960526
3895,8539107,-0.0067207482643425465,0.01778286136686802,-2.7807862758636475,-0.38507051071670123,1.0188829039877798,-159.32731733488887,0.06277124583721161,0.011406000703573227,-0.03395814821124077
3919,8539207,-0.0026120045222342014,0.01819615811109543,-2.783396005630493,-0.14965683519310474,1.042563063118508,-159.47684383619878,0.04303983226418495,0.004391595721244812,-0.026958636939525604
3945,8539307,-0.00120794668328017,0.017891932278871536,-2.784407138824463,-0.0692102468287797,1.025132206913224,-159.53477750073884,0.017251046374440193,-0.00293734110891819,-0.010745679959654808
3971,8539407,-0.004417091142386198,0.01722528412938118,-2.78395414352417,-0.2530806801833485,0.9869360815272202,-159.50882278189277,-0.027838394045829773,-0.007087556645274162,0.005198502913117409
3995,8539507,-0.012890806421637535,0.01687287911772728,-2.7833144664764404,-0.7385888024799699,0.9667447616801932,-159.4721719868065,-0.08129620552062988,-0.004346080124378204,0.008665493689477444
4022,8539607,-0.02489883080124855,0.01713075488805771,-2.784207820892334,-1.4265979197218799,0.9815199549588117,-159.52335742444657,-0.12014830112457275,0.0024440567940473557,-0.005517998710274696
4046,8539707,-0.035316381603479385,0.01742522045969963,-2.787264823913574,-2.0234796135528317,0.9983915894258011,-159.69851079552237,-0.10760412365198135,0.004432015120983124,-0.02794748544692993
4070,8539807,-0.03985469788312912,0.016704536974430084,-2.791412115097046,-2.283505982472275,0.9570994673550773,-159.93613307674713,-0.05027908459305763,-0.004213109612464905,-0.041092321276664734
4097,8539907,-0.038412678986787796,0.014993461780250072,-2.7950005531311035,-2.200884385733804,0.859062080299035,-160.14173543114285,0.012609235942363739,-0.015136909671127796,-0.03706156462430954
4120,8540007,-0.03499870374798775,0.01376698911190033,-2.79701566696167,-2.005278013188394,0.7887903727144463,-160.25719294887273,0.03699592128396034,-0.01292435359209776,-0.02150711603462696
4144,8540107,-0.033599432557821274,0.014565876685082912,-2.797693967819214,-1.9251056795976074,0.834563258963257,-160.2960567252501,0.017629006877541542,0.006265033036470413,-0.006772995926439762
4168,8540207,-0.034638579934835434,0.01758357509970665,-2.7979514598846436,-1.9846444385926085,1.0074646419645168,-160.31080993385734,-0.009304659441113472,0.02932276763021946,-0.000841963104903698
4194,8540307,-0.035985492169857025,0.02160094678401947,-2.798652172088623,-2.0618168250338784,1.2376430842110042,-160.35095778579867,-0.014901846647262573,0.04114219546318054,-0.004609164781868458
4220,8540407,-0.03608253225684166,0.02480245754122734,-2.7998039722442627,-2.0673768124616805,1.4210761386647477,-160.41695107355935,-0.001986529678106308,0.034720927476882935,-0.009897997602820396
4244,8540507,-0.036442939192056656,0.025334961712360382,-2.8009257316589355,-2.0880266087567447,1.451586380243783,-160.48122315364915,-0.0016595050692558289,0.008638972416520119,-0.011026958003640175
4271,8540607,-0.03945603221654892,0.022278007119894028,-2.801496744155884,-2.2606641223404598,1.2764357839323264,-160.5139397597735,-0.027214165776968002,-0.02773059345781803,-0.007076980546116829
4295,8540707,-0.04441703110933304,0.016469918191432953,-2.8013508319854736,-2.544908421066064,0.9436568012948461,-160.50557960822943,-0.050166331231594086,-0.05755127966403961,-0.0012227492406964302
4319,8540807,-0.047286566346883774,0.010863345116376877,-2.800628423690796,-2.709320679341791,0.6224238265624492,-160.46418866185914,-0.03344882279634476,-0.058669693768024445,0.004452364519238472
4346,8540907,-0.044236887246370316,0.009175694547593594,-2.800302743911743,-2.534586938013117,0.5257285716783142,-160.44552858504667,0.024740267544984818,-0.02177315019071102,0.003270496614277363
4369,8541007,-0.03577441722154617,0.01185899879783392,-2.801332950592041,-2.0497231213347247,0.6794705803666006,-160.50455507985393,0.08298718184232712,0.02521730773150921,-0.008014701306819916
4393,8541107,-0.025936467573046684,0.015421463176608086,-2.803725004196167,-1.4860501274134923,0.883584753936055,-160.6416096557394,0.10071725398302078,0.038714222609996796,-0.02196209691464901
4417,8541207,-0.01989581435918808,0.015488539822399616,-2.8064370155334473,-1.1399461927572574,0.8874279626438036,-160.7969964593572,0.06648173183202744,0.006313800811767578,-0.027532394975423813
4443,8541307,-0.019982483237981796,0.010156863369047642,-2.808504819869995,-1.1449119537272683,0.5819454041374562,-160.91547292070024,0.004119649529457092,-0.04927179217338562,-0.022421948611736298
4469,8541407,-0.025538494810461998,0.0009712884784676135,-2.8097116947174072,-1.4632479677562278,0.055650730505877585,-160.98462175585743,-0.05327649414539337,-0.0904943197965622,-0.01396863628178835
4493,8541507,-0.03350956365466118,-0.009040292352437973,-2.810638904571533,-1.919956570737064,-0.5179705973590905,-161.0377469672218,-0.08116447180509567,-0.10210265964269638,-0.011171180754899979
4520,8541607,-0.04049826040863991,-0.01614144816994667,-2.8123583793640137,-2.3203793990368236,-0.9248368553671106,-161.13626561581006,-0.0733797550201416,-0.07520183175802231,-0.01810922659933567
4544,8541707,-0.043614890426397324,-0.018236394971609116,-2.8155837059020996,-2.498949145358106,-1.044868465406799,-161.3210632139939,-0.03554600477218628,-0.023188920691609383,-0.03134363144636154
4568,8541807,-0.04158053547143936,-0.014201788231730461,-2.8200411796569824,-2.382389192407488,-0.8137025272167158,-161.57645764743904,0.016321353614330292,0.037177931517362595,-0.04238396883010864
4595,8541907,-0.03549984097480774,-0.0037710475735366344,-2.824620485305786,-2.0339910612420695,-0.21606511030669912,-161.8388325342159,0.0588449165225029,0.10222767293453217,-0.04227891564369202
4618,8542007,-0.027825256809592247,0.010492311790585518,-2.827502727508545,-1.59426977905729,0.6011651829359018,-162.00397284796847,0.07829960435628891,0.14341036975383759,-0.026624711230397224
4642,8542107,-0.021343540400266647,0.024860143661499023,-2.827796459197998,-1.2228947848022427,1.424381309892799,-162.02080243408338,0.06795646995306015,0.14661628007888794,-0.0013422677293419838
4666,8542207,-0.017283616587519646,0.036265939474105835,-2.8262088298797607,-0.990278285187178,2.0778852719431566,-161.92983797471715,0.04222233593463898,0.1162882149219513,0.017684895545244217
4692,8542307,-0.015456070192158222,0.04286881908774376,-2.824205160140991,-0.8855675898686214,2.456202406437581,-161.8150361551476,0.018866976723074913,0.06934641301631927,0.022063300013542175
4718,8542407,-0.015109528787434101,0.044325944036245346,-2.822996139526367,-0.8657122299513944,2.5396895162099398,-161.74576437658533,0.003792479634284973,0.01770772784948349,0.013832508586347103
4751,8542507,-0.016104934737086296,0.04079190269112587,-2.8231914043426514,-0.9227447897686768,2.3372038625098575,-161.7569522264458,-0.008479131385684013,-0.03242684528231621,-0.0009432975202798843
4771,8542607,-0.018979163840413094,0.03300339728593826,-2.824683666229248,-1.0874259867429734,1.8909553740777783,-161.84245253447602,-0.026547612622380257,-0.07584594935178757,-0.014727826230227947
4795,8542707,-0.023401668295264244,0.021944506093859673,-2.827345609664917,-1.3408168268837493,1.2573275826772752,-161.9949706586424,-0.04310278221964836,-0.10871139168739319,-0.027381297200918198
4819,8542807,-0.02748408354818821,0.011059685610234737,-2.8307416439056396,-1.574721991096125,0.6336733082080188,-162.18954908771772,-0.04165833070874214,-0.11124183237552643,-0.035267528146505356
4846,8542907,-0.028695479035377502,0.005589847918599844,-2.83569073677063,-1.6441298398332655,0.3202746938557588,-162.47311122129997,-0.015171606093645096,-0.059082090854644775,-0.047440625727176666
4869,8543007,-0.025418661534786224,0.004954039119184017,-2.8477466106414795,-1.4563820268147782,0.283845533071952,-163.1638619124417,0.0307556614279747,-0.006689354777336121,-0.11170531064271927
4893,8543107,-0.01953800395131111,0.01036248542368412,-2.8687238693237305,-1.1194451665200527,0.5937266800429348,-164.36577030068884,0.060784243047237396,0.05604921281337738,-0.20148353278636932
4917,8543207,-0.015718601644039154,0.01661018840968609,-2.894374370574951,-0.9006095340508407,0.9516936927921297,-165.83543576477882,0.046449363231658936,0.07199501991271973,-0.254161536693573
4943,8543307,-0.017579104751348495,0.0188058502972126,-2.922985315322876,-1.0072085098706411,1.0774958521851268,-167.4747221467169,-0.0075225308537483215,0.031247075647115707,-0.2839588522911072
4969,8543407,-0.025043530389666557,0.016425887122750282,-2.9539458751678467,-1.4348885954355117,0.9411340068918783,-169.24863155719595,-0.06632634252309799,-0.015449331142008305,-0.30586257576942444
4993,8543507,-0.034094907343387604,0.013225381262600422,-2.9848196506500244,-1.9534942936657076,0.7577585287984041,-171.0175685899592,-0.08865004777908325,-0.025646112859249115,-0.30976682901382446
5020,8543607,-0.042339298874139786,0.012116901576519012,-3.015462636947632,-2.425863133031208,0.6942473211099529,-172.77328237648933,-0.08040580153465271,-0.002266775816679001,-0.3067519962787628
5044,8543707,-0.048022910952568054,0.014501255005598068,-3.0466504096984863,-2.7515101175147256,0.8308607094637283,-174.5602101275264,-0.05608581379055977,0.03486822172999382,-0.3072638213634491
5068,8543807,-0.05032087862491608,0.019210100173950195,-3.0786211490631104,-2.8831739665977687,1.1006576639908747,-176.39199856103212,-0.019721712917089462,0.06348740309476852,-0.3166872262954712
5095,8543907,-0.050710275769233704,0.0224335715174675,-3.112311363220215,-2.905484779521615,1.2853489673557814,-178.3223056431261,0.002484280616044998,0.051699332892894745,-0.3323736786842346
5118,8544007,-0.04962683469057083,0.021871333941817284,3.1372950077056885,-2.8434081783631315,1.2531351271873568,179.75376302899903,0.01772858202457428,0.014683449640870094,-0.33806294202804565
5142,8544107,-0.04757453128695488,0.016597721725702286,3.1037955284118652,-2.725819855055603,0.9509794044153344,177.83438424957708,0.026179494336247444,-0.033609069883823395,-0.3361639678478241
5166,8544207,-0.04377279803156853,0.009233400225639343,3.0710489749908447,-2.5079965846874344,0.5290348634842764,175.95814494495292,0.04019271582365036,-0.05991077423095703,-0.3329418897628784
5192,8544307,-0.03753144294023514,0.0025087338872253895,3.038440704345703,-2.1503932795115426,0.14373986365946384,174.08982865976597,0.06284220516681671,-0.057141631841659546,-0.3311467170715332
5218,8544407,-0.02953522279858589,-0.00018505378102418035,3.0056536197662354,-1.6922436133375396,-0.010602800635623655,172.21126709082398,0.07998181879520416,-0.020258324220776558,-0.3309895694255829
5242,8544507,-0.02121705934405327,0.001089665456674993,2.972644567489624,-1.215647954092859,0.06243323174867256,170.31998770964745,0.08364478498697281,0.01876463182270527,-0.32891035079956055
5269,8544607,-0.01599954068660736,0.00488931592553854,2.939527750015259,-0.9167061554904451,0.2801371672394582,168.42253383746123,0.05769241601228714,0.04351971670985222,-0.3318385183811188
5293,8544707,-0.01580839790403843,0.007465423550456762,2.905308961868286,-0.9057544807648585,0.4277372617187429,166.46194169658742,0.007404988631606102,0.03434442728757858,-0.3423214256763458
5317,8544807,-0.01842317543923855,0.007136028725653887,2.8694968223571777,-1.0555701978974454,0.40886432846408693,164.41005724726722,-0.023727204650640488,0.003764243796467781,-0.3556462824344635
5344,8544907,-0.020329877734184265,0.00509059289470315,2.8337104320526123,-1.1648161921857434,0.29166948808577514,162.3596481188077,-0.02019643969833851,-0.014230471104383469,-0.36049309372901917
5367,8545007,-0.018473714590072632,0.003901292337104678,2.799257755279541,-1.0584658779404135,0.22352758556282729,160.38565514678234,0.01644306257367134,-0.008078898303210735,-0.34847575426101685
5391,8545107,-0.013819274492561817,0.005717952735722065,2.76714825630188,-0.7917861043565845,0.3276145592121573,158.54591637308272,0.04738379269838333,0.019952554255723953,-0.32141292095184326
5415,8545207,-0.009194325655698776,0.012984487228095531,2.7378013134002686,-0.5267960555403931,0.743956317311395,156.864460403209,0.051185622811317444,0.07084452360868454,-0.29505160450935364
5441,8545307,-0.0072822608053684235,0.02490272745490074,2.709214448928833,-0.4172428094611505,1.4268211815303746,155.22655371948323,0.02833014354109764,0.11986375600099564,-0.28522157669067383
5467,8545407,-0.008967345580458641,0.03814711049199104,2.679805278778076,-0.5137910551955716,2.185668431810308,153.54153239086276,-0.00574975460767746,0.13602934777736664,-0.2897728681564331
5491,8545507,-0.013563183136284351,0.04731448367238045,2.6497409343719482,-0.7771131504721046,2.710920224268044,151.81897234256388,-0.031492434442043304,0.10113498568534851,-0.299526184797287
5518,8545607,-0.020038217306137085,0.050111476331949234,2.6198344230651855,-1.1481052806076608,2.8711760989904067,150.1054554647261,-0.05008477717638016,0.03809749335050583,-0.2994442582130432
5542,8545707,-0.025736087933182716,0.04777855426073074,2.591459274291992,-1.4745692197489355,2.7375095103766687,148.47967919696632,-0.04375844448804855,-0.0159556046128273,-0.2831714451313019
5566,8545807,-0.030593032017350197,0.04370832070708275,2.5652902126312256,-1.752851617102765,2.5043023061201035,146.98030240998676,-0.03726479038596153,-0.03386086970567703,-0.26294082403182983
5593,8545907,-0.034615907818078995,0.0395859070122242,2.5401206016540527,-1.9833454219898368,2.268105399997777,145.5381899290086,-0.030283404514193535,-0.03390636667609215,-0.2520959973335266
5616,8546007,-0.03862737864255905,0.03493880107998848,2.5155837535858154,-2.2131857698724087,2.0018458431304627,144.1323320921449,-0.030322587117552757,-0.03611689805984497,-0.24377399682998657
5640,8546107,-0.04161442443728447,0.027186699211597443,2.492656707763672,-2.3843308871224758,1.5576831237161761,142.81870912983302,-0.024325773119926453,-0.06423036009073257,-0.2318834364414215
5664,8546207,-0.04408903419971466,0.014952040277421474,2.4721839427948,-2.526115582451597,0.856688803005867,141.64570610215338,-0.02028275839984417,-0.10976572334766388,-0.20730526745319366
5690,8546307,-0.04529152810573578,-0.00013964762911200523,2.4537577629089355,-2.595013408156808,-0.008001219767126148,140.5899637621445,-0.012268180027604103,-0.14130623638629913,-0.1893453747034073
5716,8546407,-0.0454786978662014,-0.01742387004196644,2.439676523208618,-2.605737445483963,-0.9983142161891095,139.78316815700424,-0.0033176448196172714,-0.16692017018795013,-0.1505814790725708
5740,8546507,-0.044750384986400604,-0.029716119170188904,2.430479049682617,-2.5640081913063586,-1.7026082119596222,139.2561917417811,0.002726234495639801,-0.12679071724414825,-0.09612548351287842
5767,8546607,-0.04233308136463165,-0.03219594061374664,2.424142599105835,-2.425506895977309,-1.84469151462152,138.89313986663822,0.021196436136960983,-0.029995687305927277,-0.06212879717350006
5791,8546707,-0.03839291259646416,-0.02473045513033867,2.419215679168701,-2.1997518549920514,-1.4169507044060599,138.61084814824162,0.03573913872241974,0.07223197817802429,-0.04471446946263313
5815,8546807,-0.03180539608001709,-0.010337809100747108,2.4163591861724854,-1.822314961126912,-0.5923128308847422,138.44718315534976,0.06426525115966797,0.14016322791576385,-0.023207947611808777
5841,8546907,-0.02638804167509079,0.010059995576739311,2.4160361289978027,-1.5119234175980294,0.576395288467439,138.42867334269903,0.05727668106555939,0.20261384546756744,0.0034221913665533066
5865,8547007,-0.02257000468671322,0.03127060830593109,2.417940616607666,-1.2931660121391553,1.7916738787365885,138.53779244487916,0.038692548871040344,0.21555054187774658,0.026531372219324112
5889,8547107,-0.02149636670947075,0.04715992510318756,2.4217679500579834,-1.231651087318199,2.7020646705657105,138.75708249837157,0.011378245428204536,0.16441892087459564,0.04485601931810379
5913,8547207,-0.02271384559571743,0.05318015068769455,2.42616868019104,-1.3014074891464218,3.04699818827464,139.00922576177177,-0.013911744579672813,0.06720929592847824,0.05037318915128708
5939,8547307,-0.025872958824038506,0.04819194972515106,2.4312477111816406,-1.4824113441331679,2.7611953257578037,139.30023280154933,-0.03357013314962387,-0.044614724814891815,0.05357524752616882
5965,8547407,-0.0302011426538229,0.03682943433523178,2.4370338916778564,-1.7303980105365828,2.1101711492629835,139.6317565234834,-0.046587828546762466,-0.11639273911714554,0.0584719255566597
5989,8547507,-0.03169148787856102,0.02650151588022709,2.442805051803589,-1.8157885019315532,1.5184250106359412,139.96241964158207,-0.021194525063037872,-0.11067544668912888,0.058978550136089325
6016,8547607,-0.029516343027353287,0.022006822749972343,2.447680711746216,-1.6911618821277388,1.2608980640658993,140.2417743786356,0.018349632620811462,-0.05277114361524582,0.052113551646471024
6040,8547707,-0.02420545555651188,0.021976010873913765,2.4507081508636475,-1.386870444579618,1.2591326736088626,140.41523386279724,0.0515621043741703,-0.003277597948908806,0.035059038549661636
6064,8547807,-0.018127979710698128,0.02459768019616604,2.451313018798828,-1.0386567285217898,1.409343261052841,140.4498902426459,0.06291873753070831,0.02524743042886257,0.011198475025594234
6090,8547907,-0.013398704119026661,0.02862919494509697,2.450529098510742,-0.7676891969647794,1.640332041211327,140.40497491866387,0.049871981143951416,0.04060320928692818,-0.0039406344294548035
6114,8548007,-0.010750138200819492,0.03260572999715805,2.449854850769043,-0.6159375480893171,1.868170716780262,140.36634336871828,0.02984086610376835,0.039664916694164276,-0.0036642178893089294
6138,8548107,-0.011232467368245125,0.03469322621822357,2.4502363204956055,-0.6435729737188648,1.9877754399968246,140.38819997406233,-0.0020410586148500443,0.022214865311980247,0.0071332938969135284
6162,8548207,-0.01333609502762556,0.03544522449374199,2.451251983642578,-0.7641019602683476,2.030861767385146,140.44639318579084,-0.01952276937663555,0.006799830123782158,0.014981258660554886
6188,8548307,-0.01695389114320278,0.03454001620411873,2.4515466690063477,-0.9713864088297458,1.9789971528094774,140.4632774134191,-0.034419551491737366,-0.008872412145137787,0.00876816175878048
6214,8548407,-0.020031308755278587,0.031137173995375633,2.4507052898406982,-1.1477094498009175,1.7840286558995229,140.41506993825715,-0.031073639169335365,-0.032004464417696,-0.003875153139233589
6238,8548507,-0.021857505664229393,0.025762243196368217,2.450190305709839,-1.2523428252436353,1.4760678059415187,140.3855635210427,-0.01741393283009529,-0.053733304142951965,-0.0029011256992816925
6265,8548607,-0.0230952650308609,0.020803483203053474,2.4506752490997314,-1.3232612130044066,1.1919517867062634,140.4133487305863,-0.01062040589749813,-0.05250774696469307,0.00820302776992321
6289,8548707,-0.025182893499732018,0.01877775602042675,2.45032000541687,-1.4428735134620798,1.0758861686968253,140.3929947668597,-0.016581183299422264,-0.024765286594629288,0.002179632894694805
6313,8548807,-0.031247729435563087,0.021775955334305763,2.448976755142212,-1.790363016024475,1.2476703355211118,140.31603219529197,-0.05460955202579498,0.026278339326381683,-0.007996656000614166
6340,8548907,-0.04025274142622948,0.029300671070814133,2.449077844619751,-2.306312197554359,1.6788047892587163,140.32182419570813,-0.08733725547790527,0.07395967841148376,0.0053730495274066925
6364,8549007,-0.050862718373537064,0.038274895399808884,2.4517180919647217,-2.9142190973661806,2.1929899677137388,140.4730992254456,-0.10633762180805206,0.09012920409440994,0.033310554921627045
6388,8549107,-0.05809600651264191,0.04384676367044449,2.4567298889160156,-3.3286559797389255,2.5122345036240157,140.76025403853126,-0.07779806852340698,0.05793564021587372,0.055714674293994904
6412,8549207,-0.05834639444947243,0.040387000888586044,2.464343309402466,-3.3430021517603024,2.3140046981070856,141.1964709000633,-0.010921766981482506,-0.02980891242623329,0.07633662223815918
6438,8549307,-0.049636535346508026,0.027729269117116928,2.473856210708618,-2.843963985006841,1.5887700893932544,141.74151999583032,0.07934579998254776,-0.12814822793006897,0.0915539562702179
6464,8549407,-0.03668863698840141,0.012220210395753384,2.4824938774108887,-2.102104055522964,0.7001664804385623,142.23642184271108,0.1313881129026413,-0.16203084588050842,0.08312691748142242
6488,8549507,-0.028231648728251457,0.0013684709556400776,2.4898974895477295,-1.6175543208246865,0.07840761014441094,142.6606175713039,0.09325116872787476,-0.1186089962720871,0.07145079225301743
6515,8549607,-0.02774832397699356,-0.002103250939399004,2.4993138313293457,-1.5898618524433987,-0.1205074020844886,143.20013421384323,0.012873087078332901,-0.043003447353839874,0.09129124879837036
6539,8549707,-0.0349891372025013,0.0013674714136868715,2.5117709636688232,-2.0047298905075004,0.07835034060904597,143.9138753217312,-0.06743708997964859,0.02714376337826252,0.1246427595615387
6563,8549807,-0.043908242136240005,0.008880287408828735,2.5242011547088623,-2.5157569602450383,0.5088029893890523,144.62607280686677,-0.09206663817167282,0.07181556522846222,0.13092771172523499
6589,8549907,-0.04953719303011894,0.014134004712104797,2.5359299182891846,-2.8382720895506934,0.8098188176216231,145.298081458926,-0.06170045956969261,0.05343550071120262,0.12100877612829208
6613,8550007,-0.0500558502972126,0.012801127508282661,2.5489020347595215,-2.8679889619689494,0.7334505792334163,146.04132898402844,-0.008670823648571968,-0.014488659799098969,0.12703363597393036
6637,8550107,-0.04685308039188385,0.0041019851341843605,2.5628762245178223,-2.6844837636420977,0.23502643581416852,146.84199107929402,0.0313858725130558,-0.09018328785896301,0.1356814205646515
6661,8550207,-0.040402282029390335,-0.007378414738923311,2.577174186706543,-2.314880242981317,-0.4227520240374269,147.66120396834535,0.06326702237129211,-0.1228690892457962,0.13723385334014893
6687,8550307,-0.03139391168951988,-0.014083154499530792,2.5906741619110107,-1.7987386422159088,-0.8069053150537895,148.43469557109262,0.0924089103937149,-0.08101041615009308,0.132674902677536
6713,8550407,-0.02015131339430809,-0.010516674257814884,2.60347318649292,-1.154585209139299,-0.6025610494866703,149.1680256615202,0.11463013291358948,0.02305690012872219,0.12858091294765472
6737,8550507,-0.009142592549324036,0.002876251470297575,2.6158273220062256,-0.5238319668840191,0.1647970700663487,149.8758654859653,0.11437740921974182,0.12812864780426025,0.12375742197036743
6773,8550607,-0.00410283450037241,0.01900896430015564,2.6289174556732178,-0.23507510091200487,1.0891334273137707,150.62587489834607,0.05768226832151413,0.16528332233428955,0.13010573387145996
6787,8550707,-0.008073436096310616,0.02902735024690628,2.643503189086914,-0.4625738144871731,1.663144659595758,151.4615758640538,-0.03468027710914612,0.10987366735935211,0.14580202102661133
6800,8550747,-0.012384339235723019,0.03034680150449276,2.649272918701172,-0.7095703702652005,1.7387436479286922,151.7921570198824,-0.07572545856237411,0.07163163274526596,0.14863386750221252
6814,8550787,-0.017971502617001534,0.030167270451784134,2.655463457107544,-1.0296912514625018,1.728457276316947,152.14684874348117,-0.11416718363761902,0.02933450974524021,0.1491771936416626
6828,8550807,-0.020750807598233223,0.02964511327445507,2.6583499908447266,-1.188933696866764,1.6985398738135276,152.31223494404387,-0.12737205624580383,0.010261334478855133,0.14857378602027893
6843,8550847,-0.026109715923666954,0.02789633348584175,2.664090156555176,-1.4959765267116363,1.598342172628204,152.64112221295832,-0.14105264842510223,-0.023127662017941475,0.14611327648162842
6846,8550887,-0.030932245776057243,0.025815773755311966,2.669738292694092,-1.772287133829448,1.4791348810439717,152.9647365758335,-0.13852615654468536,-0.04653223976492882,0.14300331473350525
6861,8550907,-0.033041201531887054,0.024883072823286057,2.672560691833496,-1.8931213978183186,1.4256950540909687,153.12644813462273,-0.13260380923748016,-0.052547018975019455,0.14171461760997772
6864,8550947,-0.03634459152817726,0.023401841521263123,2.678043842315674,-2.082391702691484,1.3408267520023869,153.44060951568665,-0.11263798922300339,-0.05357510223984718,0.13921763002872467
6877,8550987,-0.03818841651082039,0.022976769134402275,2.683380365371704,-2.1880350923577176,1.3164718982477082,153.74636976407143,-0.0832156389951706,-0.04001854360103607,0.13643871247768402
6881,8551007,-0.03842008858919144,0.023207688704133034,2.685957908630371,-2.201308924679403,1.3297026150002575,153.89405211430545,-0.06515034288167953,-0.02880382165312767,0.13480716943740845
6894,8551047,-0.03744090348482132,0.024559784680604935,2.6909029483795166,-2.145205750836918,1.4071720079487173,154.17738202145594,-0.022406859323382378,-0.0009178780019283295,0.13042281568050385
6908,8551087,-0.03458419814705849,0.027187207713723183,2.6957883834838867,-1.9815285916706133,1.5577122587418544,154.45729683402138,0.025137249380350113,0.03160201013088226,0.12571310997009277
6912,8551107,-0.03255999833345413,0.028693504631519318,2.6980955600738525,-1.8655504854599159,1.6440167148251372,154.5894883152178,0.048147108405828476,0.04619412124156952,0.12345483899116516
6925,8551147,-0.027866197749972343,0.032048072665929794,2.7026124000549316,-1.5966155221503662,1.8362193052863538,154.8482841828696,0.08851612359285355,0.06915269047021866,0.1191297248005867
6939,8551187,-0.022680433467030525,0.035286225378513336,2.7069852352142334,-1.2994931151881142,2.0217517891362298,155.098829182004,0.1160111129283905,0.08078810572624207,0.11505589634180069
6943,8551207,-0.020153570920228958,0.036692168563604355,2.70916485786438,-1.154714555846706,2.1023063998771256,155.2237123607885,0.1236213892698288,0.0812268853187561,0.11318264901638031
6957,8551247,-0.015399575233459473,0.038879089057445526,2.7135913372039795,-0.8823306671714172,2.2276077143048907,155.47733094504943,0.12661156058311462,0.07285366952419281,0.11126799881458282
6971,8551287,-0.011248569004237652,0.039941638708114624,2.717921018600464,-0.6444955295044925,2.2884873248113298,155.7254034157043,0.11737531423568726,0.05225721746683121,0.10992982983589172
6975,8551307,-0.009511823765933514,0.04014633223414421,2.720033884048462,-0.544987357260223,2.3002153999464765,155.8464616885536,0.10977205634117126,0.04010717570781708,0.10895350575447083
6988,8551347,-0.006757193710654974,0.03964105620980263,2.7240893840789795,-0.387158680972874,2.271265216262554,156.07882472411742,0.08940263837575912,0.013472147285938263,0.10577705502510071
6995,8551367,-0.005874226335436106,0.03920912742614746,2.726167678833008,-0.3365683769250887,2.246517519908894,156.19790224210743,0.07621638476848602,0.00041232630610466003,0.10356437414884567
7008,8551407,-0.005372277460992336,0.03801911324262619,2.7299163341522217,-0.3078088248881186,2.1783347296324185,156.41268437074766,0.044699542224407196,-0.018536869436502457,0.09885748475790024
7021,8551447,-0.006113534327596426,0.03672167658805847,2.7334041595458984,-0.35027971487962484,2.1039970851401155,156.6125220454839,0.010637026280164719,-0.02997668832540512,0.093014657497406
7026,8551467,-0.006816784851253033,0.03614746034145355,2.73502254486084,-0.39057300182551347,2.0710969176818104,156.705248693656,-0.006011215969920158,-0.03221459686756134,0.08970300853252411
7039,8551507,-0.008499901741743088,0.035149481147527695,2.738050937652588,-0.48700849607777635,2.0139169218279904,156.878762819331,-0.03175134211778641,-0.03149379417300224,0.08266453444957733
7052,8551547,-0.010366414673626423,0.034570809453725815,2.740814208984375,-0.5939518094812808,1.9807614760494563,157.0370866042919,-0.045841723680496216,-0.024653227999806404,0.07550401240587234
7058,8551567,-0.011266066692769527,0.034409619867801666,2.742123603820801,-0.6454980732086034,1.9715259930745412,157.1121094021353,-0.04858255013823509,-0.019835611805319786,0.07239651679992676
7072,8551607,-0.013112195767462254,0.03412899747490883,2.7447283267974854,-0.7512734776248885,1.9554475143249197,157.26134903550007,-0.04992168769240379,-0.01129443570971489,0.0676012635231018
7085,8551647,-0.015152214094996452,0.033627212047576904,2.7473325729370117,-0.868157917921935,1.9266973271176318,157.4105613481082,-0.050069041550159454,-0.008698765188455582,0.06490065157413483
7090,8551667,-0.016247719526290894,0.03324468806385994,2.748565673828125,-0.9309257555687654,1.9047803172881188,157.4812128248828,-0.05110497400164604,-0.009944088757038116,0.0640045627951622
7103,8551707,-0.01861697994172573,0.03217127546668053,2.7510178089141846,-1.0666743779405936,1.843278305793562,157.62170981610996,-0.05549230799078941,-0.01630704663693905,0.06265005469322205
7116,8551747,-0.02132667787373066,0.030598565936088562,2.7534446716308594,-1.2219286331998032,1.7531686872906416,157.7607588072331,-0.06165631115436554,-0.027472784742712975,0.06134134158492088
7121,8551767,-0.022823452949523926,0.02963952347636223,2.7546589374542236,-1.3076875279231313,1.6982196019744775,157.83033111411882,-0.0651855319738388,-0.03331172466278076,0.06104155629873276
