{"packet_index": 32, "message": {"header": {"component_id": 1, "sequence": 245, "system_id": 1}, "message": {"airspeed": 0.030000001192092896, "alt": 16.270000457763672, "climb": -0.027766209095716476, "groundspeed": 0.04809204488992691, "heading": 152, "throttle": 0, "type": "VFR_HUD"}}}
{"packet_index": 138, "message": {"header": {"component_id": 1, "sequence": 40, "system_id": 1}, "message": {"airspeed": 0.032999999821186066, "alt": 16.299999237060547, "climb": -0.02233363687992096, "groundspeed": 0.08666969835758209, "heading": 153, "throttle": 0, "type": "VFR_HUD"}}}
{"packet_index": 158, "message": {"header": {"component_id": 1, "sequence": 58, "system_id": 1}, "message": {"altitude": 32970, "latitude": 634405552, "longitude": 103484873, "time_usec": 5483367403, "type": "GPS_GLOBAL_ORIGIN"}}}
{"packet_index": 159, "message": {"header": {"component_id": 1, "sequence": 59, "system_id": 1}, "message": {"altitude": 6860, "approach_x": 0.0, "approach_y": 0.0, "approach_z": 0.0, "latitude": 634405553, "longitude": 103484876, "q": [null, null, null, null], "time_usec": 5483367415, "type": "HOME_POSITION", "x": 0.011131884530186653, "y": 0.01493206899613142, "z": 26.10999870300293}}}
{"packet_index": 217, "message": {"header": {"component_id": 1, "sequence": 90, "system_id": 1}, "message": {"autopilot": {"type": "MAV_AUTOPILOT_ARDUPILOTMEGA"}, "base_mode": {"bits": 129}, "custom_mode": 4, "mavlink_version": 3, "mavtype": {"type": "MAV_TYPE_SURFACE_BOAT"}, "system_status": {"type": "MAV_STATE_STANDBY"}, "type": "HEARTBEAT"}}}
{"packet_index": 240, "message": {"header": {"component_id": 1, "sequence": 104, "system_id": 1}, "message": {"airspeed": 0.07800000160932541, "alt": 16.28999900817871, "climb": 0.003230910049751401, "groundspeed": 0.12605316936969757, "heading": 154, "throttle": 0, "type": "VFR_HUD"}}}
{"packet_index": 348, "message": {"header": {"component_id": 1, "sequence": 167, "system_id": 1}, "message": {"airspeed": 0.10000000149011612, "alt": 16.35999870300293, "climb": 0.1220981553196907, "groundspeed": 0.1124623566865921, "heading": 156, "throttle": 0, "type": "VFR_HUD"}}}
{"packet_index": 454, "message": {"header": {"component_id": 1, "sequence": 218, "system_id": 1}, "message": {"airspeed": 0.08300000429153442, "alt": 16.329999923706055, "climb": 0.16849073767662048, "groundspeed": 0.09407738596200943, "heading": 156, "throttle": 0, "type": "VFR_HUD"}}}
{"packet_index": 473, "message": {"header": {"component_id": 1, "sequence": 236, "system_id": 1}, "message": {"altitude": 32970, "latitude": 634405552, "longitude": 103484873, "time_usec": 5484367353, "type": "GPS_GLOBAL_ORIGIN"}}}
{"packet_index": 474, "message": {"header": {"component_id": 1, "sequence": 237, "system_id": 1}, "message": {"altitude": 6860, "approach_x": 0.0, "approach_y": 0.0, "approach_z": 0.0, "latitude": 634405553, "longitude": 103484876, "q": [null, null, null, null], "time_usec": 5484367359, "type": "HOME_POSITION", "x": 0.011131884530186653, "y": 0.01493206899613142, "z": 26.10999870300293}}}
{"packet_index": 533, "message": {"header": {"component_id": 1, "sequence": 12, "system_id": 1}, "message": {"autopilot": {"type": "MAV_AUTOPILOT_ARDUPILOTMEGA"}, "base_mode": {"bits": 129}, "custom_mode": 4, "mavlink_version": 3, "mavtype": {"type": "MAV_TYPE_SURFACE_BOAT"}, "system_status": {"type": "MAV_STATE_STANDBY"}, "type": "HEARTBEAT"}}}
{"packet_index": 556, "message": {"header": {"component_id": 1, "sequence": 26, "system_id": 1}, "message": {"airspeed": 0.03400000184774399, "alt": 16.299999237060547, "climb": 0.03666221350431442, "groundspeed": 0.07268767058849335, "heading": 157, "throttle": 0, "type": "VFR_HUD"}}}
{"packet_index": 663, "message": {"header": {"component_id": 1, "sequence": 89, "system_id": 1}, "message": {"airspeed": 0.058000002056360245, "alt": 16.350000381469727, "climb": 0.14164119958877563, "groundspeed": 0.11045173555612564, "heading": 158, "throttle": 0, "type": "VFR_HUD"}}}
{"packet_index": 770, "message": {"header": {"component_id": 1, "sequence": 140, "system_id": 1}, "message": {"airspeed": 0.10700000822544098, "alt": 16.34000015258789, "climb": -2.831883648468647e-05, "groundspeed": 0.16072587668895721, "heading": 159, "throttle": 0, "type": "VFR_HUD"}}}
{"packet_index": 793, "message": {"header": {"component_id": 1, "sequence": 161, "system_id": 1}, "message": {"altitude": 32970, "latitude": 634405552, "longitude": 103484873, "time_usec": 5485367385, "type": "GPS_GLOBAL_ORIGIN"}}}
{"packet_index": 794, "message": {"header": {"component_id": 1, "sequence": 162, "system_id": 1}, "message": {"altitude": 6860, "approach_x": 0.0, "approach_y": 0.0, "approach_z": 0.0, "latitude": 634405553, "longitude": 103484876, "q": [null, null, null, null], "time_usec": 5485367393, "type": "HOME_POSITION", "x": 0.011131884530186653, "y": 0.01493206899613142, "z": 26.10999870300293}}}
{"packet_index": 852, "message": {"header": {"component_id": 1, "sequence": 193, "system_id": 1}, "message": {"autopilot": {"type": "MAV_AUTOPILOT_ARDUPILOTMEGA"}, "base_mode": {"bits": 129}, "custom_mode": 4, "mavlink_version": 3, "mavtype": {"type": "MAV_TYPE_SURFACE_BOAT"}, "system_status": {"type": "MAV_STATE_STANDBY"}, "type": "HEARTBEAT"}}}
{"packet_index": 872, "message": {"header": {"component_id": 1, "sequence": 204, "system_id": 1}, "message": {"airspeed": 0.10700000822544098, "alt": 16.43000030517578, "climb": -0.03553996980190277, "groundspeed": 0.10469622910022736, "heading": 160, "throttle": 0, "type": "VFR_HUD"}}}
{"packet_index": 979, "message": {"header": {"component_id": 1, "sequence": 11, "system_id": 1}, "message": {"airspeed": 0.08900000154972076, "alt": 16.40999984741211, "climb": -0.036415521055459976, "groundspeed": 0.02465367689728737, "heading": 160, "throttle": 0, "type": "VFR_HUD"}}}
{"packet_index": 1086, "message": {"header": {"component_id": 1, "sequence": 62, "system_id": 1}, "message": {"airspeed": 0.03500000014901161, "alt": 16.309999465942383, "climb": -0.0594954714179039, "groundspeed": 0.09442818909883499, "heading": 161, "throttle": 0, "type": "VFR_HUD"}}}
{"packet_index": 1109, "message": {"header": {"component_id": 1, "sequence": 83, "system_id": 1}, "message": {"altitude": 32970, "latitude": 634405552, "longitude": 103484873, "time_usec": 5486367383, "type": "GPS_GLOBAL_ORIGIN"}}}
{"packet_index": 1110, "message": {"header": {"component_id": 1, "sequence": 84, "system_id": 1}, "message": {"altitude": 6860, "approach_x": 0.0, "approach_y": 0.0, "approach_z": 0.0, "latitude": 634405553, "longitude": 103484876, "q": [null, null, null, null], "time_usec": 5486367388, "type": "HOME_POSITION", "x": 0.011131884530186653, "y": 0.01493206899613142, "z": 26.10999870300293}}}
{"packet_index": 1168, "message": {"header": {"component_id": 1, "sequence": 115, "system_id": 1}, "message": {"autopilot": {"type": "MAV_AUTOPILOT_ARDUPILOTMEGA"}, "base_mode": {"bits": 129}, "custom_mode": 4, "mavlink_version": 3, "mavtype": {"type": "MAV_TYPE_SURFACE_BOAT"}, "system_status": {"type": "MAV_STATE_STANDBY"}, "type": "HEARTBEAT"}}}
{"packet_index": 1191, "message": {"header": {"component_id": 1, "sequence": 129, "system_id": 1}, "message": {"airspeed": 0.08400000631809235, "alt": 16.3799991607666, "climb": 0.04068954661488533, "groundspeed": 0.08871457725763321, "heading": 161, "throttle": 0, "type": "VFR_HUD"}}}
{"packet_index": 1299, "message": {"header": {"component_id": 1, "sequence": 192, "system_id": 1}, "message": {"airspeed": 0.09800000488758087, "alt": 16.389999389648438, "climb": 0.05131799727678299, "groundspeed": 0.18036004900932312, "heading": 163, "throttle": 0, "type": "VFR_HUD"}}}
{"packet_index": 1405, "message": {"header": {"component_id": 1, "sequence": 243, "system_id": 1}, "message": {"airspeed": 0.15000000596046448, "alt": 16.279998779296875, "climb": -0.016207272186875343, "groundspeed": 0.1008257120847702, "heading": 163, "throttle": 0, "type": "VFR_HUD"}}}
{"packet_index": 1424, "message": {"header": {"component_id": 1, "sequence": 5, "system_id": 1}, "message": {"altitude": 32970, "latitude": 634405552, "longitude": 103484873, "time_usec": 5487367359, "type": "GPS_GLOBAL_ORIGIN"}}}
{"packet_index": 1425, "message": {"header": {"component_id": 1, "sequence": 6, "system_id": 1}, "message": {"altitude": 6860, "approach_x": 0.0, "approach_y": 0.0, "approach_z": 0.0, "latitude": 634405553, "longitude": 103484876, "q": [null, null, null, null], "time_usec": 5487367365, "type": "HOME_POSITION", "x": 0.011131884530186653, "y": 0.01493206899613142, "z": 26.10999870300293}}}
{"packet_index": 1484, "message": {"header": {"component_id": 1, "sequence": 37, "system_id": 1}, "message": {"autopilot": {"type": "MAV_AUTOPILOT_ARDUPILOTMEGA"}, "base_mode": {"bits": 129}, "custom_mode": 4, "mavlink_version": 3, "mavtype": {"type": "MAV_TYPE_SURFACE_BOAT"}, "system_status": {"type": "MAV_STATE_STANDBY"}, "type": "HEARTBEAT"}}}
{"packet_index": 1507, "message": {"header": {"component_id": 1, "sequence": 51, "system_id": 1}, "message": {"airspeed": 0.06200000271201134, "alt": 16.28999900817871, "climb": 0.15401950478553772, "groundspeed": 0.05925227701663971, "heading": 164, "throttle": 0, "type": "VFR_HUD"}}}
{"packet_index": 1614, "message": {"header": {"component_id": 1, "sequence": 114, "system_id": 1}, "message": {"airspeed": 0.03400000184774399, "alt": 16.3799991607666, "climb": 0.12050361186265945, "groundspeed": 0.0794721245765686, "heading": 164, "throttle": 0, "type": "VFR_HUD"}}}
{"packet_index": 1721, "message": {"header": {"component_id": 1, "sequence": 165, "system_id": 1}, "message": {"airspeed": 0.052000001072883606, "alt": 16.34000015258789, "climb": -0.021195104345679283, "groundspeed": 0.10938065499067307, "heading": 165, "throttle": 0, "type": "VFR_HUD"}}}
{"packet_index": 1744, "message": {"header": {"component_id": 1, "sequence": 186, "system_id": 1}, "message": {"altitude": 32970, "latitude": 634405552, "longitude": 103484873, "time_usec": 5488367395, "type": "GPS_GLOBAL_ORIGIN"}}}
{"packet_index": 1745, "message": {"header": {"component_id": 1, "sequence": 187, "system_id": 1}, "message": {"altitude": 6860, "approach_x": 0.0, "approach_y": 0.0, "approach_z": 0.0, "latitude": 634405553, "longitude": 103484876, "q": [null, null, null, null], "time_usec": 5488367400, "type": "HOME_POSITION", "x": 0.011131884530186653, "y": 0.01493206899613142, "z": 26.10999870300293}}}
{"packet_index": 1800, "message": {"header": {"component_id": 1, "sequence": 215, "system_id": 1}, "message": {"autopilot": {"type": "MAV_AUTOPILOT_ARDUPILOTMEGA"}, "base_mode": {"bits": 129}, "custom_mode": 4, "mavlink_version": 3, "mavtype": {"type": "MAV_TYPE_SURFACE_BOAT"}, "system_status": {"type": "MAV_STATE_STANDBY"}, "type": "HEARTBEAT"}}}
{"packet_index": 1823, "message": {"header": {"component_id": 1, "sequence": 229, "system_id": 1}, "message": {"airspeed": 0.1120000034570694, "alt": 16.31999969482422, "climb": 0.02349318191409111, "groundspeed": 0.0611291229724884, "heading": 166, "throttle": 0, "type": "VFR_HUD"}}}
{"packet_index": 1930, "message": {"header": {"component_id": 1, "sequence": 36, "system_id": 1}, "message": {"airspeed": 0.018000001087784767, "alt": 16.369998931884766, "climb": -0.09214913100004196, "groundspeed": 0.03511008247733116, "heading": 166, "throttle": 0, "type": "VFR_HUD"}}}
{"packet_index": 2037, "message": {"header": {"component_id": 1, "sequence": 89, "system_id": 1}, "message": {"airspeed": 0.01600000075995922, "alt": 16.369998931884766, "climb": -0.04411103203892708, "groundspeed": 0.0829954594373703, "heading": 167, "throttle": 0, "type": "VFR_HUD"}}}
{"packet_index": 2060, "message": {"header": {"component_id": 1, "sequence": 110, "system_id": 1}, "message": {"altitude": 32970, "latitude": 634405552, "longitude": 103484873, "time_usec": 5489367392, "type": "GPS_GLOBAL_ORIGIN"}}}
{"packet_index": 2061, "message": {"header": {"component_id": 1, "sequence": 111, "system_id": 1}, "message": {"altitude": 6860, "approach_x": 0.0, "approach_y": 0.0, "approach_z": 0.0, "latitude": 634405553, "longitude": 103484876, "q": [null, null, null, null], "time_usec": 5489367398, "type": "HOME_POSITION", "x": 0.011131884530186653, "y": 0.01493206899613142, "z": 26.10999870300293}}}
{"packet_index": 2119, "message": {"header": {"component_id": 1, "sequence": 142, "system_id": 1}, "message": {"autopilot": {"type": "MAV_AUTOPILOT_ARDUPILOTMEGA"}, "base_mode": {"bits": 129}, "custom_mode": 4, "mavlink_version": 3, "mavtype": {"type": "MAV_TYPE_SURFACE_BOAT"}, "system_status": {"type": "MAV_STATE_STANDBY"}, "type": "HEARTBEAT"}}}
{"packet_index": 2139, "message": {"header": {"component_id": 1, "sequence": 154, "system_id": 1}, "message": {"airspeed": 0.07500000298023224, "alt": 16.34000015258789, "climb": 0.017594752833247185, "groundspeed": 0.11583739519119263, "heading": 167, "throttle": 0, "type": "VFR_HUD"}}}
{"packet_index": 2246, "message": {"header": {"component_id": 1, "sequence": 214, "system_id": 1}, "message": {"airspeed": 0.08100000023841858, "alt": 16.350000381469727, "climb": 0.09860779345035553, "groundspeed": 0.08608979731798172, "heading": 168, "throttle": 0, "type": "VFR_HUD"}}}
{"packet_index": 2356, "message": {"header": {"component_id": 1, "sequence": 15, "system_id": 1}, "message": {"airspeed": 0.06200000271201134, "alt": 16.31999969482422, "climb": 0.031219681724905968, "groundspeed": 0.03564069792628288, "heading": 168, "throttle": 0, "type": "VFR_HUD"}}}
{"packet_index": 2375, "message": {"header": {"component_id": 1, "sequence": 33, "system_id": 1}, "message": {"altitude": 32970, "latitude": 634405552, "longitude": 103484873, "time_usec": 5490367364, "type": "GPS_GLOBAL_ORIGIN"}}}
{"packet_index": 2376, "message": {"header": {"component_id": 1, "sequence": 34, "system_id": 1}, "message": {"altitude": 6860, "approach_x": 0.0, "approach_y": 0.0, "approach_z": 0.0, "latitude": 634405553, "longitude": 103484876, "q": [null, null, null, null], "time_usec": 5490367371, "type": "HOME_POSITION", "x": 0.011131884530186653, "y": 0.01493206899613142, "z": 26.10999870300293}}}
{"packet_index": 2435, "message": {"header": {"component_id": 1, "sequence": 65, "system_id": 1}, "message": {"autopilot": {"type": "MAV_AUTOPILOT_ARDUPILOTMEGA"}, "base_mode": {"bits": 129}, "custom_mode": 4, "mavlink_version": 3, "mavtype": {"type": "MAV_TYPE_SURFACE_BOAT"}, "system_status": {"type": "MAV_STATE_STANDBY"}, "type": "HEARTBEAT"}}}
{"packet_index": 2458, "message": {"header": {"component_id": 1, "sequence": 87, "system_id": 1}, "message": {"airspeed": 0.06000000238418579, "alt": 16.369998931884766, "climb": 0.07547066360712051, "groundspeed": 0.05291156843304634, "heading": 168, "throttle": 0, "type": "VFR_HUD"}}}
{"packet_index": 2565, "message": {"header": {"component_id": 1, "sequence": 149, "system_id": 1}, "message": {"airspeed": 0.05300000309944153, "alt": 16.350000381469727, "climb": 0.007130958139896393, "groundspeed": 0.11090806126594543, "heading": 169, "throttle": 0, "type": "VFR_HUD"}}}
{"packet_index": 2653, "message": {"header": {"component_id": 1, "sequence": 184, "system_id": 1}, "message": {"airspeed": 0.07300000637769699, "alt": 16.299999237060547, "climb": 0.026890533044934273, "groundspeed": 0.09672950953245163, "heading": 168, "throttle": 0, "type": "VFR_HUD"}}}
{"packet_index": 2669, "message": {"header": {"component_id": 1, "sequence": 199, "system_id": 1}, "message": {"altitude": 32970, "latitude": 634405552, "longitude": 103484873, "time_usec": 5491367359, "type": "GPS_GLOBAL_ORIGIN"}}}
{"packet_index": 2670, "message": {"header": {"component_id": 1, "sequence": 200, "system_id": 1}, "message": {"altitude": 6860, "approach_x": 0.0, "approach_y": 0.0, "approach_z": 0.0, "latitude": 634405553, "longitude": 103484876, "q": [null, null, null, null], "time_usec": 5491367365, "type": "HOME_POSITION", "x": 0.011131884530186653, "y": 0.01493206899613142, "z": 26.10999870300293}}}
{"packet_index": 2720, "message": {"header": {"component_id": 1, "sequence": 224, "system_id": 1}, "message": {"autopilot": {"type": "MAV_AUTOPILOT_ARDUPILOTMEGA"}, "base_mode": {"bits": 129}, "custom_mode": 4, "mavlink_version": 3, "mavtype": {"type": "MAV_TYPE_SURFACE_BOAT"}, "system_status": {"type": "MAV_STATE_STANDBY"}, "type": "HEARTBEAT"}}}
{"packet_index": 2734, "message": {"header": {"component_id": 1, "sequence": 227, "system_id": 1}, "message": {"airspeed": 0.03500000014901161, "alt": 16.420000076293945, "climb": 0.04779629036784172, "groundspeed": 0.05917499586939812, "heading": 168, "throttle": 0, "type": "VFR_HUD"}}}
{"packet_index": 2815, "message": {"header": {"component_id": 1, "sequence": 251, "system_id": 1}, "message": {"airspeed": 0.07500000298023224, "alt": 16.43000030517578, "climb": -0.03490041568875313, "groundspeed": 0.042817965149879456, "heading": 168, "throttle": 0, "type": "VFR_HUD"}}}
{"packet_index": 2864, "message": {"header": {"component_id": 1, "sequence": 26, "system_id": 1}, "message": {"airspeed": 0.05000000074505806, "alt": 16.35999870300293, "climb": -0.07326777279376984, "groundspeed": 0.03329018875956535, "heading": 168, "throttle": 0, "type": "VFR_HUD"}}}
{"packet_index": 2889, "message": {"header": {"component_id": 1, "sequence": 33, "system_id": 1}, "message": {"airspeed": 0.05000000074505806, "alt": 16.34000015258789, "climb": -0.08285456895828247, "groundspeed": 0.056727755814790726, "heading": 167, "throttle": 0, "type": "VFR_HUD"}}}
{"packet_index": 2914, "message": {"header": {"component_id": 1, "sequence": 49, "system_id": 1}, "message": {"airspeed": 0.020000001415610313, "alt": 16.350000381469727, "climb": -0.08827760815620422, "groundspeed": 0.06827007979154587, "heading": 167, "throttle": 0, "type": "VFR_HUD"}}}
{"packet_index": 2916, "message": {"header": {"component_id": 1, "sequence": 52, "system_id": 1}, "message": {"altitude": 32970, "latitude": 634405552, "longitude": 103484873, "time_usec": 5492367469, "type": "GPS_GLOBAL_ORIGIN"}}}
{"packet_index": 2917, "message": {"header": {"component_id": 1, "sequence": 53, "system_id": 1}, "message": {"altitude": 6860, "approach_x": 0.0, "approach_y": 0.0, "approach_z": 0.0, "latitude": 634405553, "longitude": 103484876, "q": [null, null, null, null], "time_usec": 5492367483, "type": "HOME_POSITION", "x": 0.011131884530186653, "y": 0.01493206899613142, "z": 26.10999870300293}}}
{"packet_index": 2941, "message": {"header": {"component_id": 1, "sequence": 68, "system_id": 1}, "message": {"airspeed": 0.020000001415610313, "alt": 16.35999870300293, "climb": -0.08178813755512238, "groundspeed": 0.06371020525693893, "heading": 167, "throttle": 0, "type": "VFR_HUD"}}}
{"packet_index": 2964, "message": {"header": {"component_id": 1, "sequence": 73, "system_id": 1}, "message": {"airspeed": 0.06000000238418579, "alt": 16.3799991607666, "climb": -0.0575079545378685, "groundspeed": 0.050599485635757446, "heading": 167, "throttle": 0, "type": "VFR_HUD"}}}
{"packet_index": 2966, "message": {"header": {"component_id": 1, "sequence": 76, "system_id": 1}, "message": {"autopilot": {"type": "MAV_AUTOPILOT_ARDUPILOTMEGA"}, "base_mode": {"bits": 129}, "custom_mode": 4, "mavlink_version": 3, "mavtype": {"type": "MAV_TYPE_SURFACE_BOAT"}, "system_status": {"type": "MAV_STATE_STANDBY"}, "type": "HEARTBEAT"}}}
{"packet_index": 2991, "message": {"header": {"component_id": 1, "sequence": 91, "system_id": 1}, "message": {"airspeed": 0.06000000238418579, "alt": 16.399999618530273, "climb": -0.01967626065015793, "groundspeed": 0.05246499553322792, "heading": 167, "throttle": 0, "type": "VFR_HUD"}}}
{"packet_index": 3015, "message": {"header": {"component_id": 1, "sequence": 96, "system_id": 1}, "message": {"airspeed": 0.04400000348687172, "alt": 16.399999618530273, "climb": 0.025073712691664696, "groundspeed": 0.07595501840114594, "heading": 167, "throttle": 0, "type": "VFR_HUD"}}}
{"packet_index": 3039, "message": {"header": {"component_id": 1, "sequence": 101, "system_id": 1}, "message": {"airspeed": 0.04400000348687172, "alt": 16.40999984741211, "climb": 0.06280747056007385, "groundspeed": 0.10721646249294281, "heading": 167, "throttle": 0, "type": "VFR_HUD"}}}
{"packet_index": 3067, "message": {"header": {"component_id": 1, "sequence": 128, "system_id": 1}, "message": {"airspeed": 0.06599999964237213, "alt": 16.40999984741211, "climb": 0.07386742532253265, "groundspeed": 0.13784141838550568, "heading": 167, "throttle": 0, "type": "VFR_HUD"}}}
{"packet_index": 3089, "message": {"header": {"component_id": 1, "sequence": 133, "system_id": 1}, "message": {"airspeed": 0.06599999964237213, "alt": 16.40999984741211, "climb": 0.047005899250507355, "groundspeed": 0.15992426872253418, "heading": 167, "throttle": 0, "type": "VFR_HUD"}}}
{"packet_index": 3113, "message": {"header": {"component_id": 1, "sequence": 138, "system_id": 1}, "message": {"airspeed": 0.0690000057220459, "alt": 16.399999618530273, "climb": -0.0036260385531932116, "groundspeed": 0.16268259286880493, "heading": 167, "throttle": 0, "type": "VFR_HUD"}}}
{"packet_index": 3137, "message": {"header": {"component_id": 1, "sequence": 143, "system_id": 1}, "message": {"airspeed": 0.0690000057220459, "alt": 16.389999389648438, "climb": -0.05141153559088707, "groundspeed": 0.14573106169700623, "heading": 167, "throttle": 0, "type": "VFR_HUD"}}}
{"packet_index": 3163, "message": {"header": {"component_id": 1, "sequence": 161, "system_id": 1}, "message": {"airspeed": 0.13300000131130219, "alt": 16.3799991607666, "climb": -0.06753028929233551, "groundspeed": 0.1172197163105011, "heading": 167, "throttle": 0, "type": "VFR_HUD"}}}
{"packet_index": 3166, "message": {"header": {"component_id": 1, "sequence": 164, "system_id": 1}, "message": {"altitude": 32970, "latitude": 634405552, "longitude": 103484873, "time_usec": 5493367470, "type": "GPS_GLOBAL_ORIGIN"}}}
{"packet_index": 3167, "message": {"header": {"component_id": 1, "sequence": 165, "system_id": 1}, "message": {"altitude": 6860, "approach_x": 0.0, "approach_y": 0.0, "approach_z": 0.0, "latitude": 634405553, "longitude": 103484876, "q": [null, null, null, null], "time_usec": 5493367478, "type": "HOME_POSITION", "x": 0.011131884530186653, "y": 0.01493206899613142, "z": 26.10999870300293}}}
{"packet_index": 3190, "message": {"header": {"component_id": 1, "sequence": 180, "system_id": 1}, "message": {"airspeed": 0.13300000131130219, "alt": 16.369998931884766, "climb": -0.03891151025891304, "groundspeed": 0.08749189227819443, "heading": 167, "throttle": 0, "type": "VFR_HUD"}}}
{"packet_index": 3213, "message": {"header": {"component_id": 1, "sequence": 185, "system_id": 1}, "message": {"airspeed": 0.12400000542402267, "alt": 16.369998931884766, "climb": 0.02388657256960869, "groundspeed": 0.062770776450634, "heading": 167, "throttle": 0, "type": "VFR_HUD"}}}
{"packet_index": 3215, "message": {"header": {"component_id": 1, "sequence": 188, "system_id": 1}, "message": {"autopilot": {"type": "MAV_AUTOPILOT_ARDUPILOTMEGA"}, "base_mode": {"bits": 129}, "custom_mode": 4, "mavlink_version": 3, "mavtype": {"type": "MAV_TYPE_SURFACE_BOAT"}, "system_status": {"type": "MAV_STATE_STANDBY"}, "type": "HEARTBEAT"}}}
{"packet_index": 3240, "message": {"header": {"component_id": 1, "sequence": 203, "system_id": 1}, "message": {"airspeed": 0.12400000542402267, "alt": 16.3799991607666, "climb": 0.09499344229698181, "groundspeed": 0.04802380129694939, "heading": 167, "throttle": 0, "type": "VFR_HUD"}}}
{"packet_index": 3264, "message": {"header": {"component_id": 1, "sequence": 208, "system_id": 1}, "message": {"airspeed": 0.04000000283122063, "alt": 16.389999389648438, "climb": 0.14756277203559875, "groundspeed": 0.042955558747053146, "heading": 166, "throttle": 0, "type": "VFR_HUD"}}}
{"packet_index": 3288, "message": {"header": {"component_id": 1, "sequence": 213, "system_id": 1}, "message": {"airspeed": 0.04000000283122063, "alt": 16.389999389648438, "climb": 0.16945597529411316, "groundspeed": 0.03802260756492615, "heading": 166, "throttle": 0, "type": "VFR_HUD"}}}
{"packet_index": 3316, "message": {"header": {"component_id": 1, "sequence": 240, "system_id": 1}, "message": {"airspeed": 0.036000002175569534, "alt": 16.399999618530273, "climb": 0.16024374961853027, "groundspeed": 0.0281188003718853, "heading": 166, "throttle": 0, "type": "VFR_HUD"}}}
{"packet_index": 3338, "message": {"header": {"component_id": 1, "sequence": 245, "system_id": 1}, "message": {"airspeed": 0.036000002175569534, "alt": 16.420000076293945, "climb": 0.130270317196846, "groundspeed": 0.01518732588738203, "heading": 166, "throttle": 0, "type": "VFR_HUD"}}}
{"packet_index": 3362, "message": {"header": {"component_id": 1, "sequence": 250, "system_id": 1}, "message": {"airspeed": 0.04100000113248825, "alt": 16.43000030517578, "climb": 0.09271673113107681, "groundspeed": 0.023476801812648773, "heading": 166, "throttle": 0, "type": "VFR_HUD"}}}
{"packet_index": 3386, "message": {"header": {"component_id": 1, "sequence": 255, "system_id": 1}, "message": {"airspeed": 0.04100000113248825, "alt": 16.44999885559082, "climb": 0.060787372291088104, "groundspeed": 0.04262635111808777, "heading": 166, "throttle": 0, "type": "VFR_HUD"}}}
{"packet_index": 3412, "message": {"header": {"component_id": 1, "sequence": 17, "system_id": 1}, "message": {"airspeed": 0.052000001072883606, "alt": 16.469999313354492, "climb": 0.041729237884283066, "groundspeed": 0.056907132267951965, "heading": 166, "throttle": 0, "type": "VFR_HUD"}}}
{"packet_index": 3414, "message": {"header": {"component_id": 1, "sequence": 20, "system_id": 1}, "message": {"altitude": 32970, "latitude": 634405552, "longitude": 103484873, "time_usec": 5494367374, "type": "GPS_GLOBAL_ORIGIN"}}}
{"packet_index": 3415, "message": {"header": {"component_id": 1, "sequence": 21, "system_id": 1}, "message": {"altitude": 6860, "approach_x": 0.0, "approach_y": 0.0, "approach_z": 0.0, "latitude": 634405553, "longitude": 103484876, "q": [null, null, null, null], "time_usec": 5494367380, "type": "HOME_POSITION", "x": 0.011131884530186653, "y": 0.01493206899613142, "z": 26.10999870300293}}}
{"packet_index": 3439, "message": {"header": {"component_id": 1, "sequence": 36, "system_id": 1}, "message": {"airspeed": 0.052000001072883606, "alt": 16.479999542236328, "climb": 0.03476250171661377, "groundspeed": 0.06996909528970718, "heading": 166, "throttle": 0, "type": "VFR_HUD"}}}
{"packet_index": 3462, "message": {"header": {"component_id": 1, "sequence": 41, "system_id": 1}, "message": {"airspeed": 0.05400000140070915, "alt": 16.479999542236328, "climb": 0.03312862664461136, "groundspeed": 0.08398441970348358, "heading": 166, "throttle": 0, "type": "VFR_HUD"}}}
{"packet_index": 3464, "message": {"header": {"component_id": 1, "sequence": 44, "system_id": 1}, "message": {"autopilot": {"type": "MAV_AUTOPILOT_ARDUPILOTMEGA"}, "base_mode": {"bits": 129}, "custom_mode": 4, "mavlink_version": 3, "mavtype": {"type": "MAV_TYPE_SURFACE_BOAT"}, "system_status": {"type": "MAV_STATE_STANDBY"}, "type": "HEARTBEAT"}}}
{"packet_index": 3489, "message": {"header": {"component_id": 1, "sequence": 58, "system_id": 1}, "message": {"airspeed": 0.05400000140070915, "alt": 16.469999313354492, "climb": 0.030087992548942566, "groundspeed": 0.09496352821588516, "heading": 166, "throttle": 0, "type": "VFR_HUD"}}}
{"packet_index": 3513, "message": {"header": {"component_id": 1, "sequence": 63, "system_id": 1}, "message": {"airspeed": 0.09100000560283661, "alt": 16.459999084472656, "climb": 0.02161276340484619, "groundspeed": 0.09693773090839386, "heading": 166, "throttle": 0, "type": "VFR_HUD"}}}
{"packet_index": 3537, "message": {"header": {"component_id": 1, "sequence": 68, "system_id": 1}, "message": {"airspeed": 0.09100000560283661, "alt": 16.44999885559082, "climb": 0.012573103420436382, "groundspeed": 0.0892150029540062, "heading": 166, "throttle": 0, "type": "VFR_HUD"}}}
{"packet_index": 3565, "message": {"header": {"component_id": 1, "sequence": 95, "system_id": 1}, "message": {"airspeed": 0.07400000095367432, "alt": 16.44999885559082, "climb": 0.004233460407704115, "groundspeed": 0.07505852729082108, "heading": 166, "throttle": 0, "type": "VFR_HUD"}}}
{"packet_index": 3588, "message": {"header": {"component_id": 1, "sequence": 100, "system_id": 1}, "message": {"airspeed": 0.07400000095367432, "alt": 16.459999084472656, "climb": -0.00480020884424448, "groundspeed": 0.06182165816426277, "heading": 166, "throttle": 0, "type": "VFR_HUD"}}}
{"packet_index": 3611, "message": {"header": {"component_id": 1, "sequence": 105, "system_id": 1}, "message": {"airspeed": 0.032999999821186066, "alt": 16.469999313354492, "climb": -0.015887802466750145, "groundspeed": 0.05207289382815361, "heading": 166, "throttle": 0, "type": "VFR_HUD"}}}
{"packet_index": 3635, "message": {"header": {"component_id": 1, "sequence": 112, "system_id": 1}, "message": {"airspeed": 0.032999999821186066, "alt": 16.479999542236328, "climb": -0.028143208473920822, "groundspeed": 0.04376942291855812, "heading": 166, "throttle": 0, "type": "VFR_HUD"}}}
{"packet_index": 3661, "message": {"header": {"component_id": 1, "sequence": 128, "system_id": 1}, "message": {"airspeed": 0.029000001028180122, "alt": 16.489999771118164, "climb": -0.03572569414973259, "groundspeed": 0.03364825248718262, "heading": 166, "throttle": 0, "type": "VFR_HUD"}}}
{"packet_index": 3663, "message": {"header": {"component_id": 1, "sequence": 131, "system_id": 1}, "message": {"altitude": 32970, "latitude": 634405552, "longitude": 103484873, "time_usec": 5495367371, "type": "GPS_GLOBAL_ORIGIN"}}}
{"packet_index": 3664, "message": {"header": {"component_id": 1, "sequence": 132, "system_id": 1}, "message": {"altitude": 6860, "approach_x": 0.0, "approach_y": 0.0, "approach_z": 0.0, "latitude": 634405553, "longitude": 103484876, "q": [null, null, null, null], "time_usec": 5495367378, "type": "HOME_POSITION", "x": 0.011131884530186653, "y": 0.01493206899613142, "z": 26.10999870300293}}}
{"packet_index": 3688, "message": {"header": {"component_id": 1, "sequence": 147, "system_id": 1}, "message": {"airspeed": 0.029000001028180122, "alt": 16.479999542236328, "climb": -0.036213118582963943, "groundspeed": 0.019340861588716507, "heading": 166, "throttle": 0, "type": "VFR_HUD"}}}
{"packet_index": 3711, "message": {"header": {"component_id": 1, "sequence": 152, "system_id": 1}, "message": {"airspeed": 0.029000001028180122, "alt": 16.469999313354492, "climb": -0.028431158512830734, "groundspeed": 0.01593037322163582, "heading": 165, "throttle": 0, "type": "VFR_HUD"}}}
{"packet_index": 3713, "message": {"header": {"component_id": 1, "sequence": 155, "system_id": 1}, "message": {"autopilot": {"type": "MAV_AUTOPILOT_ARDUPILOTMEGA"}, "base_mode": {"bits": 129}, "custom_mode": 4, "mavlink_version": 3, "mavtype": {"type": "MAV_TYPE_SURFACE_BOAT"}, "system_status": {"type": "MAV_STATE_STANDBY"}, "type": "HEARTBEAT"}}}
{"packet_index": 3738, "message": {"header": {"component_id": 1, "sequence": 169, "system_id": 1}, "message": {"airspeed": 0.029000001028180122, "alt": 16.44999885559082, "climb": -0.015941262245178223, "groundspeed": 0.04426225274801254, "heading": 165, "throttle": 0, "type": "VFR_HUD"}}}
{"packet_index": 3762, "message": {"header": {"component_id": 1, "sequence": 174, "system_id": 1}, "message": {"airspeed": 0.021000001579523087, "alt": 16.44999885559082, "climb": -0.004076153505593538, "groundspeed": 0.07337716966867447, "heading": 165, "throttle": 0, "type": "VFR_HUD"}}}
{"packet_index": 3786, "message": {"header": {"component_id": 1, "sequence": 179, "system_id": 1}, "message": {"airspeed": 0.021000001579523087, "alt": 16.44999885559082, "climb": 0.01014037523418665, "groundspeed": 0.09361225366592407, "heading": 165, "throttle": 0, "type": "VFR_HUD"}}}
{"packet_index": 3814, "message": {"header": {"component_id": 1, "sequence": 206, "system_id": 1}, "message": {"airspeed": 0.06200000271201134, "alt": 16.459999084472656, "climb": 0.025604700669646263, "groundspeed": 0.1017829105257988, "heading": 165, "throttle": 0, "type": "VFR_HUD"}}}
{"packet_index": 3836, "message": {"header": {"component_id": 1, "sequence": 211, "system_id": 1}, "message": {"airspeed": 0.06200000271201134, "alt": 16.479999542236328, "climb": 0.03826379030942917, "groundspeed": 0.10119953006505966, "heading": 165, "throttle": 0, "type": "VFR_HUD"}}}
{"packet_index": 3860, "message": {"header": {"component_id": 1, "sequence": 216, "system_id": 1}, "message": {"airspeed": 0.0690000057220459, "alt": 16.479999542236328, "climb": 0.03674042224884033, "groundspeed": 0.10011295974254608, "heading": 164, "throttle": 0, "type": "VFR_HUD"}}}
{"packet_index": 3884, "message": {"header": {"component_id": 1, "sequence": 221, "system_id": 1}, "message": {"airspeed": 0.0690000057220459, "alt": 16.479999542236328, "climb": 0.017582403495907784, "groundspeed": 0.10503561049699783, "heading": 164, "throttle": 0, "type": "VFR_HUD"}}}
{"packet_index": 3910, "message": {"header": {"component_id": 1, "sequence": 239, "system_id": 1}, "message": {"airspeed": 0.07200000435113907, "alt": 16.469999313354492, "climb": -0.012643484398722649, "groundspeed": 0.11566031724214554, "heading": 164, "throttle": 0, "type": "VFR_HUD"}}}
{"packet_index": 3912, "message": {"header": {"component_id": 1, "sequence": 242, "system_id": 1}, "message": {"altitude": 32970, "latitude": 634405552, "longitude": 103484873, "time_usec": 5496367371, "type": "GPS_GLOBAL_ORIGIN"}}}
{"packet_index": 3913, "message": {"header": {"component_id": 1, "sequence": 243, "system_id": 1}, "message": {"altitude": 6860, "approach_x": 0.0, "approach_y": 0.0, "approach_z": 0.0, "latitude": 634405553, "longitude": 103484876, "q": [null, null, null, null], "time_usec": 5496367378, "type": "HOME_POSITION", "x": 0.011131884530186653, "y": 0.01493206899613142, "z": 26.10999870300293}}}
{"packet_index": 3937, "message": {"header": {"component_id": 1, "sequence": 2, "system_id": 1}, "message": {"airspeed": 0.07200000435113907, "alt": 16.44999885559082, "climb": -0.042878493666648865, "groundspeed": 0.12732258439064026, "heading": 164, "throttle": 0, "type": "VFR_HUD"}}}
{"packet_index": 3960, "message": {"header": {"component_id": 1, "sequence": 7, "system_id": 1}, "message": {"airspeed": 0.11100000888109207, "alt": 16.43000030517578, "climb": -0.06284958124160767, "groundspeed": 0.13355591893196106, "heading": 164, "throttle": 0, "type": "VFR_HUD"}}}
{"packet_index": 3962, "message": {"header": {"component_id": 1, "sequence": 10, "system_id": 1}, "message": {"autopilot": {"type": "MAV_AUTOPILOT_ARDUPILOTMEGA"}, "base_mode": {"bits": 129}, "custom_mode": 4, "mavlink_version": 3, "mavtype": {"type": "MAV_TYPE_SURFACE_BOAT"}, "system_status": {"type": "MAV_STATE_STANDBY"}, "type": "HEARTBEAT"}}}
{"packet_index": 3987, "message": {"header": {"component_id": 1, "sequence": 24, "system_id": 1}, "message": {"airspeed": 0.11100000888109207, "alt": 16.40999984741211, "climb": -0.06827545911073685, "groundspeed": 0.13036198914051056, "heading": 163, "throttle": 0, "type": "VFR_HUD"}}}
{"packet_index": 4011, "message": {"header": {"component_id": 1, "sequence": 29, "system_id": 1}, "message": {"airspeed": 0.11900000274181366, "alt": 16.389999389648438, "climb": -0.05434088036417961, "groundspeed": 0.11870226263999939, "heading": 163, "throttle": 0, "type": "VFR_HUD"}}}
{"packet_index": 4036, "message": {"header": {"component_id": 1, "sequence": 34, "system_id": 1}, "message": {"airspeed": 0.11900000274181366, "alt": 16.3799991607666, "climb": -0.02206326276063919, "groundspeed": 0.10479560494422913, "heading": 163, "throttle": 0, "type": "VFR_HUD"}}}
{"packet_index": 4063, "message": {"header": {"component_id": 1, "sequence": 61, "system_id": 1}, "message": {"airspeed": 0.11600000411272049, "alt": 16.369998931884766, "climb": 0.023294225335121155, "groundspeed": 0.09675662219524384, "heading": 163, "throttle": 0, "type": "VFR_HUD"}}}
{"packet_index": 4085, "message": {"header": {"component_id": 1, "sequence": 66, "system_id": 1}, "message": {"airspeed": 0.11600000411272049, "alt": 16.369998931884766, "climb": 0.07191651314496994, "groundspeed": 0.09585259109735489, "heading": 163, "throttle": 0, "type": "VFR_HUD"}}}
{"packet_index": 4109, "message": {"header": {"component_id": 1, "sequence": 71, "system_id": 1}, "message": {"airspeed": 0.06300000101327896, "alt": 16.3799991607666, "climb": 0.1105261966586113, "groundspeed": 0.09583164006471634, "heading": 163, "throttle": 0, "type": "VFR_HUD"}}}
{"packet_index": 4134, "message": {"header": {"component_id": 1, "sequence": 76, "system_id": 1}, "message": {"airspeed": 0.06300000101327896, "alt": 16.389999389648438, "climb": 0.12985201179981232, "groundspeed": 0.08567070960998535, "heading": 163, "throttle": 0, "type": "VFR_HUD"}}}
{"packet_index": 4159, "message": {"header": {"component_id": 1, "sequence": 94, "system_id": 1}, "message": {"airspeed": 0.06400000303983688, "alt": 16.389999389648438, "climb": 0.12477393448352814, "groundspeed": 0.060894377529621124, "heading": 163, "throttle": 0, "type": "VFR_HUD"}}}
{"packet_index": 4161, "message": {"header": {"component_id": 1, "sequence": 97, "system_id": 1}, "message": {"altitude": 32970, "latitude": 634405552, "longitude": 103484873, "time_usec": 5497367361, "type": "GPS_GLOBAL_ORIGIN"}}}
{"packet_index": 4162, "message": {"header": {"component_id": 1, "sequence": 98, "system_id": 1}, "message": {"altitude": 6860, "approach_x": 0.0, "approach_y": 0.0, "approach_z": 0.0, "latitude": 634405553, "longitude": 103484876, "q": [null, null, null, null], "time_usec": 5497367367, "type": "HOME_POSITION", "x": 0.011131884530186653, "y": 0.01493206899613142, "z": 26.10999870300293}}}
{"packet_index": 4186, "message": {"header": {"component_id": 1, "sequence": 113, "system_id": 1}, "message": {"airspeed": 0.06400000303983688, "alt": 16.389999389648438, "climb": 0.10410800576210022, "groundspeed": 0.033028554171323776, "heading": 162, "throttle": 0, "type": "VFR_HUD"}}}
{"packet_index": 4209, "message": {"header": {"component_id": 1, "sequence": 119, "system_id": 1}, "message": {"airspeed": 0.032999999821186066, "alt": 16.389999389648438, "climb": 0.08495339751243591, "groundspeed": 0.03805483877658844, "heading": 162, "throttle": 0, "type": "VFR_HUD"}}}
{"packet_index": 4211, "message": {"header": {"component_id": 1, "sequence": 122, "system_id": 1}, "message": {"autopilot": {"type": "MAV_AUTOPILOT_ARDUPILOTMEGA"}, "base_mode": {"bits": 129}, "custom_mode": 4, "mavlink_version": 3, "mavtype": {"type": "MAV_TYPE_SURFACE_BOAT"}, "system_status": {"type": "MAV_STATE_STANDBY"}, "type": "HEARTBEAT"}}}
{"packet_index": 4236, "message": {"header": {"component_id": 1, "sequence": 136, "system_id": 1}, "message": {"airspeed": 0.032999999821186066, "alt": 16.3799991607666, "climb": 0.08204789459705353, "groundspeed": 0.05919276550412178, "heading": 162, "throttle": 0, "type": "VFR_HUD"}}}
{"packet_index": 4260, "message": {"header": {"component_id": 1, "sequence": 141, "system_id": 1}, "message": {"airspeed": 0.05900000408291817, "alt": 16.369998931884766, "climb": 0.09568776190280914, "groundspeed": 0.06990554928779602, "heading": 162, "throttle": 0, "type": "VFR_HUD"}}}
{"packet_index": 4284, "message": {"header": {"component_id": 1, "sequence": 146, "system_id": 1}, "message": {"airspeed": 0.05900000408291817, "alt": 16.35999870300293, "climb": 0.11336170881986618, "groundspeed": 0.07284567505121231, "heading": 162, "throttle": 0, "type": "VFR_HUD"}}}
{"packet_index": 4312, "message": {"header": {"component_id": 1, "sequence": 173, "system_id": 1}, "message": {"airspeed": 0.0860000029206276, "alt": 16.34000015258789, "climb": 0.1171790063381195, "groundspeed": 0.07511203736066818, "heading": 162, "throttle": 0, "type": "VFR_HUD"}}}
{"packet_index": 4334, "message": {"header": {"component_id": 1, "sequence": 178, "system_id": 1}, "message": {"airspeed": 0.0860000029206276, "alt": 16.34000015258789, "climb": 0.09693383425474167, "groundspeed": 0.07756688445806503, "heading": 162, "throttle": 0, "type": "VFR_HUD"}}}
{"packet_index": 4358, "message": {"header": {"component_id": 1, "sequence": 183, "system_id": 1}, "message": {"airspeed": 0.09700000286102295, "alt": 16.34000015258789, "climb": 0.046843521296978, "groundspeed": 0.0744461715221405, "heading": 161, "throttle": 0, "type": "VFR_HUD"}}}
{"packet_index": 4383, "message": {"header": {"component_id": 1, "sequence": 190, "system_id": 1}, "message": {"airspeed": 0.09700000286102295, "alt": 16.350000381469727, "climb": -0.029726114124059677, "groundspeed": 0.061283789575099945, "heading": 161, "throttle": 0, "type": "VFR_HUD"}}}
{"packet_index": 4408, "message": {"header": {"component_id": 1, "sequence": 206, "system_id": 1}, "message": {"airspeed": 0.07900000363588333, "alt": 16.35999870300293, "climb": -0.11872773617506027, "groundspeed": 0.040774162858724594, "heading": 161, "throttle": 0, "type": "VFR_HUD"}}}
{"packet_index": 4410, "message": {"header": {"component_id": 1, "sequence": 209, "system_id": 1}, "message": {"altitude": 32970, "latitude": 634405552, "longitude": 103484873, "time_usec": 5498367374, "type": "GPS_GLOBAL_ORIGIN"}}}
{"packet_index": 4412, "message": {"header": {"component_id": 1, "sequence": 210, "system_id": 1}, "message": {"altitude": 6860, "approach_x": 0.0, "approach_y": 0.0, "approach_z": 0.0, "latitude": 634405553, "longitude": 103484876, "q": [null, null, null, null], "time_usec": 5498367380, "type": "HOME_POSITION", "x": 0.011131884530186653, "y": 0.01493206899613142, "z": 26.10999870300293}}}
{"packet_index": 4435, "message": {"header": {"component_id": 1, "sequence": 225, "system_id": 1}, "message": {"airspeed": 0.07900000363588333, "alt": 16.369998931884766, "climb": -0.19727912545204163, "groundspeed": 0.023050306364893913, "heading": 161, "throttle": 0, "type": "VFR_HUD"}}}
{"packet_index": 4458, "message": {"header": {"component_id": 1, "sequence": 230, "system_id": 1}, "message": {"airspeed": 0.020000001415610313, "alt": 16.369998931884766, "climb": -0.23479461669921875, "groundspeed": 0.03181683272123337, "heading": 161, "throttle": 0, "type": "VFR_HUD"}}}
{"packet_index": 4460, "message": {"header": {"component_id": 1, "sequence": 234, "system_id": 1}, "message": {"autopilot": {"type": "MAV_AUTOPILOT_ARDUPILOTMEGA"}, "base_mode": {"bits": 129}, "custom_mode": 4, "mavlink_version": 3, "mavtype": {"type": "MAV_TYPE_SURFACE_BOAT"}, "system_status": {"type": "MAV_STATE_STANDBY"}, "type": "HEARTBEAT"}}}
{"packet_index": 4485, "message": {"header": {"component_id": 1, "sequence": 248, "system_id": 1}, "message": {"airspeed": 0.020000001415610313, "alt": 16.35999870300293, "climb": -0.21522796154022217, "groundspeed": 0.0501493364572525, "heading": 160, "throttle": 0, "type": "VFR_HUD"}}}
{"packet_index": 4509, "message": {"header": {"component_id": 1, "sequence": 253, "system_id": 1}, "message": {"airspeed": 0.04100000113248825, "alt": 16.329999923706055, "climb": -0.14430685341358185, "groundspeed": 0.06318729370832443, "heading": 160, "throttle": 0, "type": "VFR_HUD"}}}
{"packet_index": 4533, "message": {"header": {"component_id": 1, "sequence": 2, "system_id": 1}, "message": {"airspeed": 0.04100000113248825, "alt": 16.299999237060547, "climb": -0.05816937983036041, "groundspeed": 0.07073467969894409, "heading": 160, "throttle": 0, "type": "VFR_HUD"}}}
{"packet_index": 4561, "message": {"header": {"component_id": 1, "sequence": 29, "system_id": 1}, "message": {"airspeed": 0.0650000050663948, "alt": 16.260000228881836, "climb": 0.0008194002439267933, "groundspeed": 0.08060933649539948, "heading": 160, "throttle": 0, "type": "VFR_HUD"}}}
{"packet_index": 4583, "message": {"header": {"component_id": 1, "sequence": 34, "system_id": 1}, "message": {"airspeed": 0.0650000050663948, "alt": 16.229999542236328, "climb": 0.014300359413027763, "groundspeed": 0.10022390633821487, "heading": 160, "throttle": 0, "type": "VFR_HUD"}}}
{"packet_index": 4607, "message": {"header": {"component_id": 1, "sequence": 39, "system_id": 1}, "message": {"airspeed": 0.05300000309944153, "alt": 16.209999084472656, "climb": -0.008489592932164669, "groundspeed": 0.12131786346435547, "heading": 160, "throttle": 0, "type": "VFR_HUD"}}}
{"packet_index": 4631, "message": {"header": {"component_id": 1, "sequence": 44, "system_id": 1}, "message": {"airspeed": 0.05300000309944153, "alt": 16.219999313354492, "climb": -0.037572454661130905, "groundspeed": 0.1294626146554947, "heading": 159, "throttle": 0, "type": "VFR_HUD"}}}
{"packet_index": 4657, "message": {"header": {"component_id": 1, "sequence": 62, "system_id": 1}, "message": {"airspeed": 0.11000000685453415, "alt": 16.260000228881836, "climb": -0.053247421979904175, "groundspeed": 0.1267784833908081, "heading": 159, "throttle": 0, "type": "VFR_HUD"}}}
{"packet_index": 4659, "message": {"header": {"component_id": 1, "sequence": 65, "system_id": 1}, "message": {"altitude": 32970, "latitude": 634405552, "longitude": 103484873, "time_usec": 5499367356, "type": "GPS_GLOBAL_ORIGIN"}}}
{"packet_index": 4660, "message": {"header": {"component_id": 1, "sequence": 66, "system_id": 1}, "message": {"altitude": 6860, "approach_x": 0.0, "approach_y": 0.0, "approach_z": 0.0, "latitude": 634405553, "longitude": 103484876, "q": [null, null, null, null], "time_usec": 5499367362, "type": "HOME_POSITION", "x": 0.011131884530186653, "y": 0.01493206899613142, "z": 26.10999870300293}}}
{"packet_index": 4684, "message": {"header": {"component_id": 1, "sequence": 81, "system_id": 1}, "message": {"airspeed": 0.11000000685453415, "alt": 16.309999465942383, "climb": -0.04150747135281563, "groundspeed": 0.11633794754743576, "heading": 160, "throttle": 0, "type": "VFR_HUD"}}}
{"packet_index": 4707, "message": {"header": {"component_id": 1, "sequence": 86, "system_id": 1}, "message": {"airspeed": 0.1420000046491623, "alt": 16.34000015258789, "climb": -0.006954406388103962, "groundspeed": 0.10193206369876862, "heading": 160, "throttle": 0, "type": "VFR_HUD"}}}
{"packet_index": 4709, "message": {"header": {"component_id": 1, "sequence": 89, "system_id": 1}, "message": {"autopilot": {"type": "MAV_AUTOPILOT_ARDUPILOTMEGA"}, "base_mode": {"bits": 129}, "custom_mode": 4, "mavlink_version": 3, "mavtype": {"type": "MAV_TYPE_SURFACE_BOAT"}, "system_status": {"type": "MAV_STATE_STANDBY"}, "type": "HEARTBEAT"}}}
{"packet_index": 4734, "message": {"header": {"component_id": 1, "sequence": 103, "system_id": 1}, "message": {"airspeed": 0.1420000046491623, "alt": 16.350000381469727, "climb": 0.029316624626517296, "groundspeed": 0.08901143819093704, "heading": 160, "throttle": 0, "type": "VFR_HUD"}}}
{"packet_index": 4759, "message": {"header": {"component_id": 1, "sequence": 108, "system_id": 1}, "message": {"airspeed": 0.0820000022649765, "alt": 16.309999465942383, "climb": 0.050209082663059235, "groundspeed": 0.0845169648528099, "heading": 160, "throttle": 0, "type": "VFR_HUD"}}}
{"packet_index": 4783, "message": {"header": {"component_id": 1, "sequence": 113, "system_id": 1}, "message": {"airspeed": 0.0820000022649765, "alt": 16.239999771118164, "climb": 0.04812689870595932, "groundspeed": 0.09139050543308258, "heading": 160, "throttle": 0, "type": "VFR_HUD"}}}
{"packet_index": 4810, "message": {"header": {"component_id": 1, "sequence": 140, "system_id": 1}, "message": {"airspeed": 0.013000000268220901, "alt": 16.170000076293945, "climb": 0.02834719605743885, "groundspeed": 0.0979757085442543, "heading": 160, "throttle": 0, "type": "VFR_HUD"}}}
{"packet_index": 4832, "message": {"header": {"component_id": 1, "sequence": 145, "system_id": 1}, "message": {"airspeed": 0.013000000268220901, "alt": 16.100000381469727, "climb": -0.0007516961195506155, "groundspeed": 0.09980528056621552, "heading": 160, "throttle": 0, "type": "VFR_HUD"}}}
{"packet_index": 4856, "message": {"header": {"component_id": 1, "sequence": 150, "system_id": 1}, "message": {"airspeed": 0.0560000017285347, "alt": 16.049999237060547, "climb": -0.01762290857732296, "groundspeed": 0.09037566930055618, "heading": 159, "throttle": 0, "type": "VFR_HUD"}}}
{"packet_index": 4880, "message": {"header": {"component_id": 1, "sequence": 155, "system_id": 1}, "message": {"airspeed": 0.0560000017285347, "alt": 16.029998779296875, "climb": -0.011668380349874496, "groundspeed": 0.06934928894042969, "heading": 159, "throttle": 0, "type": "VFR_HUD"}}}
{"packet_index": 4906, "message": {"header": {"component_id": 1, "sequence": 173, "system_id": 1}, "message": {"airspeed": 0.10500000417232513, "alt": 16.03999900817871, "climb": 0.018465112894773483, "groundspeed": 0.04559148848056793, "heading": 159, "throttle": 0, "type": "VFR_HUD"}}}
{"packet_index": 4908, "message": {"header": {"component_id": 1, "sequence": 176, "system_id": 1}, "message": {"altitude": 32970, "latitude": 634405552, "longitude": 103484873, "time_usec": 5500367368, "type": "GPS_GLOBAL_ORIGIN"}}}
{"packet_index": 4909, "message": {"header": {"component_id": 1, "sequence": 177, "system_id": 1}, "message": {"altitude": 6860, "approach_x": 0.0, "approach_y": 0.0, "approach_z": 0.0, "latitude": 634405553, "longitude": 103484876, "q": [null, null, null, null], "time_usec": 5500367375, "type": "HOME_POSITION", "x": 0.011131884530186653, "y": 0.01493206899613142, "z": 26.10999870300293}}}
{"packet_index": 4933, "message": {"header": {"component_id": 1, "sequence": 192, "system_id": 1}, "message": {"airspeed": 0.10500000417232513, "alt": 16.059999465942383, "climb": 0.054027095437049866, "groundspeed": 0.03157152235507965, "heading": 159, "throttle": 0, "type": "VFR_HUD"}}}
{"packet_index": 4956, "message": {"header": {"component_id": 1, "sequence": 197, "system_id": 1}, "message": {"airspeed": 0.0860000029206276, "alt": 16.09000015258789, "climb": 0.07418453693389893, "groundspeed": 0.03077511675655842, "heading": 159, "throttle": 0, "type": "VFR_HUD"}}}
{"packet_index": 4958, "message": {"header": {"component_id": 1, "sequence": 200, "system_id": 1}, "message": {"autopilot": {"type": "MAV_AUTOPILOT_ARDUPILOTMEGA"}, "base_mode": {"bits": 129}, "custom_mode": 4, "mavlink_version": 3, "mavtype": {"type": "MAV_TYPE_SURFACE_BOAT"}, "system_status": {"type": "MAV_STATE_STANDBY"}, "type": "HEARTBEAT"}}}
{"packet_index": 4983, "message": {"header": {"component_id": 1, "sequence": 214, "system_id": 1}, "message": {"airspeed": 0.0860000029206276, "alt": 16.10999870300293, "climb": 0.06520968675613403, "groundspeed": 0.033167917281389236, "heading": 159, "throttle": 0, "type": "VFR_HUD"}}}
{"packet_index": 5007, "message": {"header": {"component_id": 1, "sequence": 219, "system_id": 1}, "message": {"airspeed": 0.03200000151991844, "alt": 16.10999870300293, "climb": 0.02410995587706566, "groundspeed": 0.0330854132771492, "heading": 159, "throttle": 0, "type": "VFR_HUD"}}}
{"packet_index": 5031, "message": {"header": {"component_id": 1, "sequence": 224, "system_id": 1}, "message": {"airspeed": 0.03200000151991844, "alt": 16.09000015258789, "climb": -0.027757054194808006, "groundspeed": 0.027631185948848724, "heading": 159, "throttle": 0, "type": "VFR_HUD"}}}
{"packet_index": 5059, "message": {"header": {"component_id": 1, "sequence": 251, "system_id": 1}, "message": {"airspeed": 0.027000000700354576, "alt": 16.06999969482422, "climb": -0.06937918812036514, "groundspeed": 0.021333590149879456, "heading": 159, "throttle": 0, "type": "VFR_HUD"}}}
{"packet_index": 5081, "message": {"header": {"component_id": 1, "sequence": 1, "system_id": 1}, "message": {"airspeed": 0.027000000700354576, "alt": 16.03999900817871, "climb": -0.08800913393497467, "groundspeed": 0.020492415875196457, "heading": 159, "throttle": 0, "type": "VFR_HUD"}}}
{"packet_index": 5105, "message": {"header": {"component_id": 1, "sequence": 6, "system_id": 1}, "message": {"airspeed": 0.02800000086426735, "alt": 16.029998779296875, "climb": -0.09144911170005798, "groundspeed": 0.02203240804374218, "heading": 159, "throttle": 0, "type": "VFR_HUD"}}}
{"packet_index": 5129, "message": {"header": {"component_id": 1, "sequence": 13, "system_id": 1}, "message": {"airspeed": 0.02800000086426735, "alt": 16.020000457763672, "climb": -0.0935734361410141, "groundspeed": 0.020530251786112785, "heading": 159, "throttle": 0, "type": "VFR_HUD"}}}
{"packet_index": 5155, "message": {"header": {"component_id": 1, "sequence": 29, "system_id": 1}, "message": {"airspeed": 0.02200000174343586, "alt": 16.020000457763672, "climb": -0.09604620933532715, "groundspeed": 0.014374896883964539, "heading": 159, "throttle": 0, "type": "VFR_HUD"}}}
{"packet_index": 5157, "message": {"header": {"component_id": 1, "sequence": 32, "system_id": 1}, "message": {"altitude": 32970, "latitude": 634405552, "longitude": 103484873, "time_usec": 5501367443, "type": "GPS_GLOBAL_ORIGIN"}}}
{"packet_index": 5159, "message": {"header": {"component_id": 1, "sequence": 33, "system_id": 1}, "message": {"altitude": 6860, "approach_x": 0.0, "approach_y": 0.0, "approach_z": 0.0, "latitude": 634405553, "longitude": 103484876, "q": [null, null, null, null], "time_usec": 5501367451, "type": "HOME_POSITION", "x": 0.011131884530186653, "y": 0.01493206899613142, "z": 26.10999870300293}}}
{"packet_index": 5182, "message": {"header": {"component_id": 1, "sequence": 48, "system_id": 1}, "message": {"airspeed": 0.02200000174343586, "alt": 16.020000457763672, "climb": -0.09098270535469055, "groundspeed": 0.005494405515491962, "heading": 158, "throttle": 0, "type": "VFR_HUD"}}}
{"packet_index": 5205, "message": {"header": {"component_id": 1, "sequence": 53, "system_id": 1}, "message": {"airspeed": 0.01600000075995922, "alt": 16.029998779296875, "climb": -0.0731254443526268, "groundspeed": 0.012213345617055893, "heading": 158, "throttle": 0, "type": "VFR_HUD"}}}
{"packet_index": 5207, "message": {"header": {"component_id": 1, "sequence": 56, "system_id": 1}, "message": {"autopilot": {"type": "MAV_AUTOPILOT_ARDUPILOTMEGA"}, "base_mode": {"bits": 129}, "custom_mode": 4, "mavlink_version": 3, "mavtype": {"type": "MAV_TYPE_SURFACE_BOAT"}, "system_status": {"type": "MAV_STATE_STANDBY"}, "type": "HEARTBEAT"}}}
{"packet_index": 5233, "message": {"header": {"component_id": 1, "sequence": 70, "system_id": 1}, "message": {"airspeed": 0.01600000075995922, "alt": 16.049999237060547, "climb": -0.054581452161073685, "groundspeed": 0.014069696888327599, "heading": 158, "throttle": 0, "type": "VFR_HUD"}}}
{"packet_index": 5256, "message": {"header": {"component_id": 1, "sequence": 75, "system_id": 1}, "message": {"airspeed": 0.03800000250339508, "alt": 16.059999465942383, "climb": -0.04679340496659279, "groundspeed": 0.008787127211689949, "heading": 158, "throttle": 0, "type": "VFR_HUD"}}}
{"packet_index": 5280, "message": {"header": {"component_id": 1, "sequence": 80, "system_id": 1}, "message": {"airspeed": 0.03800000250339508, "alt": 16.06999969482422, "climb": -0.04673817381262779, "groundspeed": 0.043912697583436966, "heading": 158, "throttle": 0, "type": "VFR_HUD"}}}
{"packet_index": 5308, "message": {"header": {"component_id": 1, "sequence": 107, "system_id": 1}, "message": {"airspeed": 0.01900000125169754, "alt": 16.09000015258789, "climb": -0.040802251547575, "groundspeed": 0.0830245092511177, "heading": 158, "throttle": 0, "type": "VFR_HUD"}}}
{"packet_index": 5330, "message": {"header": {"component_id": 1, "sequence": 112, "system_id": 1}, "message": {"airspeed": 0.01900000125169754, "alt": 16.10999870300293, "climb": -0.027010276913642883, "groundspeed": 0.10917223244905472, "heading": 158, "throttle": 0, "type": "VFR_HUD"}}}
{"packet_index": 5344, "message": {"header": {"component_id": 1, "sequence": 116, "system_id": 1}, "message": {"autopilot": {"type": "MAV_AUTOPILOT_ARDUPILOTMEGA"}, "base_mode": {"bits": 137}, "custom_mode": 10, "mavlink_version": 3, "mavtype": {"type": "MAV_TYPE_SURFACE_BOAT"}, "system_status": {"type": "MAV_STATE_ACTIVE"}, "type": "HEARTBEAT"}}}
{"packet_index": 5355, "message": {"header": {"component_id": 1, "sequence": 119, "system_id": 1}, "message": {"airspeed": 0.06100000441074371, "alt": 16.119998931884766, "climb": -0.02029144950211048, "groundspeed": 0.11691455543041229, "heading": 157, "throttle": 0, "type": "VFR_HUD"}}}
{"packet_index": 5357, "message": {"header": {"component_id": 1, "sequence": 122, "system_id": 1}, "message": {"chunk_seq": 0, "id": 0, "severity": {"type": "MAV_SEVERITY_INFO"}, "text": ["M", "i", "s", "s", "i", "o", "n", ":", " ", "1", " ", "W", "P", "\u0000", "\u0000", "\u0000", "\u0000", "\u0000", "\u0000", "\u0000", "\u0000", "\u0000", "\u0000", "\u0000", "\u0000", "\u0000", "\u0000", "\u0000", "\u0000", "\u0000", "\u0000", "\u0000", "\u0000", "\u0000", "\u0000", "\u0000", "\u0000", "\u0000", "\u0000", "\u0000", "\u0000", "\u0000", "\u0000", "\u0000", "\u0000", "\u0000", "\u0000", "\u0000", "\u0000", "\u0000"], "type": "STATUSTEXT"}}}
{"packet_index": 5380, "message": {"header": {"component_id": 1, "sequence": 125, "system_id": 1}, "message": {"airspeed": 0.06100000441074371, "alt": 16.119998931884766, "climb": -0.030822988599538803, "groundspeed": 0.11063878238201141, "heading": 157, "throttle": 0, "type": "VFR_HUD"}}}
{"packet_index": 5406, "message": {"header": {"component_id": 1, "sequence": 143, "system_id": 1}, "message": {"airspeed": 0.09100000560283661, "alt": 16.100000381469727, "climb": -0.05880027636885643, "groundspeed": 0.10208035260438919, "heading": 157, "throttle": 0, "type": "VFR_HUD"}}}
{"packet_index": 5408, "message": {"header": {"component_id": 1, "sequence": 146, "system_id": 1}, "message": {"altitude": 32970, "latitude": 634405552, "longitude": 103484873, "time_usec": 5502367400, "type": "GPS_GLOBAL_ORIGIN"}}}
{"packet_index": 5410, "message": {"header": {"component_id": 1, "sequence": 147, "system_id": 1}, "message": {"altitude": 6860, "approach_x": 0.0, "approach_y": 0.0, "approach_z": 0.0, "latitude": 634405553, "longitude": 103484876, "q": [null, null, null, null], "time_usec": 5502367406, "type": "HOME_POSITION", "x": 0.011131884530186653, "y": 0.01493206899613142, "z": 26.10999870300293}}}
{"packet_index": 5433, "message": {"header": {"component_id": 1, "sequence": 164, "system_id": 1}, "message": {"airspeed": 0.09100000560283661, "alt": 16.059999465942383, "climb": -0.09430383890867233, "groundspeed": 0.09866293519735336, "heading": 157, "throttle": 0, "type": "VFR_HUD"}}}
{"packet_index": 5456, "message": {"header": {"component_id": 1, "sequence": 169, "system_id": 1}, "message": {"airspeed": 0.05700000375509262, "alt": 16.010000228881836, "climb": -0.12358693778514862, "groundspeed": 0.11058732867240906, "heading": 157, "throttle": 0, "type": "VFR_HUD"}}}
{"packet_index": 5458, "message": {"header": {"component_id": 1, "sequence": 172, "system_id": 1}, "message": {"autopilot": {"type": "MAV_AUTOPILOT_ARDUPILOTMEGA"}, "base_mode": {"bits": 137}, "custom_mode": 10, "mavlink_version": 3, "mavtype": {"type": "MAV_TYPE_SURFACE_BOAT"}, "system_status": {"type": "MAV_STATE_ACTIVE"}, "type": "HEARTBEAT"}}}
{"packet_index": 5483, "message": {"header": {"component_id": 1, "sequence": 186, "system_id": 1}, "message": {"airspeed": 0.05700000375509262, "alt": 15.989999771118164, "climb": -0.13140837848186493, "groundspeed": 0.09598643332719803, "heading": 158, "throttle": 0, "type": "VFR_HUD"}}}
{"packet_index": 5507, "message": {"header": {"component_id": 1, "sequence": 191, "system_id": 1}, "message": {"airspeed": 0.09300000220537186, "alt": 15.979999542236328, "climb": -0.10054942965507507, "groundspeed": 0.058088742196559906, "heading": 158, "throttle": 0, "type": "VFR_HUD"}}}
{"packet_index": 5532, "message": {"header": {"component_id": 1, "sequence": 196, "system_id": 1}, "message": {"airspeed": 0.09300000220537186, "alt": 16.0, "climb": -0.035618871450424194, "groundspeed": 0.018672753125429153, "heading": 159, "throttle": 0, "type": "VFR_HUD"}}}
