packet_index,time_boot_ms,lat_deg,lon_deg,alt_m,relative_alt_m,heading_deg,vx_mps,vy_mps,vz_mps
11,5482887,63.4408925,10.3488781,16.24,9.382,152.2,0.0,0.03,0.04
16,5482927,63.4408925,10.3488781,16.25,9.396,152.25,0.01,0.03,0.03
29,5482967,63.4408925,10.3488781,16.27,9.411,152.31,0.01,0.04,0.02
43,5482987,63.4408925,10.3488781,16.27,9.417,152.35,0.01,0.04,0.02
48,5483027,63.4408925,10.3488782,16.29,9.43,152.45,0.01,0.05,0.01
62,5483067,63.4408926,10.3488782,16.29,9.439,152.58,0.02,0.05,0.01
74,5483087,63.4408926,10.3488782,16.3,9.443,152.65,0.02,0.05,0.0
79,5483127,63.4408926,10.3488782,16.31,9.45,152.82,0.02,0.06,0.0
93,5483167,63.4408926,10.3488783,16.31,9.451,153.0,0.03,0.06,0.0
105,5483187,63.4408926,10.3488783,16.31,9.452,153.09,0.03,0.06,0.01
110,5483227,63.4408927,10.3488783,16.31,9.452,153.29,0.03,0.06,0.01
123,5483267,63.4408927,10.3488783,16.3,9.448,153.48,0.03,0.07,0.01
136,5483287,63.4408927,10.3488784,16.3,9.446,153.56,0.04,0.07,0.02
142,5483327,63.4408927,10.3488784,16.3,9.442,153.73,0.04,0.08,0.02
156,5483367,63.4408928,10.3488784,16.29,9.436,153.86,0.04,0.08,0.03
170,5483387,63.4408928,10.3488785,16.29,9.433,153.92,0.04,0.08,0.03
175,5483427,63.4408928,10.3488785,16.28,9.428,154.02,0.05,0.09,0.03
188,5483447,63.4408928,10.3488785,16.28,9.427,154.06,0.05,0.09,0.03
201,5483487,63.4408928,10.3488785,16.28,9.425,154.13,0.06,0.09,0.02
206,5483527,63.4408929,10.3488786,16.28,9.424,154.2,0.06,0.1,0.02
219,5483547,63.4408929,10.3488786,16.28,9.426,154.24,0.06,0.1,0.01
233,5483587,63.4408929,10.3488786,16.29,9.431,154.32,0.07,0.09,0.0
238,5483627,63.440893,10.3488787,16.29,9.435,154.42,0.08,0.09,0.0
251,5483647,63.440893,10.3488787,16.3,9.44,154.48,0.08,0.09,-0.01
265,5483687,63.440893,10.3488788,16.31,9.45,154.62,0.09,0.08,-0.02
270,5483727,63.4408931,10.3488788,16.31,9.459,154.8,0.09,0.07,-0.03
282,5483747,63.4408931,10.3488788,16.32,9.465,154.89,0.1,0.07,-0.04
296,5483787,63.4408931,10.3488789,16.33,9.476,155.1,0.1,0.06,-0.06
301,5483827,63.4408932,10.3488789,16.34,9.487,155.32,0.11,0.04,-0.07
313,5483847,63.4408932,10.3488789,16.35,9.491,155.44,0.11,0.04,-0.08
327,5483887,63.4408933,10.3488789,16.36,9.5,155.66,0.11,0.03,-0.09
332,5483927,63.4408933,10.3488789,16.36,9.508,155.87,0.11,0.02,-0.1
344,5483947,63.4408933,10.3488789,16.36,9.508,155.96,0.11,0.01,-0.11
359,5483987,63.4408934,10.3488789,16.37,9.511,156.13,0.1,0.01,-0.12
367,5484027,63.4408934,10.3488789,16.37,9.514,156.27,0.1,0.0,-0.14
376,5484047,63.4408935,10.3488789,16.37,9.511,156.33,0.1,0.0,-0.14
390,5484087,63.4408935,10.3488789,16.36,9.507,156.42,0.1,0.0,-0.15
394,5484107,63.4408935,10.3488789,16.36,9.505,156.45,0.1,0.0,-0.16
407,5484147,63.4408936,10.3488789,16.35,9.499,156.5,0.09,0.0,-0.17
421,5484187,63.4408936,10.3488789,16.35,9.49,156.52,0.09,0.0,-0.17
425,5484207,63.4408936,10.3488789,16.34,9.487,156.54,0.09,0.0,-0.17
438,5484247,63.4408937,10.3488789,16.33,9.479,156.56,0.09,0.0,-0.17
452,5484287,63.4408937,10.3488789,16.33,9.47,156.58,0.09,0.0,-0.16
457,5484307,63.4408937,10.3488789,16.32,9.466,156.6,0.09,0.0,-0.16
470,5484347,63.4408938,10.3488788,16.31,9.459,156.66,0.09,0.0,-0.14
486,5484387,63.4408938,10.3488788,16.31,9.452,156.75,0.08,0.0,-0.13
490,5484407,63.4408938,10.3488788,16.3,9.449,156.8,0.08,-0.01,-0.12
503,5484447,63.4408939,10.3488788,16.3,9.445,156.93,0.08,-0.02,-0.1
517,5484487,63.4408939,10.3488789,16.3,9.443,157.07,0.07,-0.02,-0.08
521,5484507,63.4408939,10.3488789,16.3,9.442,157.15,0.07,-0.03,-0.07
535,5484547,63.4408939,10.3488788,16.3,9.441,157.32,0.06,-0.04,-0.05
549,5484587,63.440894,10.3488788,16.3,9.443,157.47,0.05,-0.04,-0.04
553,5484607,63.440894,10.3488787,16.3,9.444,157.55,0.05,-0.05,-0.03
567,5484647,63.440894,10.3488787,16.3,9.447,157.68,0.04,-0.05,-0.03
581,5484687,63.440894,10.3488786,16.31,9.453,157.79,0.03,-0.06,-0.03
585,5484707,63.440894,10.3488786,16.31,9.456,157.84,0.03,-0.06,-0.04
598,5484747,63.440894,10.3488785,16.32,9.462,157.92,0.02,-0.07,-0.05
602,5484767,63.440894,10.3488785,16.32,9.466,157.95,0.02,-0.07,-0.05
616,5484807,63.440894,10.3488784,16.33,9.473,158.01,0.02,-0.08,-0.07
629,5484847,63.4408941,10.3488784,16.33,9.479,158.06,0.02,-0.08,-0.09
633,5484867,63.4408941,10.3488783,16.34,9.483,158.08,0.02,-0.08,-0.1
647,5484907,63.4408941,10.3488783,16.34,9.489,158.14,0.03,-0.09,-0.12
660,5484947,63.4408941,10.3488782,16.35,9.493,158.21,0.04,-0.09,-0.13
666,5484967,63.4408941,10.3488781,16.35,9.494,158.24,0.04,-0.09,-0.14
679,5485007,63.4408942,10.3488781,16.35,9.497,158.35,0.05,-0.1,-0.14
692,5485047,63.4408942,10.348878,16.35,9.498,158.47,0.06,-0.11,-0.14
697,5485067,63.4408942,10.3488779,16.35,9.498,158.53,0.07,-0.11,-0.13
710,5485107,63.4408942,10.3488778,16.35,9.496,158.69,0.08,-0.11,-0.12
723,5485147,63.4408943,10.3488777,16.35,9.494,158.85,0.09,-0.12,-0.1
727,5485167,63.4408943,10.3488776,16.35,9.492,158.94,0.09,-0.12,-0.08
741,5485207,63.4408944,10.3488775,16.34,9.489,159.12,0.09,-0.12,-0.05
754,5485247,63.4408944,10.3488774,16.34,9.488,159.3,0.09,-0.12,-0.02
758,5485267,63.4408944,10.3488773,16.34,9.488,159.4,0.09,-0.12,-0.01
773,5485307,63.4408945,10.3488772,16.34,9.488,159.56,0.09,-0.12,0.01
786,5485347,63.4408945,10.3488771,16.35,9.491,159.71,0.09,-0.12,0.03
790,5485367,63.4408945,10.3488771,16.35,9.494,159.78,0.08,-0.12,0.04
806,5485407,63.4408946,10.348877,16.36,9.5,159.89,0.08,-0.11,0.05
810,5485427,63.4408946,10.3488769,16.36,9.502,159.93,0.08,-0.11,0.05
823,5485467,63.4408946,10.3488768,16.37,9.517,160.0,0.07,-0.1,0.05
837,5485507,63.4408947,10.3488768,16.38,9.529,160.05,0.07,-0.1,0.05
841,5485527,63.4408947,10.3488767,16.39,9.535,160.06,0.07,-0.09,0.05
855,5485567,63.4408947,10.3488766,16.41,9.551,160.08,0.06,-0.09,0.04
869,5485607,63.4408947,10.3488766,16.42,9.565,160.1,0.06,-0.08,0.03
883,5485627,63.4408948,10.3488765,16.43,9.571,160.11,0.06,-0.08,0.03
887,5485667,63.4408948,10.3488765,16.44,9.582,160.13,0.06,-0.07,0.02
901,5485707,63.4408948,10.3488764,16.45,9.591,160.17,0.05,-0.07,0.02
905,5485727,63.4408948,10.3488764,16.45,9.596,160.2,0.05,-0.07,0.02
918,5485767,63.4408949,10.3488763,16.45,9.596,160.27,0.05,-0.06,0.01
932,5485807,63.4408949,10.3488763,16.45,9.595,160.37,0.04,-0.06,0.01
936,5485827,63.4408949,10.3488762,16.45,9.595,160.42,0.04,-0.05,0.01
949,5485867,63.4408949,10.3488762,16.44,9.583,160.55,0.03,-0.04,0.02
963,5485907,63.440895,10.3488762,16.43,9.572,160.68,0.03,-0.03,0.02
967,5485927,63.440895,10.3488761,16.42,9.568,160.75,0.02,-0.02,0.02
982,5485967,63.440895,10.3488761,16.41,9.55,160.88,0.02,-0.01,0.03
995,5486007,63.440895,10.3488761,16.39,9.533,161.0,0.01,0.0,0.04
999,5486027,63.440895,10.3488761,16.38,9.526,161.06,0.0,0.01,0.04
1012,5486067,63.440895,10.3488761,16.36,9.508,161.15,0.0,0.02,0.05
1025,5486087,63.440895,10.3488761,16.36,9.5,161.19,0.0,0.03,0.05
1030,5486127,63.4408951,10.3488761,16.34,9.485,161.25,-0.01,0.05,0.06
1043,5486167,63.4408951,10.3488762,16.33,9.474,161.28,-0.02,0.06,0.06
1056,5486187,63.4408951,10.3488762,16.32,9.469,161.29,-0.02,0.07,0.06
1061,5486227,63.4408951,10.3488762,16.31,9.459,161.3,-0.03,0.07,0.06
1074,5486267,63.4408951,10.3488763,16.31,9.457,161.29,-0.03,0.08,0.06
1088,5486287,63.4408951,10.3488763,16.31,9.455,161.29,-0.03,0.08,0.05
1093,5486327,63.4408951,10.3488764,16.31,9.454,161.28,-0.03,0.08,0.05
1106,5486367,63.4408951,10.3488764,16.32,9.46,161.28,-0.03,0.08,0.04
1121,5486387,63.4408951,10.3488764,16.32,9.463,161.28,-0.02,0.08,0.03
1126,5486427,63.4408951,10.3488765,16.32,9.468,161.32,-0.01,0.07,0.02
1140,5486467,63.4408951,10.3488765,16.33,9.479,161.38,0.0,0.07,0.01
1152,5486487,63.4408951,10.3488764,16.34,9.484,161.42,0.0,0.06,0.0
1157,5486527,63.4408951,10.3488764,16.35,9.494,161.54,0.01,0.06,0.0
1171,5486567,63.4408951,10.3488764,16.36,9.506,161.68,0.03,0.06,-0.02
1184,5486587,63.4408952,10.3488765,16.37,9.511,161.77,0.04,0.05,-0.02
1189,5486627,63.4408952,10.3488765,16.38,9.522,161.96,0.06,0.05,-0.04
1203,5486667,63.4408952,10.3488765,16.39,9.531,162.17,0.08,0.06,-0.05
1216,5486687,63.4408953,10.3488765,16.39,9.535,162.28,0.09,0.06,-0.05
1221,5486727,63.4408953,10.3488766,16.4,9.543,162.49,0.11,0.07,-0.07
1233,5486747,63.4408953,10.3488766,16.4,9.545,162.59,0.11,0.07,-0.07
1247,5486787,63.4408954,10.3488766,16.4,9.549,162.78,0.13,0.08,-0.08
1252,5486827,63.4408954,10.3488767,16.41,9.552,162.95,0.14,0.08,-0.08
1264,5486847,63.4408955,10.3488767,16.41,9.55,163.02,0.14,0.09,-0.08
1278,5486887,63.4408955,10.3488768,16.4,9.547,163.16,0.15,0.09,-0.07
1283,5486927,63.4408956,10.3488769,16.4,9.544,163.28,0.15,0.09,-0.06
1295,5486947,63.4408956,10.3488769,16.39,9.539,163.33,0.15,0.09,-0.05
1310,5486987,63.4408957,10.348877,16.38,9.528,163.43,0.14,0.09,-0.04
1315,5487027,63.4408957,10.348877,16.37,9.519,163.52,0.14,0.08,-0.02
1327,5487047,63.4408957,10.3488771,16.37,9.511,163.56,0.14,0.08,-0.01
1341,5487087,63.4408958,10.3488771,16.35,9.496,163.64,0.13,0.07,0.0
1346,5487127,63.4408958,10.3488772,16.34,9.482,163.71,0.12,0.06,0.01
1358,5487147,63.4408959,10.3488772,16.33,9.473,163.74,0.12,0.05,0.01
1372,5487187,63.4408959,10.3488772,16.31,9.457,163.79,0.11,0.04,0.02
1377,5487227,63.440896,10.3488772,16.3,9.443,163.83,0.1,0.03,0.02
1389,5487247,63.440896,10.3488773,16.29,9.435,163.85,0.1,0.03,0.02
1403,5487287,63.440896,10.3488773,16.28,9.422,163.87,0.09,0.02,0.01
1409,5487327,63.440896,10.3488773,16.27,9.412,163.89,0.09,0.01,0.0
1421,5487347,63.4408961,10.3488773,16.26,9.408,163.89,0.08,0.01,0.0
1437,5487387,63.4408961,10.3488773,16.26,9.403,163.9,0.08,0.01,-0.02
1441,5487407,63.4408961,10.3488773,16.26,9.401,163.91,0.08,0.01,-0.04
1454,5487447,63.4408961,10.3488773,16.26,9.4,163.93,0.07,0.0,-0.06
1468,5487487,63.4408962,10.3488774,16.26,9.403,163.96,0.07,0.0,-0.08
1472,5487507,63.4408962,10.3488774,16.26,9.405,163.98,0.07,0.0,-0.1
1486,5487547,63.4408962,10.3488774,16.27,9.412,164.03,0.06,0.0,-0.12
1500,5487587,63.4408962,10.3488774,16.28,9.422,164.08,0.06,-0.01,-0.13
1504,5487607,63.4408962,10.3488774,16.28,9.426,164.12,0.05,-0.01,-0.14
1518,5487647,63.4408963,10.3488774,16.29,9.438,164.18,0.05,-0.02,-0.15
1532,5487687,63.4408963,10.3488774,16.31,9.452,164.24,0.04,-0.02,-0.16
1536,5487707,63.4408963,10.3488773,16.31,9.459,164.28,0.04,-0.03,-0.17
1549,5487747,63.4408963,10.3488773,16.33,9.472,164.35,0.04,-0.03,-0.17
1563,5487787,63.4408963,10.3488773,16.34,9.485,164.42,0.03,-0.04,-0.17
1567,5487807,63.4408963,10.3488772,16.35,9.491,164.46,0.03,-0.04,-0.17
1580,5487847,63.4408964,10.3488772,16.36,9.503,164.56,0.03,-0.05,-0.16
1594,5487887,63.4408964,10.3488771,16.37,9.514,164.67,0.02,-0.06,-0.15
1598,5487907,63.4408964,10.3488771,16.37,9.519,164.73,0.02,-0.06,-0.14
1611,5487947,63.4408964,10.348877,16.38,9.524,164.86,0.02,-0.07,-0.13
1626,5487987,63.4408964,10.348877,16.38,9.528,165.02,0.02,-0.07,-0.1
1630,5488007,63.4408964,10.3488769,16.38,9.529,165.1,0.02,-0.08,-0.09
1643,5488047,63.4408964,10.3488768,16.38,9.529,165.26,0.01,-0.08,-0.07
1648,5488067,63.4408964,10.3488768,16.38,9.527,165.34,0.01,-0.09,-0.06
1661,5488107,63.4408964,10.3488767,16.38,9.524,165.49,0.01,-0.09,-0.04
1674,5488147,63.4408964,10.3488766,16.37,9.516,165.63,0.0,-0.1,-0.02
1679,5488167,63.4408964,10.3488766,16.37,9.512,165.68,0.0,-0.1,-0.01
1692,5488207,63.4408964,10.3488765,16.36,9.503,165.78,0.0,-0.1,0.0
1705,5488247,63.4408964,10.3488764,16.35,9.493,165.84,0.0,-0.1,0.01
1710,5488267,63.4408964,10.3488763,16.34,9.487,165.87,0.0,-0.1,0.01
1724,5488307,63.4408964,10.3488762,16.33,9.477,165.91,0.0,-0.1,0.02
1737,5488347,63.4408964,10.3488761,16.32,9.469,165.93,0.0,-0.1,0.02
1742,5488367,63.4408965,10.3488761,16.32,9.465,165.94,0.0,-0.1,0.01
1757,5488407,63.4408965,10.348876,16.31,9.459,165.96,0.0,-0.1,0.01
1770,5488447,63.4408965,10.3488759,16.31,9.455,165.99,0.0,-0.09,0.0
1775,5488467,63.4408965,10.3488759,16.31,9.454,166.01,0.0,-0.09,0.0
1788,5488507,63.4408965,10.3488758,16.31,9.453,166.05,0.01,-0.08,-0.01
1802,5488547,63.4408965,10.3488757,16.31,9.455,166.09,0.01,-0.07,-0.01
1806,5488567,63.4408965,10.3488757,16.31,9.457,166.12,0.02,-0.07,-0.02
1820,5488607,63.4408965,10.3488756,16.32,9.461,166.18,0.02,-0.06,-0.02
1834,5488647,63.4408965,10.3488755,16.32,9.467,166.25,0.02,-0.04,-0.02
1838,5488667,63.4408965,10.3488755,16.33,9.471,166.29,0.02,-0.04,-0.01
1852,5488707,63.4408965,10.3488755,16.33,9.478,166.36,0.03,-0.03,-0.01
1856,5488727,63.4408965,10.3488754,16.34,9.481,166.4,0.03,-0.02,0.0
1869,5488767,63.4408966,10.3488754,16.35,9.49,166.48,0.03,-0.01,0.01
1883,5488807,63.4408966,10.3488753,16.35,9.497,166.56,0.03,-0.01,0.02
1887,5488827,63.4408966,10.3488753,16.36,9.5,166.6,0.03,0.0,0.03
1900,5488867,63.4408966,10.3488753,16.36,9.507,166.66,0.03,0.0,0.05
1914,5488907,63.4408966,10.3488753,16.37,9.512,166.73,0.03,0.0,0.07
1918,5488927,63.4408966,10.3488753,16.37,9.514,166.76,0.03,0.0,0.07
1933,5488967,63.4408967,10.3488753,16.37,9.517,166.81,0.03,0.0,0.09
1946,5489007,63.4408967,10.3488752,16.38,9.52,166.87,0.03,0.0,0.1
1950,5489027,63.4408967,10.3488752,16.38,9.52,166.89,0.03,0.0,0.1
1964,5489067,63.4408967,10.3488752,16.38,9.521,166.93,0.04,0.01,0.1
1977,5489107,63.4408967,10.3488752,16.38,9.521,166.99,0.04,0.01,0.09
1981,5489127,63.4408967,10.3488752,16.38,9.521,167.01,0.05,0.01,0.09
1994,5489167,63.4408968,10.3488752,16.38,9.52,167.07,0.05,0.02,0.08
2008,5489207,63.4408968,10.3488752,16.37,9.519,167.13,0.06,0.03,0.07
2012,5489227,63.4408968,10.3488752,16.37,9.518,167.17,0.06,0.03,0.06
2025,5489267,63.4408968,10.3488753,16.37,9.515,167.24,0.06,0.04,0.05
2040,5489307,63.4408969,10.3488753,16.37,9.512,167.32,0.06,0.05,0.03
2044,5489327,63.4408969,10.3488753,16.37,9.512,167.35,0.07,0.05,0.03
2057,5489367,63.4408969,10.3488753,16.36,9.508,167.43,0.07,0.06,0.02
2072,5489387,63.4408969,10.3488753,16.36,9.506,167.46,0.07,0.06,0.01
2077,5489427,63.4408969,10.3488754,16.36,9.503,167.53,0.07,0.07,0.0
2090,5489467,63.440897,10.3488754,16.35,9.499,167.6,0.07,0.08,0.0
2103,5489487,63.440897,10.3488754,16.35,9.497,167.63,0.06,0.08,0.0
2108,5489527,63.440897,10.3488754,16.35,9.494,167.69,0.06,0.09,0.0
2122,5489567,63.4408971,10.3488755,16.35,9.491,167.75,0.06,0.09,0.0
2135,5489587,63.4408971,10.3488755,16.35,9.49,167.78,0.06,0.09,-0.01
2150,5489627,63.4408971,10.3488756,16.34,9.488,167.84,0.06,0.09,-0.01
2154,5489667,63.4408971,10.3488756,16.34,9.488,167.9,0.06,0.09,-0.02
2167,5489687,63.4408971,10.3488757,16.34,9.487,167.93,0.06,0.09,-0.02
2172,5489727,63.4408972,10.3488757,16.34,9.488,167.99,0.06,0.08,-0.03
2186,5489767,63.4408972,10.3488758,16.34,9.489,168.04,0.06,0.08,-0.05
2198,5489787,63.4408972,10.3488758,16.35,9.49,168.07,0.06,0.07,-0.05
2203,5489827,63.4408972,10.3488759,16.35,9.492,168.12,0.06,0.07,-0.06
2216,5489867,63.4408973,10.3488759,16.35,9.492,168.17,0.06,0.06,-0.08
2229,5489887,63.4408973,10.3488759,16.35,9.493,168.2,0.06,0.06,-0.08
2234,5489927,63.4408973,10.348876,16.35,9.495,168.26,0.07,0.05,-0.09
2249,5489967,63.4408973,10.348876,16.35,9.492,168.31,0.07,0.04,-0.1
2261,5489987,63.4408974,10.348876,16.35,9.492,168.34,0.07,0.04,-0.1
2266,5490027,63.4408974,10.348876,16.35,9.491,168.39,0.06,0.03,-0.09
2278,5490047,63.4408974,10.348876,16.34,9.488,168.41,0.06,0.03,-0.09
2292,5490087,63.4408974,10.348876,16.34,9.484,168.44,0.06,0.03,-0.08
2297,5490127,63.4408974,10.348876,16.34,9.48,168.46,0.05,0.03,-0.07
2309,5490147,63.4408975,10.348876,16.33,9.478,168.45,0.05,0.02,-0.07
2323,5490187,63.4408975,10.3488761,16.33,9.473,168.44,0.04,0.02,-0.05
2328,5490227,63.4408975,10.3488761,16.32,9.469,168.4,0.03,0.02,-0.04
2340,5490247,63.4408975,10.3488761,16.32,9.469,168.37,0.03,0.02,-0.03
2354,5490287,63.4408975,10.3488761,16.32,9.468,168.3,0.02,0.02,-0.03
2360,5490327,63.4408975,10.3488761,16.32,9.467,168.23,0.01,0.02,-0.02
2372,5490347,63.4408975,10.3488761,16.33,9.47,168.19,0.01,0.02,-0.02
2388,5490387,63.4408975,10.3488761,16.33,9.474,168.12,0.01,0.01,-0.02
2393,5490427,63.4408975,10.3488761,16.33,9.478,168.07,0.01,0.01,-0.03
2405,5490447,63.4408975,10.3488761,16.34,9.483,168.05,0.01,0.01,-0.03
2419,5490487,63.4408976,10.3488761,16.35,9.491,168.04,0.02,0.0,-0.04
2424,5490527,63.4408976,10.348876,16.35,9.499,168.07,0.02,0.0,-0.05
2437,5490547,63.4408976,10.348876,16.36,9.503,168.1,0.03,0.0,-0.06
2451,5490587,63.4408976,10.348876,16.37,9.511,168.18,0.03,-0.01,-0.07
2456,5490627,63.4408976,10.348876,16.37,9.519,168.28,0.04,-0.02,-0.07
2469,5490647,63.4408976,10.348876,16.38,9.521,168.34,0.05,-0.02,-0.07
2483,5490687,63.4408976,10.348876,16.38,9.525,168.47,0.06,-0.03,-0.07
2487,5490707,63.4408977,10.348876,16.38,9.527,168.54,0.06,-0.03,-0.07
2500,5490747,63.4408977,10.348876,16.38,9.527,168.67,0.06,-0.04,-0.06
2514,5490787,63.4408977,10.348876,16.38,9.524,168.79,0.07,-0.05,-0.05
2518,5490807,63.4408977,10.3488759,16.38,9.522,168.85,0.07,-0.05,-0.05
2531,5490847,63.4408978,10.3488759,16.37,9.516,168.95,0.07,-0.06,-0.03
2545,5490887,63.4408978,10.3488758,16.36,9.507,169.02,0.07,-0.07,-0.02
2549,5490907,63.4408978,10.3488758,16.36,9.503,169.06,0.07,-0.07,-0.01
2562,5490947,63.4408978,10.3488757,16.35,9.493,169.1,0.07,-0.08,0.0
2652,5491287,63.4408981,10.3488751,16.3,9.444,168.99,0.07,-0.06,-0.02
2733,5491627,63.4408982,10.3488746,16.42,9.56,168.43,-0.01,-0.05,-0.04
2814,5491947,63.4408982,10.3488741,16.43,9.571,168.08,-0.02,-0.03,0.03
2900,5492287,63.4408982,10.348874,16.34,9.487,167.88,-0.03,0.05,0.08
2979,5492627,63.4408983,10.3488741,16.39,9.538,167.45,0.01,0.04,0.02
3062,5492947,63.4408986,10.3488743,16.41,9.553,167.86,0.1,0.09,-0.07
3149,5493287,63.440899,10.3488748,16.39,9.531,167.87,0.09,0.1,0.06
3228,5493627,63.4408992,10.3488751,16.38,9.522,167.09,0.01,0.04,-0.08
3312,5493947,63.4408994,10.3488752,16.4,9.546,166.63,0.01,0.02,-0.16
3398,5494287,63.4408995,10.3488749,16.46,9.605,166.9,0.0,-0.04,-0.05
3477,5494627,63.4408997,10.3488745,16.47,9.617,166.42,0.02,-0.09,-0.03
3560,5494947,63.4408998,10.3488739,16.45,9.593,166.51,0.04,-0.06,0.0
3647,5495287,63.4409,10.3488736,16.49,9.632,166.31,0.03,-0.01,0.03
3726,5495627,63.4409002,10.3488736,16.46,9.6,165.73,0.0,0.03,0.01
3809,5495947,63.4409003,10.3488738,16.46,9.606,165.13,0.0,0.1,-0.02
3896,5496287,63.4409005,10.3488743,16.48,9.624,164.72,0.03,0.1,0.0
3974,5496607,63.4409007,10.3488749,16.42,9.56,163.89,0.03,0.12,0.06
4059,5496947,63.4409009,10.3488755,16.37,9.519,163.58,0.05,0.08,-0.02
4145,5497287,63.4409011,10.3488759,16.39,9.533,163.28,0.05,0.05,-0.13
4223,5497607,63.4409013,10.3488758,16.39,9.53,162.67,0.01,-0.04,-0.08
4308,5497947,63.4409014,10.3488753,16.34,9.489,162.28,0.03,-0.06,-0.11
4394,5498287,63.4409015,10.3488748,16.35,9.495,161.73,0.04,-0.02,0.06
4472,5498607,63.4409015,10.3488746,16.36,9.507,161.03,-0.01,0.04,0.23
4556,5498947,63.4409015,10.3488748,16.26,9.404,160.15,-0.02,0.07,0.0
4643,5499287,63.4409015,10.3488754,16.24,9.38,159.96,0.0,0.12,0.04
4721,5499607,63.4409016,10.348876,16.35,9.495,160.19,0.0,0.09,-0.01
4805,5499947,63.4409017,10.3488764,16.17,9.31,160.28,0.03,0.09,-0.02
4892,5500287,63.4409017,10.3488767,16.03,9.176,159.65,0.0,0.05,0.0
4970,5500607,63.4409017,10.3488768,16.11,9.25,159.54,0.01,0.02,-0.07
5054,5500947,63.4409018,10.3488768,16.07,9.212,159.23,0.01,0.01,0.06
5141,5501287,63.4409018,10.3488767,16.02,9.162,159.22,0.01,0.01,0.09
5219,5501607,63.4409018,10.3488766,16.04,9.187,158.45,0.0,-0.01,0.06
5304,5501947,63.4409018,10.3488765,16.09,9.234,158.27,-0.03,0.07,0.04
5392,5502287,63.4409018,10.3488768,16.11,9.258,157.46,-0.06,0.08,0.04
5470,5502607,63.4409017,10.3488771,15.99,9.139,157.89,-0.03,0.1,0.13
5555,5502947,63.4409018,10.3488771,16.03,9.172,161.47,0.03,-0.01,-0.05
5632,5503267,63.4409019,10.3488767,16.03,9.17,167.86,0.1,-0.05,-0.1
5719,5503607,63.4409022,10.3488762,15.91,9.05,174.35,0.13,-0.08,0.0
5803,5503947,63.4409026,10.3488752,15.92,9.068,180.8,0.13,-0.1,0.02
5880,5504267,63.4409029,10.3488743,15.98,9.121,187.31,0.09,-0.07,0.08
5968,5504607,63.4409031,10.3488735,16.01,9.152,193.71,0.06,-0.06,0.1
6052,5504947,63.4409033,10.348873,16.0,9.148,200.43,0.06,-0.03,0.08
6129,5505267,63.4409035,10.3488726,16.08,9.222,207.06,0.06,-0.02,-0.04
6217,5505607,63.4409038,10.3488726,16.09,9.238,214.08,0.09,0.02,-0.04
6301,5505947,63.4409041,10.3488726,16.04,9.186,220.78,0.07,0.01,0.06
6378,5506267,63.4409042,10.3488726,16.04,9.189,226.77,0.06,-0.02,0.02
6466,5506607,63.4409044,10.3488723,16.08,9.221,233.14,0.02,-0.07,-0.09
6550,5506947,63.4409044,10.3488719,16.13,9.279,239.43,0.07,-0.07,-0.05
6628,5507267,63.4409045,10.3488715,16.17,9.314,245.83,0.08,-0.09,-0.05
6715,5507607,63.4409046,10.3488712,16.2,9.343,252.28,0.11,-0.08,0.0
6799,5507947,63.4409047,10.3488707,16.27,9.414,259.2,0.06,-0.1,-0.03
6877,5508267,63.4409047,10.3488703,16.33,9.478,265.44,0.02,-0.06,0.02
6964,5508607,63.4409048,10.3488704,16.33,9.472,271.49,0.02,-0.02,0.15
7048,5508947,63.4409048,10.3488707,16.39,9.539,277.59,0.0,0.04,-0.08
7127,5509267,63.4409049,10.3488714,16.36,9.505,283.83,0.01,0.05,0.0
7214,5509607,63.4409049,10.3488722,16.37,9.51,289.4,0.03,0.04,-0.03
7289,5509927,63.440905,10.3488728,16.34,9.481,295.03,0.02,0.01,-0.18
7376,5510267,63.440905,10.3488731,16.27,9.418,301.58,0.02,-0.05,-0.08
7463,5510607,63.440905,10.348873,16.3,9.448,306.69,0.03,-0.09,0.02
7538,5510927,63.440905,10.3488728,16.34,9.483,310.13,0.05,-0.07,-0.03
7625,5511267,63.440905,10.3488728,16.3,9.44,312.67,0.09,-0.05,0.08
7712,5511607,63.440905,10.3488729,16.33,9.47,313.37,0.08,-0.01,-0.05
7789,5511927,63.4409051,10.3488727,16.26,9.408,313.11,0.09,-0.15,-0.06
7876,5512267,63.4409053,10.3488715,16.15,9.289,312.75,0.21,-0.27,0.11
7963,5512607,63.440906,10.3488696,16.23,9.377,313.32,0.38,-0.36,0.06
8038,5512927,63.4409069,10.348867,16.2,9.342,313.1,0.41,-0.44,-0.14
8125,5513267,63.4409078,10.3488637,16.15,9.293,313.68,0.46,-0.44,0.11
8212,5513607,63.4409089,10.3488602,16.24,9.384,313.2,0.45,-0.46,0.02
8287,5513927,63.4409099,10.3488567,16.27,9.41,314.4,0.46,-0.49,-0.12
8374,5514267,63.4409112,10.3488527,16.26,9.401,315.28,0.49,-0.54,-0.07
8461,5514607,63.4409124,10.3488487,16.3,9.446,316.44,0.5,-0.52,-0.05
8536,5514927,63.4409137,10.3488449,16.34,9.482,318.14,0.49,-0.55,0.0
8623,5515267,63.4409151,10.348841,16.38,9.52,319.54,0.52,-0.51,-0.01
8710,5515607,63.4409166,10.3488374,16.36,9.5,319.94,0.48,-0.46,0.03
8785,5515927,63.440918,10.3488342,16.37,9.51,320.12,0.48,-0.46,-0.03
8872,5516267,63.4409195,10.3488311,16.37,9.517,320.76,0.53,-0.44,0.12
8958,5516587,63.440921,10.3488281,16.48,9.627,320.68,0.47,-0.47,-0.18
9034,5516927,63.4409225,10.3488248,16.44,9.582,321.22,0.5,-0.47,0.05
9121,5517267,63.4409241,10.3488216,16.47,9.617,321.12,0.51,-0.46,0.04
9207,5517587,63.4409256,10.3488186,16.55,9.699,321.32,0.5,-0.49,-0.18
9283,5517927,63.4409273,10.3488154,16.46,9.603,321.62,0.54,-0.49,-0.01
9370,5518267,63.4409289,10.3488118,16.54,9.684,321.47,0.48,-0.53,-0.17
9456,5518587,63.4409306,10.3488086,16.5,9.646,322.15,0.56,-0.5,0.12
9532,5518927,63.4409323,10.3488052,16.61,9.756,322.0,0.54,-0.5,-0.14
9619,5519267,63.4409342,10.3488019,16.57,9.713,321.34,0.55,-0.47,0.0
9705,5519587,63.4409358,10.3487992,16.56,9.708,320.6,0.49,-0.44,-0.02
9781,5519927,63.4409374,10.3487967,16.61,9.758,320.3,0.43,-0.37,0.08
9868,5520267,63.4409389,10.3487947,16.64,9.789,320.41,0.35,-0.28,-0.06
9955,5520607,63.4409401,10.3487935,16.6,9.743,320.54,0.23,-0.18,-0.06
9968,5520647,63.4409402,10.3487934,16.59,9.733,320.58,0.22,-0.17,-0.06
9982,5520667,63.4409403,10.3487933,16.58,9.727,320.59,0.21,-0.17,-0.06
9986,5520707,63.4409404,10.3487932,16.57,9.718,320.6,0.2,-0.16,-0.06
9999,5520747,63.4409405,10.3487932,16.56,9.707,320.56,0.18,-0.15,-0.05
10004,5520767,63.4409405,10.3487931,16.56,9.702,320.54,0.17,-0.15,-0.05
10017,5520807,63.4409406,10.3487931,16.55,9.692,320.46,0.16,-0.14,-0.05
10030,5520847,63.4409407,10.348793,16.54,9.683,320.38,0.14,-0.13,-0.06
10035,5520867,63.4409407,10.348793,16.53,9.678,320.34,0.13,-0.13,-0.06
10048,5520907,63.4409408,10.3487929,16.53,9.67,320.26,0.12,-0.12,-0.06
10062,5520947,63.4409409,10.3487929,16.52,9.663,320.19,0.1,-0.12,-0.06
10067,5520967,63.440941,10.3487929,16.51,9.659,320.16,0.1,-0.11,-0.06
10080,5521007,63.440941,10.3487929,16.51,9.653,320.11,0.09,-0.11,-0.06
10093,5521047,63.4409411,10.3487929,16.5,9.648,320.09,0.09,-0.11,-0.06
10098,5521067,63.4409411,10.3487929,16.5,9.645,320.09,0.08,-0.1,-0.06
10111,5521107,63.4409412,10.3487928,16.5,9.64,320.1,0.08,-0.1,-0.06
10124,5521147,63.4409413,10.3487929,16.49,9.635,320.14,0.08,-0.1,-0.06
10129,5521167,63.4409413,10.3487929,16.49,9.632,320.16,0.08,-0.1,-0.05
10142,5521207,63.4409414,10.3487929,16.48,9.627,320.22,0.08,-0.1,-0.05
10157,5521227,63.4409414,10.3487929,16.48,9.625,320.25,0.08,-0.1,-0.05
10163,5521267,63.4409415,10.3487928,16.47,9.617,320.31,0.08,-0.1,-0.04
10176,5521307,63.4409415,10.3487928,16.47,9.61,320.36,0.08,-0.11,-0.04
10180,5521327,63.4409416,10.3487928,16.46,9.606,320.38,0.08,-0.11,-0.05
10194,5521367,63.4409416,10.3487928,16.45,9.594,320.44,0.08,-0.12,-0.05
10209,5521407,63.4409417,10.3487928,16.44,9.584,320.49,0.07,-0.12,-0.06
10213,5521427,63.4409417,10.3487928,16.43,9.579,320.51,0.07,-0.12,-0.06
10227,5521467,63.4409418,10.3487927,16.42,9.563,320.58,0.06,-0.12,-0.07
10240,5521507,63.4409418,10.3487927,16.41,9.55,320.65,0.05,-0.11,-0.08
10244,5521527,63.4409418,10.3487927,16.4,9.544,320.7,0.05,-0.11,-0.08
10259,5521567,63.4409419,10.3487927,16.38,9.526,320.84,0.04,-0.1,-0.08
10273,5521607,63.4409419,10.3487927,16.37,9.51,321.02,0.03,-0.09,-0.09
10277,5521627,63.4409419,10.3487927,16.36,9.504,321.13,0.02,-0.09,-0.09
10291,5521667,63.440942,10.3487927,16.34,9.484,321.37,0.02,-0.08,-0.08
10304,5521707,63.440942,10.3487927,16.32,9.468,321.63,0.01,-0.07,-0.08
10308,5521727,63.440942,10.3487927,16.32,9.461,321.77,0.0,-0.06,-0.07
10322,5521767,63.440942,10.3487928,16.3,9.442,322.1,0.0,-0.04,-0.05
10335,5521807,63.4409421,10.3487928,16.28,9.425,322.47,0.0,-0.03,-0.03
10339,5521827,63.4409421,10.3487928,16.27,9.417,322.67,0.0,-0.03,-0.02
10353,5521867,63.4409421,10.3487929,16.26,9.4,323.09,0.0,-0.02,0.0
10365,5521887,63.4409421,10.3487929,16.25,9.393,323.31,0.0,-0.01,0.01
10380,5521927,63.4409421,10.348793,16.23,9.378,323.75,0.0,-0.01,0.04
10384,5521967,63.4409421,10.3487931,16.22,9.365,324.21,0.0,0.0,0.07
10397,5521987,63.4409421,10.3487931,16.21,9.359,324.44,0.0,0.0,0.08
10402,5522027,63.4409422,10.3487932,16.2,9.347,324.91,0.0,0.0,0.11
10416,5522067,63.4409422,10.3487932,16.19,9.339,325.41,0.01,0.01,0.14
10428,5522087,63.4409422,10.3487933,16.19,9.334,325.65,0.01,0.02,0.15
10433,5522127,63.4409422,10.3487933,16.18,9.326,326.15,0.01,0.03,0.17
10447,5522167,63.4409422,10.3487934,16.18,9.323,326.69,0.01,0.04,0.18
10459,5522187,63.4409423,10.3487935,16.18,9.321,326.96,0.01,0.05,0.18
10464,5522227,63.4409423,10.3487936,16.17,9.318,327.53,0.0,0.06,0.19
10479,5522267,63.4409423,10.3487937,16.17,9.318,328.13,0.0,0.07,0.18
10491,5522287,63.4409423,10.3487937,16.17,9.317,328.43,0.0,0.08,0.18
10496,5522327,63.4409423,10.3487939,16.17,9.317,329.05,0.0,0.09,0.17
10509,5522367,63.4409423,10.3487941,16.17,9.319,329.71,0.0,0.1,0.16
10524,5522387,63.4409424,10.3487942,16.17,9.319,330.03,0.0,0.11,0.15
10529,5522427,63.4409424,10.3487943,16.18,9.32,330.69,-0.01,0.12,0.13
10542,5522467,63.4409424,10.3487945,16.17,9.318,331.36,-0.01,0.13,0.11
10555,5522487,63.4409424,10.3487946,16.17,9.317,331.7,-0.01,0.14,0.11
10560,5522527,63.4409424,10.3487948,16.17,9.317,332.4,-0.02,0.15,0.1
10573,5522547,63.4409424,10.3487949,16.17,9.314,332.75,-0.02,0.15,0.1
10587,5522587,63.4409424,10.3487951,16.16,9.308,333.44,-0.03,0.16,0.09
10593,5522627,63.4409424,10.3487953,16.16,9.302,334.16,-0.03,0.17,0.09
10605,5522647,63.4409424,10.3487954,16.15,9.296,334.51,-0.03,0.17,0.1
10619,5522687,63.4409424,10.3487956,16.14,9.285,335.21,-0.03,0.18,0.1
10624,5522727,63.4409424,10.3487959,16.13,9.274,335.89,-0.03,0.19,0.11
10636,5522747,63.4409425,10.348796,16.12,9.267,336.23,-0.03,0.19,0.12
10650,5522787,63.4409425,10.3487962,16.11,9.254,336.88,-0.03,0.19,0.12
10655,5522827,63.4409425,10.3487964,16.1,9.242,337.53,-0.03,0.2,0.13
10667,5522847,63.4409425,10.3487966,16.09,9.236,337.85,-0.03,0.2,0.13
10681,5522887,63.4409425,10.3487968,16.08,9.225,338.48,-0.03,0.21,0.12
10686,5522927,63.4409425,10.348797,16.07,9.215,339.15,-0.04,0.22,0.11
10699,5522947,63.4409425,10.3487972,16.07,9.212,339.48,-0.04,0.22,0.11
10713,5522987,63.4409425,10.3487974,16.06,9.207,340.17,-0.04,0.23,0.09
10718,5523027,63.4409425,10.3487977,16.06,9.204,340.89,-0.05,0.23,0.07
10730,5523047,63.4409425,10.3487978,16.06,9.204,341.27,-0.05,0.23,0.06
10744,5523087,63.4409425,10.3487981,16.06,9.205,342.03,-0.06,0.23,0.03
10749,5523127,63.4409425,10.3487983,16.06,9.207,342.82,-0.06,0.23,0.01
10761,5523147,63.4409425,10.3487984,16.07,9.21,343.22,-0.06,0.22,0.0
10775,5523187,63.4409425,10.3487987,16.07,9.216,344.01,-0.06,0.21,-0.01
10779,5523207,63.4409425,10.3487988,16.07,9.219,344.42,-0.06,0.21,-0.02
10792,5523247,63.4409425,10.348799,16.08,9.225,345.19,-0.06,0.2,-0.04
10807,5523287,63.4409425,10.3487992,16.09,9.231,345.96,-0.05,0.19,-0.05
10811,5523307,63.4409425,10.3487993,16.09,9.234,346.33,-0.05,0.18,-0.06
10824,5523347,63.4409425,10.3487995,16.1,9.24,347.09,-0.04,0.17,-0.07
10840,5523387,63.4409425,10.3487997,16.1,9.244,347.83,-0.04,0.16,-0.07
10844,5523407,63.4409425,10.3487998,16.1,9.247,348.21,-0.04,0.15,-0.07
10858,5523447,63.4409425,10.3488,16.11,9.25,348.96,-0.04,0.14,-0.08
10871,5523487,63.4409425,10.3488001,16.11,9.254,349.73,-0.03,0.13,-0.08
10875,5523507,63.4409425,10.3488002,16.11,9.255,350.1,-0.03,0.12,-0.09
10889,5523547,63.4409425,10.3488004,16.11,9.258,350.85,-0.03,0.1,-0.1
10903,5523587,63.4409425,10.3488005,16.12,9.261,351.59,-0.03,0.09,-0.11
10908,5523607,63.4409425,10.3488006,16.12,9.262,351.95,-0.03,0.08,-0.11
10921,5523647,63.4409425,10.3488007,16.12,9.266,352.67,-0.03,0.06,-0.12
10935,5523687,63.4409425,10.3488008,16.12,9.269,353.37,-0.03,0.04,-0.13
10939,5523707,63.4409425,10.3488008,16.13,9.271,353.72,-0.03,0.04,-0.13
10952,5523747,63.4409425,10.3488009,16.13,9.274,354.4,-0.03,0.02,-0.12
10966,5523787,63.4409425,10.348801,16.13,9.276,355.1,-0.03,0.01,-0.11
10970,5523807,63.4409425,10.348801,16.13,9.277,355.43,-0.03,0.01,-0.1
10983,5523847,63.4409425,10.3488011,16.13,9.279,356.1,-0.03,0.0,-0.08
10988,5523867,63.4409425,10.3488011,16.13,9.279,356.43,-0.03,0.0,-0.06
11001,5523907,63.4409425,10.3488012,16.13,9.279,357.1,-0.03,0.0,-0.03
11015,5523947,63.4409425,10.3488013,16.13,9.278,357.77,-0.03,0.0,0.0
11020,5523967,63.4409425,10.3488013,16.13,9.277,358.1,-0.03,0.0,0.02
11033,5524007,63.4409425,10.3488013,16.13,9.274,358.78,-0.03,0.0,0.06
11046,5524047,63.4409425,10.3488014,16.13,9.272,359.48,-0.04,0.0,0.1
11051,5524067,63.4409425,10.3488014,16.13,9.271,359.86,-0.04,0.0,0.12
11064,5524107,63.4409425,10.3488015,16.12,9.268,0.56,-0.04,0.0,0.15
11077,5524147,63.4409425,10.3488016,16.12,9.268,1.3,-0.04,0.0,0.17
11082,5524167,63.4409425,10.3488016,16.12,9.268,1.68,-0.04,0.0,0.18
11095,5524207,63.4409425,10.3488017,16.12,9.268,2.43,-0.04,0.0,0.19
11108,5524247,63.4409425,10.3488017,16.13,9.27,3.19,-0.04,0.0,0.19
11114,5524267,63.4409425,10.3488018,16.13,9.272,3.58,-0.04,0.0,0.19
11127,5524307,63.4409425,10.3488018,16.13,9.275,4.35,-0.03,0.0,0.17
11140,5524347,63.4409425,10.3488019,16.14,9.281,5.14,-0.03,0.0,0.15
11145,5524367,63.4409425,10.3488019,16.14,9.284,5.53,-0.03,0.0,0.14
11160,5524407,63.4409425,10.348802,16.15,9.291,6.29,-0.02,0.0,0.11
11173,5524447,63.4409425,10.3488021,16.15,9.297,7.04,-0.02,0.0,0.08
11178,5524467,63.4409426,10.3488021,16.15,9.299,7.42,-0.02,0.0,0.06
11191,5524507,63.4409426,10.3488022,16.16,9.305,8.16,-0.01,0.0,0.04
11195,5524527,63.4409426,10.3488022,16.16,9.309,8.52,-0.01,0.0,0.03
11210,5524567,63.4409426,10.3488023,16.17,9.312,9.25,-0.01,0.0,0.0
11224,5524607,63.4409426,10.3488024,16.17,9.316,9.95,-0.01,0.0,0.0
11228,5524627,63.4409427,10.3488025,16.17,9.318,10.32,-0.01,0.0,-0.01
11242,5524667,63.4409427,10.3488025,16.17,9.317,11.0,0.0,0.0,-0.01
11255,5524707,63.4409427,10.3488026,16.17,9.317,11.67,0.0,0.01,-0.01
11259,5524727,63.4409427,10.3488026,16.17,9.317,12.0,0.0,0.01,-0.01
11273,5524767,63.4409427,10.3488027,16.17,9.315,12.64,0.0,0.01,-0.01
11286,5524807,63.4409428,10.3488028,16.17,9.312,13.25,0.0,0.02,0.0
11290,5524827,63.4409428,10.3488029,16.17,9.311,13.55,0.01,0.02,0.0
11303,5524867,63.4409428,10.3488029,16.16,9.309,14.14,0.01,0.02,0.01
11317,5524907,63.4409428,10.348803,16.16,9.306,14.72,0.02,0.03,0.02
11331,5524927,63.4409428,10.3488031,16.16,9.305,14.99,0.02,0.03,0.03
11336,5524967,63.4409429,10.3488032,16.16,9.307,15.54,0.03,0.04,0.04
11349,5525007,63.4409429,10.3488033,16.16,9.307,16.07,0.03,0.04,0.05
11353,5525027,63.4409429,10.3488033,16.16,9.307,16.33,0.04,0.04,0.05
11367,5525067,63.440943,10.3488034,16.17,9.313,16.85,0.04,0.05,0.06
11380,5525107,63.440943,10.3488035,16.17,9.318,17.35,0.04,0.05,0.06
11384,5525127,63.440943,10.3488036,16.18,9.32,17.6,0.04,0.06,0.06
11398,5525167,63.440943,10.3488037,16.19,9.33,18.09,0.04,0.06,0.06
11410,5525187,63.440943,10.3488037,16.19,9.335,18.34,0.04,0.06,0.06
11415,5525227,63.4409431,10.3488038,16.2,9.343,18.8,0.04,0.07,0.06
11430,5525267,63.4409431,10.3488039,16.21,9.355,19.24,0.04,0.07,0.06
11442,5525287,63.4409431,10.348804,16.22,9.36,19.44,0.04,0.07,0.05
11447,5525327,63.4409431,10.3488041,16.23,9.37,19.81,0.04,0.08,0.05
11461,5525367,63.4409432,10.3488042,16.24,9.38,20.13,0.05,0.08,0.04
11475,5525387,63.4409432,10.3488043,16.24,9.385,20.28,0.05,0.09,0.04
11480,5525427,63.4409432,10.3488044,16.25,9.394,20.54,0.05,0.09,0.03
11494,5525467,63.4409433,10.3488045,16.26,9.4,20.77,0.06,0.1,0.03
11506,5525487,63.4409433,10.3488045,16.26,9.403,20.87,0.06,0.1,0.03
11511,5525527,63.4409433,10.3488047,16.26,9.408,21.02,0.06,0.1,0.03
11526,5525567,63.4409434,10.3488048,16.26,9.409,21.11,0.07,0.1,0.03
11539,5525587,63.4409434,10.3488049,16.27,9.41,21.13,0.07,0.1,0.02
11544,5525627,63.4409434,10.348805,16.27,9.41,21.12,0.07,0.11,0.02
11558,5525667,63.4409435,10.3488051,16.26,9.407,21.06,0.08,0.11,0.02
11570,5525687,63.4409435,10.3488051,16.26,9.405,21.01,0.09,0.11,0.02
11575,5525727,63.4409435,10.3488053,16.26,9.402,20.88,0.09,0.11,0.02
11589,5525767,63.4409436,10.3488054,16.25,9.397,20.75,0.09,0.12,0.01
11601,5525787,63.4409436,10.3488054,16.25,9.394,20.67,0.09,0.12,0.01
11606,5525827,63.4409436,10.3488056,16.25,9.39,20.52,0.09,0.13,0.0
11618,5525847,63.4409436,10.3488056,16.24,9.387,20.44,0.09,0.13,0.0
11632,5525887,63.4409437,10.3488057,16.24,9.381,20.27,0.08,0.13,0.0
11647,5525927,63.4409437,10.3488059,16.23,9.377,20.06,0.07,0.13,0.0
11650,5525947,63.4409437,10.3488059,16.23,9.374,19.96,0.07,0.13,0.0
11664,5525987,63.4409437,10.348806,16.22,9.369,19.73,0.07,0.13,0.0
11669,5526027,63.4409438,10.3488061,16.22,9.365,19.48,0.07,0.13,-0.01
11681,5526047,63.4409438,10.3488062,16.22,9.362,19.34,0.07,0.13,-0.02
11695,5526087,63.4409438,10.3488063,16.21,9.357,19.06,0.08,0.13,-0.03
11700,5526127,63.4409438,10.3488064,16.21,9.353,18.76,0.09,0.14,-0.03
11712,5526147,63.4409439,10.3488065,16.21,9.351,18.61,0.09,0.14,-0.04
11726,5526187,63.4409439,10.3488066,16.2,9.346,18.28,0.1,0.14,-0.05
11731,5526227,63.4409439,10.3488067,16.2,9.343,17.93,0.11,0.14,-0.05
11743,5526247,63.4409439,10.3488067,16.2,9.341,17.76,0.11,0.13,-0.05
11758,5526287,63.440944,10.3488068,16.19,9.338,17.41,0.12,0.14,-0.06
11763,5526327,63.440944,10.3488069,16.19,9.335,17.09,0.13,0.14,-0.06
11775,5526347,63.440944,10.3488069,16.19,9.335,16.93,0.13,0.14,-0.06
11791,5526387,63.4409441,10.348807,16.19,9.334,16.62,0.14,0.13,-0.06
11796,5526427,63.4409441,10.3488071,16.19,9.334,16.33,0.15,0.13,-0.06
11808,5526447,63.4409441,10.3488072,16.19,9.336,16.19,0.15,0.13,-0.06
11822,5526487,63.4409442,10.3488073,16.19,9.339,15.92,0.16,0.13,-0.06
11826,5526507,63.4409442,10.3488073,16.2,9.341,15.79,0.17,0.13,-0.06
11840,5526547,63.4409443,10.3488074,16.2,9.346,15.55,0.19,0.13,-0.06
11854,5526587,63.4409443,10.3488074,16.21,9.353,15.36,0.21,0.13,-0.07
11859,5526607,63.4409444,10.3488075,16.21,9.357,15.28,0.22,0.14,-0.07
11872,5526647,63.4409444,10.3488076,16.22,9.365,15.15,0.25,0.14,-0.07
11886,5526687,63.4409445,10.3488077,16.23,9.374,15.04,0.28,0.15,-0.07
11890,5526707,63.4409446,10.3488077,16.23,9.378,14.99,0.29,0.14,-0.07
11903,5526747,63.4409446,10.3488078,16.24,9.386,14.9,0.32,0.15,-0.06
11917,5526787,63.4409447,10.3488079,16.25,9.393,14.81,0.35,0.15,-0.05
11921,5526807,63.4409448,10.3488079,16.25,9.396,14.76,0.36,0.15,-0.04
11934,5526847,63.4409449,10.348808,16.26,9.4,14.69,0.39,0.15,-0.03
11948,5526887,63.4409451,10.3488081,16.26,9.402,14.63,0.41,0.16,0.0
11952,5526907,63.4409451,10.3488081,16.26,9.403,14.61,0.42,0.16,0.0
11966,5526947,63.4409453,10.3488082,16.26,9.402,14.59,0.45,0.16,0.02
11980,5526987,63.4409454,10.3488083,16.26,9.4,14.59,0.47,0.17,0.04
11984,5527007,63.4409455,10.3488083,16.25,9.398,14.61,0.47,0.17,0.05
11997,5527047,63.4409457,10.3488084,16.25,9.395,14.66,0.49,0.17,0.07
12011,5527087,63.4409458,10.3488085,16.25,9.392,14.74,0.51,0.17,0.08
12015,5527107,63.4409459,10.3488086,16.25,9.391,14.79,0.52,0.17,0.07
12028,5527147,63.4409461,10.3488087,16.25,9.39,14.91,0.53,0.17,0.07
12033,5527167,63.4409462,10.3488087,16.25,9.391,14.98,0.53,0.17,0.06
12046,5527207,63.4409464,10.3488088,16.25,9.392,15.11,0.54,0.17,0.03
12059,5527247,63.4409466,10.3488089,16.25,9.397,15.25,0.55,0.16,0.0
12065,5527267,63.4409467,10.348809,16.26,9.401,15.32,0.55,0.16,-0.01
12078,5527307,63.4409469,10.3488091,16.26,9.408,15.43,0.56,0.16,-0.05
12091,5527347,63.4409471,10.3488091,16.27,9.419,15.54,0.57,0.15,-0.08
12096,5527367,63.4409472,10.3488092,16.28,9.425,15.59,0.57,0.15,-0.1
12111,5527407,63.4409474,10.3488092,16.29,9.437,15.68,0.57,0.14,-0.12
12124,5527447,63.4409476,10.3488093,16.3,9.449,15.76,0.57,0.14,-0.14
12129,5527467,63.4409477,10.3488093,16.31,9.455,15.8,0.57,0.14,-0.14
12142,5527507,63.4409479,10.3488094,16.32,9.467,15.9,0.57,0.14,-0.13
12156,5527547,63.4409481,10.3488095,16.33,9.477,16.0,0.58,0.14,-0.12
12161,5527567,63.4409482,10.3488095,16.34,9.481,16.07,0.58,0.14,-0.1
12175,5527607,63.4409484,10.3488096,16.34,9.488,16.22,0.58,0.15,-0.07
12188,5527647,63.4409486,10.3488097,16.35,9.494,16.39,0.59,0.16,-0.02
12193,5527667,63.4409487,10.3488097,16.35,9.497,16.49,0.6,0.16,0.0
12206,5527707,63.4409489,10.3488098,16.36,9.5,16.69,0.61,0.17,0.04
12219,5527747,63.4409492,10.3488099,16.36,9.502,16.9,0.62,0.18,0.08
12224,5527767,63.4409493,10.3488099,16.36,9.504,17.01,0.63,0.19,0.1
12237,5527807,63.4409495,10.34881,16.36,9.504,17.19,0.64,0.19,0.14
12241,5527827,63.4409496,10.3488101,16.36,9.504,17.28,0.64,0.2,0.15
12255,5527867,63.4409498,10.3488102,16.36,9.509,17.42,0.65,0.2,0.15
12268,5527907,63.4409501,10.3488103,16.37,9.512,17.51,0.65,0.2,0.14
12282,5527927,63.4409502,10.3488103,16.37,9.514,17.55,0.65,0.2,0.13
12287,5527967,63.4409504,10.3488104,16.38,9.528,17.61,0.65,0.19,0.09
12300,5528007,63.4409507,10.3488105,16.4,9.541,17.64,0.64,0.19,0.04
12304,5528027,63.4409508,10.3488106,16.4,9.547,17.66,0.63,0.18,0.01
12318,5528067,63.440951,10.3488107,16.42,9.568,17.7,0.62,0.18,-0.04
12331,5528107,63.4409512,10.3488108,16.44,9.588,17.74,0.6,0.17,-0.1
12335,5528127,63.4409514,10.3488108,16.45,9.599,17.77,0.6,0.17,-0.13
12349,5528167,63.4409516,10.3488109,16.48,9.621,17.85,0.58,0.16,-0.17
12362,5528207,63.4409518,10.348811,16.5,9.642,17.94,0.57,0.17,-0.2
12366,5528227,63.4409519,10.348811,16.51,9.652,17.99,0.57,0.17,-0.2
12381,5528267,63.4409521,10.3488111,16.52,9.663,18.11,0.57,0.17,-0.2
12394,5528307,63.4409524,10.3488112,16.53,9.673,18.23,0.57,0.18,-0.17
12398,5528327,63.4409525,10.3488113,16.53,9.677,18.3,0.57,0.18,-0.15
12412,5528367,63.4409527,10.3488114,16.53,9.67,18.45,0.58,0.2,-0.1
12427,5528407,63.4409529,10.3488115,16.52,9.663,18.59,0.59,0.21,-0.04
12431,5528427,63.440953,10.3488116,16.51,9.658,18.67,0.59,0.22,-0.01
12445,5528467,63.4409532,10.3488117,16.49,9.639,18.82,0.6,0.23,0.05
12457,5528487,63.4409534,10.3488118,16.48,9.629,18.89,0.61,0.24,0.08
12462,5528527,63.4409536,10.348812,16.46,9.608,19.01,0.61,0.26,0.14
12477,5528567,63.4409538,10.3488121,16.44,9.586,19.13,0.62,0.27,0.19
12490,5528587,63.4409539,10.3488122,16.43,9.575,19.17,0.62,0.28,0.21
12495,5528627,63.4409542,10.3488124,16.41,9.553,19.25,0.63,0.29,0.24
12509,5528667,63.4409544,10.3488126,16.4,9.541,19.31,0.63,0.3,0.25
12521,5528687,63.4409545,10.3488127,16.39,9.535,19.33,0.64,0.3,0.25
12526,5528727,63.4409548,10.3488129,16.38,9.523,19.36,0.64,0.31,0.23
12540,5528767,63.440955,10.3488131,16.38,9.527,19.39,0.64,0.32,0.2
12552,5528787,63.4409551,10.3488132,16.38,9.529,19.4,0.64,0.32,0.18
12557,5528827,63.4409554,10.3488134,16.39,9.534,19.43,0.64,0.33,0.14
12571,5528867,63.4409556,10.3488137,16.41,9.55,19.47,0.64,0.34,0.08
12583,5528887,63.4409557,10.3488138,16.41,9.557,19.48,0.64,0.34,0.06
12598,5528927,63.440956,10.348814,16.43,9.573,19.52,0.63,0.34,0.0
12603,5528967,63.4409562,10.3488143,16.45,9.595,19.56,0.63,0.35,-0.04
12615,5528987,63.4409564,10.3488144,16.46,9.606,19.57,0.63,0.35,-0.07
12620,5529027,63.4409566,10.3488147,16.48,9.626,19.58,0.63,0.35,-0.11
12634,5529067,63.4409568,10.348815,16.5,9.645,19.57,0.62,0.35,-0.15
12646,5529087,63.440957,10.3488151,16.51,9.654,19.55,0.62,0.34,-0.16
12651,5529127,63.4409572,10.3488154,16.53,9.671,19.5,0.62,0.34,-0.18
12663,5529147,63.4409573,10.3488155,16.53,9.676,19.46,0.62,0.34,-0.19
12677,5529187,63.4409576,10.3488158,16.54,9.685,19.35,0.62,0.34,-0.2
12682,5529227,63.4409578,10.348816,16.55,9.695,19.22,0.62,0.33,-0.2
12696,5529247,63.4409579,10.3488161,16.55,9.695,19.15,0.62,0.33,-0.19
12709,5529287,63.4409582,10.3488164,16.55,9.695,18.97,0.62,0.32,-0.18
12714,5529327,63.4409584,10.3488166,16.55,9.696,18.79,0.62,0.31,-0.17
12726,5529347,63.4409585,10.3488168,16.55,9.692,18.7,0.62,0.31,-0.16
12742,5529387,63.4409587,10.348817,16.54,9.685,18.5,0.61,0.3,-0.15
12747,5529427,63.440959,10.3488172,16.54,9.68,18.28,0.61,0.29,-0.14
12759,5529447,63.4409591,10.3488173,16.53,9.676,18.18,0.61,0.28,-0.14
12773,5529487,63.4409593,10.3488175,16.52,9.668,17.96,0.6,0.27,-0.14
12778,5529527,63.4409595,10.3488177,16.52,9.662,17.75,0.6,0.26,-0.14
12791,5529547,63.4409597,10.3488178,16.51,9.658,17.65,0.6,0.25,-0.14
12806,5529587,63.4409599,10.348818,16.51,9.651,17.44,0.59,0.23,-0.14
12811,5529627,63.4409601,10.3488182,16.5,9.646,17.25,0.59,0.22,-0.14
12823,5529647,63.4409602,10.3488183,16.5,9.644,17.16,0.59,0.21,-0.14
12837,5529687,63.4409604,10.3488185,16.49,9.639,17.02,0.59,0.2,-0.14
12842,5529727,63.4409607,10.3488186,16.49,9.636,16.91,0.59,0.19,-0.14
12854,5529747,63.4409608,10.3488187,16.49,9.634,16.87,0.59,0.18,-0.14
12868,5529787,63.440961,10.3488188,16.49,9.631,16.84,0.59,0.17,-0.14
12872,5529807,63.4409611,10.3488189,16.49,9.63,16.84,0.59,0.16,-0.13
12885,5529847,63.4409614,10.348819,16.48,9.627,16.86,0.6,0.15,-0.13
12899,5529887,63.4409616,10.3488191,16.48,9.624,16.93,0.6,0.14,-0.12
12903,5529907,63.4409617,10.3488192,16.48,9.623,16.96,0.6,0.14,-0.11
12917,5529947,63.4409619,10.3488193,16.48,9.62,17.07,0.61,0.14,-0.1
12931,5529987,63.4409622,10.3488194,16.47,9.617,17.19,0.61,0.13,-0.08
12935,5530007,63.4409623,10.3488195,16.47,9.615,17.26,0.61,0.13,-0.07
12948,5530047,63.4409625,10.3488196,16.47,9.613,17.42,0.61,0.12,-0.06
12962,5530087,63.4409627,10.3488197,16.47,9.611,17.59,0.61,0.12,-0.05
12966,5530107,63.4409628,10.3488198,16.47,9.61,17.69,0.61,0.12,-0.04
12979,5530147,63.4409631,10.3488199,16.46,9.609,17.89,0.62,0.12,-0.03
12993,5530187,63.4409633,10.34882,16.47,9.61,18.1,0.62,0.12,-0.02
12997,5530207,63.4409634,10.34882,16.47,9.61,18.21,0.62,0.12,-0.01
13010,5530247,63.4409637,10.3488201,16.47,9.612,18.43,0.62,0.13,0.0
13025,5530287,63.4409639,10.3488202,16.47,9.615,18.67,0.62,0.13,0.0
13029,5530307,63.440964,10.3488203,16.47,9.616,18.79,0.62,0.13,0.01
13042,5530347,63.4409642,10.3488204,16.48,9.62,19.05,0.63,0.14,0.03
13058,5530387,63.4409645,10.3488205,16.48,9.624,19.31,0.63,0.15,0.04
13062,5530407,63.4409646,10.3488205,16.48,9.626,19.45,0.63,0.15,0.05
13075,5530447,63.4409648,10.3488207,16.49,9.631,19.73,0.64,0.16,0.07
13080,5530467,63.4409649,10.3488207,16.49,9.633,19.88,0.64,0.17,0.07
13093,5530507,63.4409652,10.3488209,16.49,9.637,20.17,0.64,0.18,0.09
13107,5530547,63.4409654,10.348821,16.5,9.642,20.47,0.65,0.19,0.1
13112,5530567,63.4409655,10.3488211,16.5,9.645,20.62,0.65,0.19,0.1
13126,5530607,63.4409658,10.3488212,16.51,9.65,20.9,0.66,0.2,0.1
13139,5530647,63.440966,10.3488214,16.51,9.656,21.19,0.66,0.22,0.1
13144,5530667,63.4409662,10.3488215,16.52,9.66,21.33,0.66,0.22,0.09
13157,5530707,63.4409664,10.3488217,16.52,9.666,21.59,0.66,0.23,0.07
13170,5530747,63.4409666,10.3488218,16.53,9.673,21.84,0.66,0.24,0.05
13175,5530767,63.4409668,10.3488219,16.53,9.678,21.97,0.66,0.24,0.04
13188,5530807,63.440967,10.3488221,16.54,9.687,22.2,0.65,0.25,0.01
13201,5530847,63.4409673,10.3488223,16.55,9.696,22.43,0.64,0.26,-0.02
13206,5530867,63.4409674,10.3488224,16.56,9.701,22.54,0.64,0.26,-0.04
13219,5530907,63.4409676,10.3488227,16.57,9.711,22.74,0.63,0.27,-0.07
13233,5530947,63.4409679,10.3488229,16.58,9.72,22.93,0.62,0.27,-0.1
13238,5530967,63.440968,10.348823,16.58,9.724,23.01,0.62,0.27,-0.12
13251,5531007,63.4409682,10.3488232,16.59,9.732,23.16,0.61,0.28,-0.14
13264,5531047,63.4409684,10.3488234,16.59,9.737,23.28,0.6,0.28,-0.15
13269,5531067,63.4409686,10.3488235,16.59,9.737,23.33,0.6,0.28,-0.15
13282,5531107,63.4409688,10.3488237,16.59,9.739,23.41,0.6,0.28,-0.15
13286,5531127,63.4409689,10.3488238,16.59,9.739,23.45,0.6,0.28,-0.14
13300,5531167,63.4409691,10.3488241,16.59,9.731,23.5,0.6,0.29,-0.12
13313,5531207,63.4409693,10.3488243,16.58,9.723,23.53,0.61,0.29,-0.09
13317,5531227,63.4409695,10.3488244,16.57,9.719,23.54,0.61,0.29,-0.08
13332,5531267,63.4409697,10.3488247,16.56,9.704,23.54,0.61,0.3,-0.05
13345,5531307,63.4409699,10.3488249,16.54,9.689,23.53,0.61,0.3,-0.02
13349,5531327,63.44097,10.348825,16.54,9.682,23.52,0.61,0.3,0.0
13363,5531367,63.4409702,10.3488252,16.52,9.665,23.51,0.61,0.3,0.01
13378,5531407,63.4409704,10.3488254,16.5,9.649,23.48,0.61,0.31,0.03
13382,5531427,63.4409705,10.3488255,16.5,9.642,23.47,0.6,0.31,0.04
13396,5531467,63.4409707,10.3488257,16.49,9.63,23.43,0.6,0.31,0.05
13409,5531507,63.440971,10.348826,16.47,9.619,23.38,0.6,0.31,0.06
13422,5531527,63.4409711,10.3488261,16.47,9.614,23.35,0.59,0.31,0.06
13437,5531567,63.4409713,10.3488263,16.47,9.612,23.27,0.59,0.32,0.05
13442,5531607,63.4409714,10.3488266,16.47,9.61,23.18,0.59,0.32,0.05
13446,5531627,63.4409715,10.3488267,16.46,9.609,23.13,0.58,0.32,0.05
13460,5531667,63.4409717,10.3488269,16.47,9.615,23.03,0.58,0.32,0.04
13473,5531707,63.4409719,10.3488272,16.48,9.62,22.93,0.58,0.31,0.03
13477,5531727,63.440972,10.3488273,16.48,9.622,22.89,0.58,0.32,0.03
13492,5531767,63.4409723,10.3488275,16.49,9.632,22.8,0.58,0.32,0.02
13504,5531787,63.4409724,10.3488277,16.49,9.636,22.75,0.58,0.32,0.02
13509,5531827,63.4409726,10.3488279,16.5,9.644,22.67,0.59,0.32,0.01
13523,5531867,63.4409728,10.3488282,16.51,9.652,22.59,0.59,0.32,0.01
13535,5531887,63.4409729,10.3488283,16.51,9.655,22.55,0.6,0.32,0.01
13541,5531927,63.4409731,10.3488285,16.52,9.662,22.47,0.6,0.32,0.01
13555,5531967,63.4409733,10.3488288,16.52,9.667,22.37,0.61,0.32,0.0
13567,5531987,63.4409734,10.3488289,16.52,9.669,22.32,0.61,0.32,0.0
13572,5532027,63.4409737,10.3488292,16.53,9.673,22.21,0.62,0.32,0.0
13586,5532067,63.4409739,10.3488295,16.53,9.676,22.1,0.62,0.32,-0.01
13598,5532087,63.440974,10.3488296,16.53,9.678,22.04,0.62,0.32,-0.02
13603,5532127,63.4409742,10.3488299,16.54,9.681,21.94,0.61,0.31,-0.04
13617,5532167,63.4409745,10.3488301,16.54,9.684,21.84,0.61,0.31,-0.06
13629,5532187,63.4409746,10.3488303,16.54,9.686,21.79,0.61,0.31,-0.07
13634,5532227,63.4409748,10.3488305,16.55,9.691,21.7,0.6,0.3,-0.09
13649,5532267,63.440975,10.3488308,16.55,9.694,21.61,0.6,0.3,-0.11
13661,5532287,63.4409751,10.3488309,16.55,9.696,21.56,0.6,0.3,-0.12
13666,5532327,63.4409753,10.3488311,16.56,9.701,21.46,0.6,0.3,-0.13
13680,5532367,63.4409756,10.3488314,16.56,9.703,21.35,0.6,0.29,-0.14
13694,5532387,63.4409757,10.3488315,16.56,9.704,21.29,0.6,0.29,-0.14
13699,5532427,63.4409759,10.3488318,16.56,9.707,21.17,0.61,0.29,-0.14
13712,5532447,63.440976,10.3488319,16.56,9.706,21.11,0.61,0.28,-0.13
13725,5532487,63.4409762,10.3488321,16.56,9.705,21.0,0.61,0.28,-0.12
13730,5532527,63.4409765,10.3488323,16.56,9.703,20.89,0.61,0.28,-0.11
13743,5532547,63.4409766,10.3488324,16.56,9.7,20.84,0.62,0.28,-0.1
13758,5532587,63.4409768,10.3488327,16.55,9.695,20.75,0.62,0.27,-0.08
13763,5532627,63.440977,10.3488329,16.55,9.691,20.66,0.62,0.27,-0.06
13775,5532647,63.4409771,10.348833,16.54,9.689,20.63,0.62,0.27,-0.05
13789,5532687,63.4409774,10.3488332,16.54,9.684,20.57,0.62,0.26,-0.03
13794,5532727,63.4409776,10.3488334,16.53,9.679,20.51,0.62,0.26,-0.02
13806,5532747,63.4409777,10.3488335,16.53,9.679,20.5,0.62,0.26,-0.01
13820,5532787,63.4409779,10.3488338,16.53,9.677,20.47,0.62,0.25,0.0
13825,5532827,63.4409782,10.348834,16.53,9.676,20.45,0.62,0.25,0.0
13837,5532847,63.4409783,10.3488341,16.53,9.678,20.45,0.62,0.25,0.0
13851,5532887,63.4409785,10.3488343,16.54,9.682,20.45,0.63,0.25,0.01
13857,5532927,63.4409787,10.3488345,16.54,9.685,20.47,0.63,0.25,0.01
13869,5532947,63.4409789,10.3488346,16.55,9.69,20.49,0.63,0.25,0.01
13883,5532987,63.4409791,10.3488348,16.55,9.699,20.53,0.63,0.25,0.02
13888,5533027,63.4409793,10.3488351,16.56,9.707,20.58,0.64,0.25,0.02
13900,5533047,63.4409794,10.3488352,16.57,9.712,20.61,0.64,0.25,0.02
13914,5533087,63.4409797,10.3488354,16.58,9.722,20.68,0.65,0.26,0.02
13918,5533107,63.4409798,10.3488355,16.58,9.727,20.71,0.65,0.26,0.01
13932,5533147,63.44098,10.3488357,16.59,9.736,20.78,0.65,0.26,0.01
13945,5533187,63.4409803,10.348836,16.6,9.744,20.85,0.66,0.26,0.01
13949,5533207,63.4409804,10.3488361,16.6,9.748,20.89,0.66,0.26,0.01
13964,5533247,63.4409806,10.3488363,16.61,9.754,20.97,0.66,0.27,0.0
13977,5533287,63.4409809,10.3488365,16.61,9.759,21.05,0.66,0.27,0.0
13981,5533307,63.440981,10.3488366,16.62,9.761,21.09,0.66,0.28,0.0
13995,5533347,63.4409812,10.3488369,16.62,9.764,21.19,0.66,0.28,0.0
14011,5533387,63.4409815,10.3488372,16.62,9.767,21.28,0.66,0.29,-0.01
14025,5533407,63.4409816,10.3488373,16.62,9.768,21.33,0.66,0.29,-0.01
14028,5533447,63.4409818,10.3488376,16.62,9.769,21.42,0.66,0.29,-0.02
14042,5533487,63.4409821,10.3488378,16.63,9.771,21.51,0.66,0.29,-0.03
14045,5533507,63.4409822,10.3488379,16.63,9.771,21.55,0.66,0.29,-0.04
14059,5533547,63.4409824,10.3488382,16.63,9.773,21.62,0.66,0.29,-0.06
14073,5533587,63.4409827,10.3488385,16.63,9.776,21.68,0.66,0.29,-0.07
14078,5533607,63.4409828,10.3488386,16.63,9.777,21.7,0.65,0.29,-0.08
14092,5533647,63.440983,10.3488388,16.64,9.78,21.75,0.65,0.29,-0.1
14105,5533687,63.4409833,10.3488391,16.64,9.784,21.79,0.65,0.28,-0.12
14109,5533707,63.4409834,10.3488392,16.64,9.786,21.8,0.64,0.28,-0.13
14123,5533747,63.4409836,10.3488395,16.64,9.789,21.82,0.64,0.27,-0.15
14127,5533767,63.4409838,10.3488396,16.65,9.791,21.84,0.64,0.27,-0.16
14140,5533807,63.440984,10.3488398,16.65,9.795,21.85,0.63,0.26,-0.17
14153,5533847,63.4409842,10.34884,16.65,9.798,21.87,0.62,0.26,-0.18
14158,5533867,63.4409843,10.3488402,16.65,9.799,21.88,0.63,0.26,-0.19
14171,5533907,63.4409846,10.3488404,16.66,9.802,21.89,0.62,0.25,-0.19
14187,5533947,63.4409848,10.3488406,16.66,9.803,21.91,0.62,0.25,-0.18
14190,5533967,63.4409849,10.3488407,16.66,9.802,21.92,0.62,0.24,-0.18
14203,5534007,63.4409851,10.3488409,16.66,9.802,21.93,0.62,0.24,-0.17
14216,5534047,63.4409854,10.3488411,16.66,9.801,21.96,0.62,0.24,-0.15
14221,5534067,63.4409855,10.3488412,16.65,9.799,21.97,0.62,0.24,-0.14
14234,5534107,63.4409857,10.3488414,16.65,9.797,22.0,0.61,0.24,-0.12
14247,5534147,63.4409859,10.3488416,16.65,9.793,22.03,0.61,0.25,-0.09
14252,5534167,63.4409861,10.3488417,16.65,9.79,22.06,0.61,0.25,-0.08
14265,5534207,63.4409863,10.3488419,16.64,9.786,22.09,0.61,0.25,-0.06
14279,5534247,63.4409865,10.3488421,16.64,9.783,22.12,0.61,0.25,-0.04
14284,5534267,63.4409866,10.3488422,16.64,9.782,22.13,0.6,0.25,-0.03
14297,5534307,63.4409868,10.3488424,16.64,9.78,22.15,0.6,0.25,-0.01
14310,5534347,63.4409871,10.3488426,16.64,9.781,22.17,0.59,0.26,0.0
14324,5534367,63.4409872,10.3488427,16.64,9.783,22.17,0.6,0.26,0.0
14340,5534407,63.4409874,10.3488429,16.64,9.787,22.18,0.6,0.26,0.0
14343,5534427,63.4409875,10.348843,16.64,9.788,22.19,0.59,0.26,0.01
14357,5534467,63.4409877,10.3488432,16.65,9.798,22.21,0.59,0.26,0.01
14361,5534507,63.440988,10.3488434,16.66,9.807,22.24,0.59,0.26,0.02
14365,5534527,63.4409881,10.3488435,16.67,9.811,22.25,0.6,0.26,0.02
14380,5534567,63.4409883,10.3488437,16.68,9.823,22.29,0.6,0.26,0.02
14394,5534607,63.4409885,10.348844,16.69,9.832,22.32,0.61,0.27,0.02
14398,5534627,63.4409886,10.3488441,16.69,9.837,22.33,0.61,0.27,0.02
14412,5534667,63.4409889,10.3488443,16.7,9.845,22.37,0.61,0.27,0.03
14425,5534707,63.4409891,10.3488445,16.71,9.851,22.41,0.61,0.28,0.03
14429,5534727,63.4409892,10.3488447,16.71,9.854,22.44,0.61,0.28,0.03
14443,5534767,63.4409895,10.3488449,16.71,9.859,22.48,0.62,0.29,0.04
14456,5534807,63.4409897,10.3488451,16.72,9.862,22.53,0.62,0.3,0.05
14460,5534827,63.4409898,10.3488453,16.72,9.863,22.55,0.62,0.3,0.05
14474,5534867,63.44099,10.3488455,16.72,9.865,22.61,0.62,0.31,0.06
14487,5534907,63.4409903,10.3488458,16.72,9.866,22.67,0.62,0.32,0.06
14492,5534927,63.4409904,10.3488459,16.72,9.867,22.69,0.62,0.33,0.07
14506,5534967,63.4409906,10.3488462,16.73,9.87,22.75,0.62,0.34,0.07
14519,5535007,63.4409909,10.3488465,16.73,9.873,22.78,0.62,0.35,0.07
14523,5535027,63.440991,10.3488466,16.73,9.874,22.79,0.62,0.35,0.07
14537,5535067,63.4409912,10.3488469,16.74,9.88,22.8,0.62,0.36,0.06
14549,5535087,63.4409913,10.3488471,16.74,9.883,22.8,0.62,0.36,0.05
14554,5535127,63.4409916,10.3488474,16.74,9.889,22.78,0.62,0.37,0.04
14568,5535167,63.4409918,10.3488477,16.75,9.897,22.76,0.62,0.37,0.02
14580,5535187,63.4409919,10.3488479,16.76,9.9,22.74,0.63,0.37,0.01
14585,5535227,63.4409922,10.3488482,16.76,9.907,22.7,0.63,0.37,0.0
14600,5535267,63.4409924,10.3488485,16.77,9.913,22.66,0.63,0.37,-0.01
14612,5535287,63.4409925,10.3488487,16.77,9.916,22.63,0.63,0.37,-0.02
14617,5535327,63.4409928,10.348849,16.78,9.922,22.56,0.64,0.37,-0.03
14631,5535367,63.440993,10.3488493,16.78,9.924,22.49,0.64,0.37,-0.03
14645,5535387,63.4409931,10.3488495,16.78,9.925,22.44,0.64,0.37,-0.04
14650,5535427,63.4409934,10.3488498,16.78,9.927,22.35,0.65,0.37,-0.04
14664,5535467,63.4409936,10.3488501,16.78,9.924,22.26,0.65,0.37,-0.05
14676,5535487,63.4409937,10.3488503,16.78,9.923,22.2,0.65,0.37,-0.05
14681,5535527,63.440994,10.3488506,16.78,9.922,22.09,0.65,0.38,-0.05
14696,5535567,63.4409942,10.3488509,16.77,9.918,21.98,0.65,0.38,-0.05
14709,5535587,63.4409944,10.3488511,16.77,9.917,21.92,0.65,0.38,-0.06
14714,5535627,63.4409946,10.3488514,16.77,9.914,21.81,0.65,0.38,-0.06
14728,5535667,63.4409949,10.3488517,16.77,9.913,21.69,0.65,0.37,-0.08
14740,5535687,63.440995,10.3488519,16.77,9.913,21.63,0.65,0.37,-0.09
14745,5535727,63.4409952,10.3488522,16.77,9.914,21.51,0.65,0.37,-0.11
14757,5535747,63.4409954,10.3488524,16.77,9.916,21.44,0.65,0.36,-0.12
14771,5535787,63.4409956,10.3488527,16.78,9.92,21.31,0.64,0.36,-0.14
14776,5535827,63.4409958,10.348853,16.78,9.925,21.17,0.64,0.35,-0.15
14788,5535847,63.440996,10.3488532,16.78,9.929,21.11,0.64,0.35,-0.16
14802,5535887,63.4409962,10.3488535,16.79,9.936,20.97,0.65,0.34,-0.17
14808,5535927,63.4409965,10.3488538,16.8,9.943,20.82,0.65,0.33,-0.16
14820,5535947,63.4409966,10.3488539,16.8,9.946,20.75,0.66,0.33,-0.16
14834,5535987,63.4409968,10.3488542,16.81,9.952,20.6,0.66,0.32,-0.15
14839,5536027,63.4409971,10.3488545,16.81,9.957,20.46,0.67,0.32,-0.13
14851,5536047,63.4409972,10.3488546,16.81,9.958,20.38,0.67,0.32,-0.12
14865,5536087,63.4409974,10.3488549,16.81,9.959,20.25,0.68,0.31,-0.1
14870,5536127,63.4409977,10.3488551,16.82,9.96,20.12,0.68,0.31,-0.08
14882,5536147,63.4409978,10.3488553,16.81,9.958,20.07,0.68,0.31,-0.07
14896,5536187,63.4409981,10.3488555,16.81,9.956,19.96,0.68,0.3,-0.05
14901,5536227,63.4409983,10.3488558,16.81,9.954,19.87,0.68,0.3,-0.05
14915,5536247,63.4409985,10.3488559,16.81,9.953,19.83,0.68,0.3,-0.05
14928,5536287,63.4409987,10.3488562,16.81,9.953,19.75,0.67,0.29,-0.05
14933,5536327,63.4409989,10.3488564,16.81,9.953,19.67,0.67,0.29,-0.06
14945,5536347,63.4409991,10.3488565,16.81,9.955,19.64,0.66,0.29,-0.06
14961,5536387,63.4409993,10.3488568,16.82,9.96,19.58,0.65,0.28,-0.08
14965,5536407,63.4409994,10.3488569,16.82,9.962,19.55,0.65,0.28,-0.08
14978,5536447,63.4409997,10.3488571,16.82,9.969,19.49,0.65,0.28,-0.09
14992,5536487,63.4409999,10.3488574,16.83,9.977,19.44,0.64,0.27,-0.09
14996,5536507,63.441,10.3488575,16.84,9.981,19.41,0.64,0.27,-0.1
15010,5536547,63.4410003,10.3488577,16.84,9.988,19.37,0.63,0.28,-0.09
15025,5536587,63.4410005,10.348858,16.85,9.994,19.34,0.63,0.27,-0.08
15029,5536607,63.4410006,10.3488581,16.85,9.996,19.33,0.63,0.27,-0.08
15042,5536647,63.4410009,10.3488584,16.85,9.998,19.32,0.63,0.27,-0.06
15056,5536687,63.4410011,10.3488586,16.85,9.997,19.33,0.64,0.28,-0.04
15060,5536707,63.4410012,10.3488587,16.85,9.996,19.33,0.64,0.28,-0.03
15073,5536747,63.4410015,10.348859,16.84,9.989,19.35,0.65,0.28,-0.01
15087,5536787,63.4410017,10.3488592,16.83,9.979,19.39,0.65,0.29,0.0
15091,5536807,63.4410019,10.3488593,16.83,9.974,19.41,0.65,0.29,0.01
15104,5536847,63.4410021,10.3488596,16.82,9.961,19.46,0.65,0.29,0.02
15118,5536887,63.4410023,10.3488598,16.8,9.946,19.51,0.66,0.29,0.02
15124,5536907,63.4410025,10.34886,16.79,9.939,19.53,0.66,0.29,0.02
15136,5536947,63.4410027,10.3488602,16.78,9.926,19.58,0.66,0.29,0.01
15150,5536987,63.441003,10.3488605,16.77,9.912,19.63,0.66,0.29,0.0
15154,5537007,63.4410031,10.3488606,16.76,9.906,19.66,0.66,0.29,-0.01
15167,5537047,63.4410033,10.3488609,16.75,9.896,19.72,0.66,0.28,-0.03
15172,5537067,63.4410034,10.348861,16.75,9.891,19.76,0.66,0.28,-0.04
15185,5537107,63.4410037,10.3488612,16.74,9.884,19.83,0.66,0.28,-0.06
15198,5537147,63.4410039,10.3488615,16.73,9.878,19.92,0.66,0.28,-0.07
15203,5537167,63.4410041,10.3488616,16.73,9.876,19.97,0.66,0.27,-0.08
15216,5537207,63.4410043,10.3488618,16.73,9.872,20.06,0.66,0.27,-0.09
15229,5537247,63.4410046,10.3488621,16.73,9.87,20.15,0.65,0.27,-0.1
15235,5537267,63.4410047,10.3488622,16.72,9.869,20.2,0.65,0.27,-0.1
15248,5537307,63.4410049,10.3488624,16.72,9.868,20.3,0.64,0.27,-0.1
15261,5537347,63.4410052,10.3488626,16.72,9.866,20.4,0.64,0.26,-0.1
15266,5537367,63.4410053,10.3488627,16.72,9.866,20.45,0.64,0.27,-0.09
15281,5537407,63.4410055,10.3488629,16.72,9.865,20.55,0.63,0.27,-0.09
15297,5537447,63.4410057,10.3488631,16.72,9.865,20.65,0.62,0.27,-0.08
15301,5537467,63.4410058,10.3488633,16.72,9.865,20.71,0.62,0.27,-0.07
15314,5537507,63.4410061,10.3488635,16.72,9.865,20.82,0.61,0.27,-0.06
15329,5537547,63.4410063,10.3488637,16.72,9.865,20.93,0.61,0.28,-0.04
15333,5537567,63.4410064,10.3488638,16.72,9.866,20.99,0.61,0.28,-0.03
15347,5537607,63.4410066,10.348864,16.72,9.866,21.11,0.61,0.28,-0.01
15360,5537647,63.4410068,10.3488643,16.72,9.867,21.22,0.62,0.29,0.01
15365,5537667,63.4410069,10.3488644,16.72,9.868,21.28,0.62,0.29,0.02
15378,5537707,63.4410072,10.3488646,16.72,9.869,21.39,0.63,0.29,0.04
15382,5537727,63.4410073,10.3488647,16.72,9.869,21.44,0.63,0.29,0.04
15396,5537767,63.4410075,10.348865,16.73,9.872,21.53,0.64,0.29,0.05
15409,5537807,63.4410078,10.3488652,16.73,9.874,21.59,0.65,0.29,0.06
15413,5537827,63.4410079,10.3488654,16.73,9.875,21.62,0.65,0.29,0.06
