ping_number,pwr_up_msec,time_boot_ms_x,sonar_x,sonar_y,time_boot_ms_y,yaw_rad,pitch_rad,sonar_z
39789,5545139,5545127,55.21389389038086,21.24285316467285,5545127,0.3228164613246918,0.000412110297475,0.0
39790,5545189,5545187,55.25238800048828,21.265417098999023,5545187,0.3221760392189026,0.0149831585586071,0.0
39791,5545239,5545227,55.2784309387207,21.28086471557617,5545227,0.3217576444149017,0.0259770005941391,0.0
39792,5545289,5545287,55.316497802734375,21.303524017333984,5545287,0.3209336102008819,0.0420003049075603,0.0
39793,5545339,5545327,55.341888427734375,21.31856918334961,5545327,0.3199851214885711,0.0508533455431461,0.0
39794,5545389,5545387,55.38029861450195,21.3408260345459,5545387,0.3178119957447052,0.0597764067351818,0.0
39795,5545439,5545427,55.406436920166016,21.35531044006348,5545427,0.3158840239048004,0.062413927167654,0.0
39796,5545489,5545487,55.4471549987793,21.37660789489746,5545487,0.3126939535140991,0.0612510852515697,0.0
39797,5545539,5545527,55.47361373901367,21.38993453979492,5545527,0.3106166124343872,0.0576452575623989,0.0
39798,5545589,5545587,55.51277542114258,21.40898704528809,5545587,0.3080388307571411,0.0497376956045627,0.0
39799,5545639,5545647,55.552059173583984,21.42717170715332,5545647,0.3062195777893066,0.0413054563105106,0.0
39800,5545689,5545687,55.57818603515625,21.438861846923828,5545687,0.3055499792098999,0.0367704518139362,0.0
39801,5545739,5545747,55.6164665222168,21.4561710357666,5545747,0.3052181005477905,0.0326195620000362,0.0
39802,5545789,5545787,55.64231872558594,21.467803955078125,5545787,0.3052722215652466,0.0319703742861747,0.0
39803,5545839,5545847,55.68006896972656,21.484643936157227,5545847,0.3054399192333221,0.0336517803370952,0.0
39804,5545889,5545887,55.705345153808594,21.49584579467773,5545887,0.3055272400379181,0.0361287705600261,0.0
39805,5545939,5545947,55.74360656738281,21.512407302856445,5545947,0.3055303990840912,0.0402969494462013,0.0
39806,5545989,5545987,55.76939392089844,21.52343368530273,5545987,0.3056122660636902,0.0424728617072105,0.0
39807,5546039,5546047,55.80852127075195,21.540082931518555,5546047,0.3061393201351166,0.0432186797261238,0.0
39808,5546089,5546087,55.835594177246094,21.551572799682617,5546087,0.3068338334560394,0.0416314117610454,0.0
39809,5546139,5546147,55.875267028808594,21.56893920898437,5546147,0.3085062503814697,0.036018144339323,0.0
39810,5546189,5546187,55.90191650390625,21.580642700195312,5546187,0.3101086914539337,0.0306421667337417,0.0
39811,5546239,5546247,55.94233322143555,21.598127365112305,5546247,0.3131426274776459,0.0209729857742786,0.0
39812,5546289,5546287,55.96949768066406,21.60974884033203,5546287,0.3155034780502319,0.0142923332750797,0.0
39813,5546339,5546347,56.010196685791016,21.62744903564453,5546347,0.319452166557312,0.0051955040544271,0.0
39814,5546389,5546387,56.03673553466797,21.63905906677246,5546387,0.3221316039562225,0.0007735307444818,0.0
39815,5546439,5546447,56.0767936706543,21.656513214111328,5546447,0.3263548016548157,-0.0030848360620439,0.0
39816,5546489,5546487,56.10354232788086,21.668237686157227,5546487,0.3293706178665161,-0.0035847914405167,0.0
39817,5546539,5546547,56.14289855957031,21.6861515045166,5546547,0.3343094289302826,-0.0008126928587444,0.0
39818,5546589,5546587,56.168792724609375,21.69840240478516,5546587,0.3378376364707947,0.0034588081762194,0.0
39819,5546639,5546647,56.20790481567383,21.7175350189209,5546647,0.3434196412563324,0.0136295482516288,0.0
39820,5546689,5546687,56.2332763671875,21.73038673400879,5546687,0.346927285194397,0.0223941970616579,0.0
39821,5546739,5546747,56.27081298828125,21.74982070922852,5546747,0.3515653014183044,0.0371790640056133,0.0
39822,5546789,5546787,56.29552459716797,21.762624740600582,5546787,0.3539665043354034,0.0469290390610694,0.0
39823,5546839,5546847,56.332794189453125,21.78232765197754,5546847,0.3565088510513305,0.0594377145171165,0.0
39824,5546889,5546887,56.357872009277344,21.795801162719727,5546887,0.3574845492839813,0.0651318058371543,0.0
39825,5546939,5546947,56.395652770996094,21.81601333618164,5546947,0.3578317165374756,0.0676364079117775,0.0
39826,5546989,5547007,56.43342590332031,21.83598518371582,5547007,0.3570863902568817,0.0620077885687351,0.0
39827,5547039,5547047,56.45937347412109,21.84953498840332,5547047,0.3561862409114837,0.0535749308764934,0.0
39828,5547089,5547107,56.4993896484375,21.87018585205078,5547107,0.3546128571033478,0.0350467339158058,0.0
39829,5547139,5547147,56.52587890625,21.884471893310547,5547147,0.3537003397941589,0.0204312559217214,0.0
39830,5547189,5547207,56.566856384277344,21.90656471252441,5547207,0.3527230024337768,-0.0016157035715878,0.0
39831,5547239,5547247,56.59381103515625,21.92123413085937,5547247,0.352356880903244,-0.0133794285356998,0.0
39832,5547289,5547307,56.634010314941406,21.943437576293945,5547307,0.3519250154495239,-0.0234986450523138,0.0
39833,5547339,5547347,56.66022491455078,21.958423614501957,5547347,0.3515298962593078,-0.0239148251712322,0.0
39834,5547389,5547407,56.69901657104492,21.9808406829834,5547407,0.3506287634372711,-0.0148155372589826,0.0
39835,5547439,5547447,56.72441482543945,21.99567031860352,5547447,0.3498997688293457,-0.0034354773815721,0.0
39836,5547489,5547507,56.76240921020508,22.018085479736328,5547507,0.3488304018974304,0.0186347030103206,0.0
39837,5547540,5547547,56.7861442565918,22.032564163208008,5547547,0.3482808768749237,0.0336618535220623,0.0
39838,5547589,5547607,56.821685791015625,22.05418586730957,5547607,0.347484290599823,0.0526569001376628,0.0
39839,5547639,5547627,56.8336296081543,22.06131935119629,5547627,0.3472184538841247,0.0573060698807239,0.0
39840,5547689,5547707,56.88273239135742,22.089529037475582,5547707,0.3455948233604431,0.0643441155552864,0.0
39841,5547739,5547727,56.8945426940918,22.096275329589844,5547727,0.3449654579162597,0.0631025657057762,0.0
39842,5547789,5547807,56.94489669799805,22.12356948852539,5547807,0.3417625427246094,0.0473778247833251,0.0
39843,5547839,5547827,56.95784759521485,22.130321502685547,5547827,0.3409002423286438,0.0412568561732769,0.0
39844,5547889,5547907,57.01102066040039,22.157665252685547,5547907,0.3379135131835937,0.0130987241864204,0.0
39845,5547939,5547927,57.02417755126953,22.164548873901367,5547927,0.3373076617717743,0.0061149564571678,0.0
39846,5547989,5548007,57.077266693115234,22.192302703857425,5548007,0.3355564773082733,-0.016291195526719,0.0
39847,5548039,5548027,57.09056854248047,22.19925880432129,5548027,0.3352347314357757,-0.0198407638818025,0.0
39848,5548089,5548107,57.14414978027344,22.22721290588379,5548107,0.334177553653717,-0.0219410452991724,0.0
39849,5548139,5548127,57.15679168701172,22.234243392944336,5548127,0.3339543640613556,-0.019647866487503,0.0
39850,5548189,5548207,57.207252502441406,22.26181411743164,5548207,0.3330702483654022,-0.0012096558930352,0.0
39851,5548239,5548227,57.21981430053711,22.268590927124023,5548227,0.3328790664672851,0.0051147225312888,0.0
39852,5548289,5548287,57.25747299194336,22.28876304626465,5548287,0.3322200775146484,0.0254973899573087,0.0
39853,5548339,5548327,57.28235626220703,22.301944732666016,5548327,0.3315936028957367,0.0391497574746608,0.0
39854,5548389,5548387,57.32038497924805,22.32180976867676,5548387,0.3301959335803985,0.0559133328497409,0.0
39855,5548439,5548427,57.34578323364258,22.33478736877441,5548427,0.3288661539554596,0.0637423247098922,0.0
39856,5548490,5548487,57.38475036621094,22.35431289672852,5548487,0.3262742757797241,0.0696028694510459,0.0
39857,5548539,5548527,57.4107666015625,22.367259979248047,5548527,0.3240942656993866,0.0693335235118866,0.0
39858,5548589,5548587,57.45001220703125,22.38656044006348,5548587,0.3201692998409271,0.063169427216053,0.0
39859,5548639,5548627,57.476932525634766,22.39958000183105,5548627,0.3168958723545074,0.055569153279066,0.0
39860,5548689,5548687,57.51905059814453,22.419612884521484,5548687,0.3113544285297394,0.0407195724546909,0.0
39861,5548739,5548727,57.54674911499024,22.432880401611328,5548727,0.3071676194667816,0.0295875295996665,0.0
39862,5548789,5548787,57.58829116821289,22.45285415649414,5548787,0.3005152940750122,0.0135094812139868,0.0
39863,5548839,5548827,57.616397857666016,22.46605491638184,5548827,0.2957990169525146,0.0045508258044719,0.0
39864,5548889,5548887,57.65903472900391,22.48553466796875,5548887,0.2881291806697845,-0.0041869753040373,0.0
39865,5548939,5548947,57.70236206054688,22.50511741638184,5548947,0.2801235318183899,-0.0052469312213361,0.0
39866,5548989,5548987,57.73073959350586,22.51771354675293,5548987,0.27446249127388,-0.001661216490902,0.0
39867,5549039,5549047,57.77341079711914,22.53614044189453,5549047,0.2652128934860229,0.0091762002557516,0.0
39868,5549089,5549087,57.80186462402344,22.54805564880371,5549087,0.2585298120975494,0.0190320573747158,0.0
39869,5549139,5549147,57.84413909912109,22.565717697143555,5549147,0.2477230429649353,0.0353911332786083,0.0
39870,5549189,5549187,57.872169494628906,22.577306747436523,5549187,0.2399346083402633,0.0464498177170753,0.0
39871,5549239,5549247,57.9149169921875,22.594741821289062,5549247,0.2280992120504379,0.060282751917839,0.0
39872,5549289,5549287,57.94298553466797,22.606143951416016,5549287,0.220110610127449,0.066909372806549,0.0
39873,5549339,5549347,57.98347854614258,22.62350273132324,5549347,0.2082312554121017,0.0713156163692474,0.0
39874,5549389,5549387,58.01030731201172,22.63516616821289,5549387,0.2003944814205169,0.0699872151017189,0.0
39875,5549439,5549447,58.05134963989258,22.652477264404297,5549447,0.1885454058647155,0.0621006228029727,0.0
39876,5549489,5549487,58.079959869384766,22.66408348083496,5549487,0.1807865351438522,0.0539159700274467,0.0
39877,5549539,5549547,58.122352600097656,22.68020439147949,5549547,0.1691869348287582,0.0390921235084533,0.0
39878,5549589,5549587,58.15093994140625,22.690523147583008,5549587,0.1616410166025161,0.028704447671771,0.0
39879,5549639,5549647,58.19417953491211,22.70565223693848,5549647,0.1507287770509719,0.0137433055788278,0.0
39880,5549689,5549687,58.22320175170898,22.715478897094727,5549687,0.1438210159540176,0.0050300452858209,0.0
39881,5549739,5549747,58.267852783203125,22.731107711791992,5549747,0.1337346136569976,-0.0057309702970087,0.0
39882,5549789,5549787,58.29880142211914,22.741832733154297,5549787,0.127251461148262,-0.0109815299510955,0.0
39883,5549839,5549847,58.34441757202149,22.75702667236328,5549847,0.1176062449812889,-0.0157335232943296,0.0
39884,5549889,5549887,58.37506484985352,22.76692008972168,5549887,0.1112038269639015,-0.0170259326696395,0.0
39885,5549939,5549947,58.42164611816406,22.781871795654297,5549947,0.1016116663813591,-0.0166490375995636,0.0
39886,5549989,5549987,58.45296859741211,22.791749954223636,5549987,0.0952334478497505,-0.0150278303772211,0.0
39887,5550039,5550047,58.50001907348633,22.806304931640625,5550047,0.0857412070035934,-0.0108864121139049,0.0
39888,5550089,5550087,58.53205871582031,22.816036224365234,5550087,0.0797109752893447,-0.0072828480042517,0.0
39889,5550139,5550147,58.57925796508789,22.82986831665039,5550147,0.0710440725088119,-0.0001863932266132,0.0
39890,5550189,5550187,58.6105842590332,22.838836669921875,5550187,0.0655554607510566,0.0057347216643393,0.0
39891,5550239,5550247,58.65690612792969,22.85183525085449,5550247,0.0577361918985843,0.0155854569748044,0.0
39892,5550289,5550307,58.702430725097656,22.864160537719727,5550307,0.0504360385239124,0.0256278105080127,0.0
39893,5550339,5550347,58.73209762573242,22.87297821044922,5550347,0.0458850674331188,0.0314987041056156,0.0
39894,5550389,5550407,58.77542495727539,22.885013580322266,5550407,0.0392563641071319,0.0381356738507747,0.0
39895,5550439,5550447,58.80437850952149,22.89244079589844,5550447,0.0351370684802532,0.0408173128962516,0.0
39896,5550489,5550507,58.84803771972656,22.90263938903809,5550507,0.029593477025628,0.0420335829257965,0.0
39897,5550539,5550547,58.87701416015625,22.90894317626953,5550547,0.026550393551588,0.0412374548614025,0.0
39898,5550589,5550607,58.92047119140625,22.917879104614254,5550607,0.0230659954249858,0.0382243581116199,0.0
39899,5550639,5550647,58.95004653930664,22.92372703552246,5550647,0.021549167111516,0.0359832495450973,0.0
39900,5550689,5550707,58.99306106567383,22.931978225708008,5550707,0.0201611723750829,0.0337530262768268,0.0
39901,5550739,5550747,59.02131271362305,22.937349319458008,5550747,0.0197009146213531,0.0334383659064769,0.0
39902,5550789,5550807,59.06340026855469,22.945066452026367,5550807,0.0193965677171945,0.0352128855884075,0.0
39903,5550839,5550847,59.09126281738281,22.94996833801269,5550847,0.0193247310817241,0.0378962159156799,0.0
39904,5550889,5550907,59.13296890258789,22.956958770751957,5550907,0.0189923178404569,0.0436332561075687,0.0
39905,5550939,5550927,59.14773941040039,22.95905303955078,5550927,0.0188126657158136,0.0457299165427684,0.0
39906,5550989,5551007,59.203948974609375,22.96669006347656,5551007,0.0177345946431159,0.0534420870244503,0.0
39907,5551039,5551027,59.2180061340332,22.96854782104492,5551027,0.0174473840743303,0.0550690367817878,0.0
39908,5551089,5551107,59.27424621582031,22.9758415222168,5551107,0.0165762305259704,0.0587515495717525,0.0
39909,5551139,5551127,59.28823471069336,22.97749328613281,5551127,0.0164505615830421,0.0588909573853015,0.0
39910,5551189,5551207,59.3449592590332,22.984519958496094,5551207,0.0165523421019315,0.0556542202830314,0.0
39911,5551239,5551227,59.35897064208984,22.98634910583496,5551227,0.0167570784687995,0.0539855621755123,0.0
39912,5551289,5551307,59.41508865356445,22.994279861450195,5551307,0.0180715434253215,0.044898722320795,0.0
39913,5551340,5551327,59.42951583862305,22.99658203125,5551327,0.0184737127274274,0.0422021970152854,0.0
39914,5551389,5551407,59.48748397827149,23.00655937194824,5551407,0.020120583474636,0.0302167572081089,0.0
39915,5551439,5551427,59.50210952758789,23.00926780700684,5551427,0.0205041989684104,0.0269411541521549,0.0
39916,5551489,5551507,59.56199264526367,23.02117919921875,5551507,0.021850686520338,0.0130651611834764,0.0
39917,5551539,5551527,59.577335357666016,23.024486541748047,5551527,0.0220927149057388,0.0095676090568304,0.0
39918,5551589,5551587,59.623783111572266,23.03494453430176,5551587,0.0225742254406213,-0.0010358821600675,0.0
39919,5551639,5551627,59.655086517333984,23.042383193969727,5551627,0.0226344484835863,-0.0076100090518593,0.0
39920,5551690,5551687,59.70246887207031,23.054311752319336,5551687,0.0223039239645004,-0.0151252225041389,0.0
39921,5551739,5551727,59.73447799682617,23.0629997253418,5551727,0.0216507799923419,-0.017988096922636,0.0
39922,5551789,5551787,59.78382110595703,23.0771427154541,5551787,0.0200796760618686,-0.0180248487740755,0.0
39923,5551839,5551827,59.81632614135742,23.086589813232425,5551827,0.0185960922390222,-0.0152552276849746,0.0
39924,5551889,5551887,59.86507415771485,23.100719451904297,5551887,0.0157529097050428,-0.007802759297192,0.0
39925,5551939,5551927,59.89731979370117,23.109981536865234,5551927,0.0134394485503435,-0.0012032422237098,0.0
39926,5551989,5551987,59.94505310058594,23.123449325561523,5551987,0.0095489053055644,0.0096166590228676,0.0
39927,5552039,5552027,59.97646713256836,23.132062911987305,5552027,0.0066642356105148,0.0169844031333923,0.0
39928,5552089,5552087,60.02357864379883,23.144546508789062,5552087,0.0021400554105639,0.0276848301291465,0.0
39929,5552139,5552127,60.05320358276367,23.15223693847656,5552127,-0.001066273311153,0.0350367203354835,0.0
39930,5552189,5552187,60.09598159790039,23.16315650939941,5552187,-0.0061465515755116,0.046180460602045,0.0
39931,5552239,5552247,60.13813018798828,23.17325210571289,5552247,-0.0116940326988697,0.0566194541752338,0.0
39932,5552289,5552287,60.16609954833984,23.179540634155277,5552287,-0.0155306933447718,0.0624130591750144,0.0
39933,5552339,5552347,60.206878662109375,23.188051223754883,5552347,-0.0212882198393344,0.0671452358365058,0.0
39934,5552389,5552387,60.23337936401367,23.193172454833984,5552387,-0.0247541517019271,0.0667558759450912,0.0
39935,5552439,5552447,60.27407836914063,23.200382232666016,5552447,-0.0290583800524473,0.0602734237909317,0.0
39936,5552489,5552487,60.30189514160156,23.204978942871094,5552487,-0.0312373824417591,0.0518541559576988,0.0
39937,5552539,5552547,60.344085693359375,23.21061515808105,5552547,-0.0333246923983097,0.0346871837973594,0.0
39938,5552589,5552587,60.37263488769531,23.213905334472656,5552587,-0.0340480729937553,0.0213712677359581,0.0
39939,5552639,5552647,60.416725158691406,23.21865463256836,5552647,-0.0342773124575614,0.0026756576262414,0.0
39940,5552689,5552687,60.445709228515625,23.221607208251957,5552687,-0.0339816771447658,-0.0072175883688032,0.0
39941,5552739,5552747,60.48900604248047,23.22618103027344,5552747,-0.0328926742076873,-0.0154125625267624,0.0
39942,5552789,5552787,60.51767349243164,23.22953414916992,5552787,-0.0317914076149463,-0.0158135425299406,0.0
39943,5552839,5552847,60.56027603149414,23.234657287597656,5552847,-0.0297441519796848,-0.0090448977425694,0.0
39944,5552889,5552887,60.5884895324707,23.238183975219727,5552887,-0.0282573066651821,-0.0002203257754445,0.0
39945,5552939,5552947,60.6317024230957,23.243934631347656,5552947,-0.0263240002095699,0.0160244051367044,0.0
39946,5552989,5552987,60.660247802734375,23.247955322265625,5552987,-0.0252909827977418,0.0268914327025413,0.0
39947,5553039,5553047,60.703392028808594,23.254230499267575,5553047,-0.0239589530974626,0.040107537060976,0.0
39948,5553089,5553087,60.73247528076172,23.258644104003903,5553087,-0.0231559239327907,0.0454687736928463,0.0
39949,5553139,5553147,60.77616500854492,23.26571083068848,5553147,-0.0220776759088039,0.047270193696022,0.0
39950,5553189,5553187,60.80557632446289,23.27064514160156,5553187,-0.0214703623205423,0.044507697224617,0.0
39951,5553239,5553247,60.85100555419922,23.27842140197754,5553247,-0.0209434516727924,0.0363235846161842,0.0
39952,5553289,5553287,60.88103485107422,23.28359603881836,5553287,-0.0208770334720611,0.0294735580682754,0.0
39953,5553339,5553347,60.92605209350586,23.291616439819336,5553347,-0.0209099426865577,0.0198261868208646,0.0
39954,5553389,5553387,60.95598220825195,23.297142028808597,5553387,-0.0209623333066701,0.0150252403691411,0.0
39955,5553439,5553447,61.00062561035156,23.305782318115234,5553447,-0.0209720283746719,0.0117998979985713,0.0
39956,5553489,5553487,61.03086853027344,23.311880111694336,5553487,-0.0210062135010957,0.0127123026177287,0.0
39957,5553539,5553547,61.07503128051758,23.320953369140625,5553547,-0.0214196406304836,0.0178318116813898,0.0
39958,5553589,5553607,61.11885070800781,23.330224990844727,5553607,-0.0223237350583076,0.0261031314730644,0.0
39959,5553639,5553647,61.14783477783203,23.33658790588379,5553647,-0.0231238529086112,0.0322467871010303,0.0
39960,5553689,5553707,61.19122695922852,23.346364974975582,5553707,-0.0247192922979593,0.0410694144666194,0.0
39961,5553739,5553747,61.2198600769043,23.353132247924805,5553747,-0.0259017031639814,0.0458040386438369,0.0
39962,5553789,5553807,61.26372528076172,23.36376953125,5553807,-0.0276627857238054,0.0495509058237075,0.0
39963,5553839,5553847,61.29271697998047,23.37095832824707,5553847,-0.0288403574377298,0.0495781674981117,0.0
39964,5553889,5553907,61.336700439453125,23.381980895996094,5553907,-0.0306536220014095,0.0456812866032123,0.0
39965,5553939,5553947,61.36515808105469,23.388751983642575,5553947,-0.0319775864481925,0.0409121885895729,0.0
39966,5553989,5554007,61.40842819213867,23.39903450012207,5554007,-0.0342763438820838,0.0319613777101039,0.0
39967,5554039,5554047,61.43826675415039,23.40599632263184,5554047,-0.036171831190586,0.0256384033709764,0.0
39968,5554089,5554107,61.48200988769531,23.415929794311523,5554107,-0.0392166972160339,0.0182141680270433,0.0
39969,5554139,5554147,61.51032257080078,23.422060012817383,5554147,-0.0412431880831718,0.0152899464592337,0.0
39970,5554189,5554207,61.55263519287109,23.431013107299805,5554207,-0.0441172569990158,0.0144424615427851,0.0
39971,5554239,5554227,61.566707611083984,23.43390655517578,5554227,-0.0450325608253479,0.0150695377960801,0.0
39972,5554289,5554307,61.62301254272461,23.44506454467773,5554307,-0.0484323464334011,0.0203705001622438,0.0
39973,5554339,5554327,61.63690948486328,23.447898864746094,5554327,-0.0491382330656051,0.0218819994479417,0.0
39974,5554389,5554407,61.69386672973633,23.45878028869629,5554407,-0.0514101982116699,0.0257531441748142,0.0
39975,5554439,5554427,61.708133697509766,23.46133804321289,5554427,-0.0517958849668502,0.0257973372936248,0.0
39976,5554489,5554507,61.76633834838867,23.47111320495605,5554507,-0.0527159720659256,0.0210929866880178,0.0
39977,5554539,5554527,61.780738830566406,23.473323822021484,5554527,-0.052792452275753,0.0188048761337995,0.0
39978,5554589,5554607,61.83961486816406,23.482027053833008,5554607,-0.0528531856834888,0.0072672143578529,0.0
39979,5554639,5554627,61.855350494384766,23.484283447265625,5554627,-0.0528710186481475,0.004462466109544,0.0
39980,5554689,5554707,61.91558456420898,23.49277114868164,5554707,-0.0531807504594326,-0.0036917822435498,0.0
39981,5554739,5554727,61.93047332763672,23.49490165710449,5554727,-0.0533322356641292,-0.004497779533267,0.0
39982,5554789,5554807,61.98964309692383,23.5032958984375,5554807,-0.0538441911339759,-0.0015456321416422,0.0
39983,5554839,5554827,62.00429916381836,23.50535774230957,5554827,-0.0539219081401824,0.0006767779123038,0.0
39984,5554889,5554887,62.0478630065918,23.51148796081543,5554887,-0.0536632053554058,0.0104396138340234,0.0
39985,5554939,5554927,62.07697296142578,23.516061782836918,5554927,-0.0530837625265121,0.0183174591511487,0.0
39986,5554989,5554987,62.11885452270508,23.52324104309082,5554987,-0.0516074374318122,0.0301039926707744,0.0
39987,5555039,5555027,62.14695739746094,23.52782821655273,5555027,-0.0504292547702789,0.0365496911108493,0.0
39988,5555089,5555087,62.18973159790039,23.534299850463867,5555087,-0.048897985368967,0.0424238443374633,0.0
39989,5555139,5555127,62.21860122680664,23.538509368896484,5555127,-0.0481811799108982,0.0432672351598739,0.0
39990,5555189,5555187,62.26246643066406,23.544652938842773,5555187,-0.0475929081439971,0.0399130955338478,0.0
39991,5555239,5555227,62.292999267578125,23.54874420166016,5555227,-0.0474050678312778,0.0353262685239315,0.0
39992,5555289,5555287,62.33815383911133,23.554933547973636,5555287,-0.0470352433621883,0.026576654985547,0.0
39993,5555339,5555327,62.36806869506836,23.559629440307617,5555327,-0.0465543791651725,0.0208297353237867,0.0
39994,5555389,5555387,62.41242599487305,23.567686080932617,5555387,-0.0452312342822551,0.0143450750038027,0.0
39995,5555439,5555427,62.44184112548828,23.57349395751953,5555427,-0.0441096052527427,0.0122496197000145,0.0
39996,5555489,5555487,62.48641586303711,23.58304977416992,5555487,-0.042177177965641,0.0128684528172016,0.0
39997,5555539,5555547,62.53011703491211,23.593528747558597,5555547,-0.0405574515461921,0.0173008739948272,0.0
39998,5555589,5555587,62.55930709838867,23.600976943969727,5555587,-0.0398334078490734,0.0216323640197515,0.0
39999,5555639,5555647,62.60337829589844,23.612579345703125,5555647,-0.0395017005503177,0.0291281081736087,0.0
40000,5555689,5555687,62.63304138183594,23.620420455932617,5555687,-0.0399696491658687,0.033853992819786,0.0
40001,5555739,5555747,62.67727279663086,23.63201332092285,5555747,-0.0418954230844974,0.0394824855029583,0.0
40002,5555789,5555787,62.70759201049805,23.63978385925293,5555787,-0.0439372472465038,0.0415785759687423,0.0
40003,5555839,5555847,62.75236129760742,23.65089988708496,5555847,-0.0478824004530906,0.0417936332523822,0.0
40004,5555889,5555887,62.78239440917969,23.65816879272461,5555887,-0.0508941896259784,0.0399473719298839,0.0
40005,5555939,5555947,62.826454162597656,23.669557571411133,5555947,-0.0554270185530185,0.0350974015891552,0.0
40006,5555989,5555987,62.855506896972656,23.677268981933597,5555987,-0.0582406744360923,0.0310238897800445,0.0
40007,5556039,5556047,62.89901351928711,23.68880653381348,5556047,-0.0621516145765781,0.0244364459067583,0.0
40008,5556089,5556087,62.92877578735352,23.69663619995117,5556087,-0.0645556822419166,0.0206562429666519,0.0
40009,5556139,5556147,62.97135925292969,23.70796775817871,5556147,-0.0680668801069259,0.016383858397603,0.0
40010,5556189,5556187,62.99969100952149,23.71547508239746,5556187,-0.0703869760036468,0.0143484082072973,0.0
40011,5556239,5556247,63.04278564453125,23.72671127319336,5556247,-0.0739374384284019,0.0121511155739426,0.0
40012,5556289,5556287,63.07196807861328,23.734102249145508,5556287,-0.0764162540435791,0.0110987974330782,0.0
40013,5556339,5556347,63.11642074584961,23.744888305664062,5556347,-0.0804055333137512,0.0096253743395209,0.0
40014,5556389,5556387,63.14577865600586,23.75166893005371,5556387,-0.083211176097393,0.0088290274143219,0.0
40015,5556439,5556447,63.19023132324219,23.7613525390625,5556447,-0.0874942392110824,0.0084394169971346,0.0
40016,5556489,5556487,63.21993255615234,23.76746368408203,5556487,-0.0902889817953109,0.0091224201023578,0.0
40017,5556539,5556547,63.26259994506836,23.77669334411621,5556547,-0.0940374881029129,0.0126386992633342,0.0
40018,5556589,5556587,63.29025268554688,23.782699584960938,5556587,-0.0961542278528213,0.0171595700085163,0.0
40019,5556639,5556647,63.3318977355957,23.791391372680664,5556647,-0.0985213369131088,0.0268438626080751,0.0
40020,5556689,5556687,63.35884094238281,23.79678726196289,5556687,-0.0996876880526542,0.0349481366574764,0.0
40021,5556739,5556747,63.397735595703125,23.80544853210449,5556747,-0.1008851826190948,0.0479695424437522,0.0
40022,5556789,5556787,63.4232177734375,23.81122398376465,5556787,-0.101317748427391,0.0557504184544086,0.0
40023,5556839,5556847,63.46166610717773,23.819515228271484,5556847,-0.1014077290892601,0.0645502731204032,0.0
40024,5556889,5556907,63.501564025878906,23.827608108520508,5556907,-0.1008912846446037,0.0674983933568,0.0
40025,5556939,5556947,63.527435302734375,23.832422256469727,5556947,-0.1003065407276153,0.0656118616461753,0.0
40026,5556989,5557007,63.56752395629883,23.83970642089844,5557007,-0.0992386862635612,0.0571927540004253,0.0
40027,5557039,5557047,63.59514236450195,23.84458923339844,5557047,-0.0986396670341491,0.0484099425375461,0.0
40028,5557089,5557107,63.637786865234375,23.851863861083984,5557107,-0.0982128977775573,0.0316492989659309,0.0
40029,5557139,5557147,63.66665649414063,23.856834411621094,5557147,-0.0983378961682319,0.0190764982253313,0.0
40030,5557189,5557207,63.7116813659668,23.864158630371094,5557207,-0.0991597920656204,0.0002931644849013,0.0
40031,5557239,5557247,63.741695404052734,23.86874008178711,5557247,-0.1000215262174606,-0.0107199111953377,0.0
40032,5557289,5557307,63.78709411621094,23.87520980834961,5557307,-0.1013713032007217,-0.0236902255564928,0.0
40033,5557339,5557347,63.81757354736328,23.88021278381348,5557347,-0.1020219847559928,-0.0293662287294864,0.0
40034,5557389,5557407,63.863380432128906,23.887300491333008,5557407,-0.102399818599224,-0.0326128378510475,0.0
40035,5557439,5557447,63.89384460449219,23.891815185546875,5557447,-0.1021438091993331,-0.0311300233006477,0.0
40036,5557490,5557507,63.94010543823242,23.898441314697266,5557507,-0.1012177094817161,-0.0237376596778631,0.0
40037,5557539,5557527,63.955322265625,23.90093994140625,5557527,-0.1008228808641433,-0.0200390424579381,0.0
40038,5557589,5557607,64.0156021118164,23.910703659057617,5557607,-0.098904825747013,-0.0003930271195713,0.0
40039,5557639,5557627,64.03050231933594,23.913143157958984,5557627,-0.098381370306015,0.0052911909297108,0.0
40040,5557689,5557707,64.089599609375,23.923200607299805,5557707,-0.0962951332330703,0.0285074189305305,0.0
40041,5557739,5557727,64.10350036621094,23.926010131835938,5557727,-0.0957668721675872,0.0342738851904869,0.0
40042,5557789,5557807,64.15990447998047,23.937965393066406,5557807,-0.0939802825450897,0.0529939830303192,0.0
40043,5557839,5557827,64.17388153076172,23.941076278686523,5557827,-0.093593031167984,0.0564328767359256,0.0
40044,5557889,5557907,64.23017883300781,23.95390892028809,5557907,-0.0927276983857154,0.0649975389242172,0.0
40045,5557939,5557927,64.24424743652344,23.957149505615234,5557927,-0.0926667302846908,0.0658622831106185,0.0
40046,5557989,5558007,64.30103302001953,23.97032356262207,5558007,-0.0931854024529457,0.0636803731322288,0.0
40047,5558039,5558027,64.31536865234375,23.973651885986328,5558027,-0.0934817790985107,0.0618297085165977,0.0
40048,5558089,5558107,64.37394714355469,23.98729705810547,5558107,-0.0951175689697265,0.0513316504657268,0.0
40049,5558139,5558127,64.38841247558594,23.9905948638916,5558127,-0.0956823825836181,0.0481679886579513,0.0
40050,5558189,5558187,64.4320068359375,24.000619888305664,5558187,-0.0975472405552864,0.0388390831649303,0.0
40051,5558239,5558227,64.46119689941406,24.00748062133789,5558227,-0.0989698767662048,0.0334790162742137,0.0
40052,5558289,5558287,64.50508117675781,24.018041610717773,5558287,-0.101373016834259,0.0276117343455553,0.0
40053,5558339,5558327,64.53427124023438,24.02506828308105,5558327,-0.1031378358602523,0.0255381762981414,0.0
40054,5558389,5558387,64.57882690429688,24.035717010498047,5558387,-0.1060317084193229,0.0243828203529119,0.0
40055,5558439,5558427,64.60826110839844,24.042755126953125,5558427,-0.1081756129860878,0.0243326090276241,0.0
40056,5558489,5558487,64.65290069580078,24.05350685119629,5558487,-0.1115899384021759,0.0240247044712305,0.0
40057,5558539,5558527,64.68258666992188,24.06086158752441,5558527,-0.1139268353581428,0.0229261852800846,0.0
40058,5558589,5558587,64.72714233398438,24.072031021118164,5558587,-0.1175303757190704,0.0190315097570419,0.0
40059,5558639,5558627,64.75804901123047,24.079652786254883,5558627,-0.1198963075876236,0.0150660080835223,0.0
40060,5558689,5558687,64.80389404296875,24.090730667114254,5558687,-0.1234389767050743,0.0075965160503983,0.0
40061,5558739,5558727,64.83456420898438,24.098331451416016,5558727,-0.1258030235767364,0.0024656711611896,0.0
40062,5558789,5558787,64.8807144165039,24.110107421875,5558787,-0.1294793486595153,-0.0040524755604565,0.0
40063,5558839,5558847,64.92748260498047,24.121749877929688,5558847,-0.1335707902908325,-0.0080465171486139,0.0
40064,5558889,5558887,64.95892333984375,24.12931060791016,5558887,-0.1367589980363845,-0.0087922383099794,0.0
40065,5558939,5558947,65.00599670410156,24.140209197998047,5558947,-0.1420104503631591,-0.0067400289699435,0.0
40066,5558989,5558987,65.03652954101562,24.14693260192871,5558987,-0.1457594335079193,-0.0031733873765915,0.0
40067,5559039,5559047,65.08209991455078,24.156381607055664,5559047,-0.1513651609420776,0.0047525274567306,0.0
40068,5559089,5559087,65.1121597290039,24.162282943725582,5559087,-0.1547178775072097,0.0113896951079368,0.0
40069,5559139,5559147,65.15553283691406,24.17066764831543,5559147,-0.1588978618383407,0.022334512323141,0.0
40070,5559189,5559187,65.18450927734375,24.176097869873047,5559187,-0.1610665172338485,0.0298587176948785,0.0
40071,5559239,5559247,65.22647094726562,24.18353271484375,5559247,-0.1633988171815872,0.0398379527032375,0.0
40072,5559289,5559287,65.2542953491211,24.18816375732422,5559287,-0.1645437777042389,0.045560784637928,0.0
40073,5559339,5559347,65.29489135742188,24.194259643554688,5559347,-0.1659493595361709,0.0523091219365596,0.0
40074,5559389,5559387,65.32167053222656,24.197933197021484,5559387,-0.1667702198028564,0.0556022524833679,0.0
40075,5559439,5559447,65.36198425292969,24.2031192779541,5559447,-0.1680153459310531,0.0586652718484401,0.0
40076,5559489,5559487,65.3896255493164,24.20645904541016,5559487,-0.1687478125095367,0.0594894811511039,0.0
40077,5559539,5559547,65.42988586425781,24.210832595825195,5559547,-0.1694847196340561,0.0591771714389324,0.0
40078,5559589,5559587,65.45670318603516,24.21355438232422,5559587,-0.1697060018777847,0.0580923408269882,0.0
40079,5559639,5559647,65.49708557128906,24.217374801635746,5559647,-0.1695945262908935,0.0550960749387741,0.0
40080,5559689,5559687,65.52415466308594,24.2197208404541,5559687,-0.1691896468400955,0.0521508902311325,0.0
40081,5559739,5559747,65.5648422241211,24.22208976745605,5559747,-0.168205052614212,0.0459406040608882,0.0
40082,5559789,5559787,65.59295654296875,24.22324562072754,5559787,-0.1673143655061721,0.0408067628741264,0.0
40083,5559839,5559847,65.63473510742188,24.2246208190918,5559847,-0.1655454635620117,0.0309363286942243,0.0
40084,5559889,5559887,65.66305541992188,24.225431442260746,5559887,-0.163926675915718,0.0230037737637758,0.0
40085,5559939,5559947,65.7064437866211,24.22617530822754,5559947,-0.1608729362487793,0.0097281113266944,0.0
40086,5559989,5559987,65.73591613769531,24.22672271728516,5559987,-0.1584130674600601,0.0004912778385914,0.0
40087,5560039,5560047,65.78158569335938,24.228271484375,5560047,-0.1539050489664077,-0.0126003324985504,0.0
40088,5560089,5560087,65.81194305419922,24.22987174987793,5560087,-0.1506336033344268,-0.0196742005646228,0.0
40089,5560139,5560147,65.85882568359375,24.23331642150879,5560147,-0.1456393897533416,-0.0266132745891809,0.0
40090,5560189,5560207,65.9064712524414,24.23788452148437,5560207,-0.1409478187561035,-0.0279286541044712,0.0
40091,5560239,5560247,65.93831634521484,24.241477966308597,5560247,-0.1380969434976577,-0.0253198817372322,0.0
40092,5560289,5560307,65.98593139648438,24.247594833374023,5560307,-0.1340813636779785,-0.0162914935499429,0.0
40093,5560339,5560347,66.0181884765625,24.252710342407227,5560347,-0.1315473616123199,-0.0072998879477381,0.0
40094,5560389,5560407,66.06474304199219,24.26060485839844,5560407,-0.1278106868267059,0.0096545778214931,0.0
40095,5560439,5560447,66.09525299072266,24.266023635864254,5560447,-0.1254533976316452,0.0220987759530544,0.0
40096,5560489,5560507,66.1403579711914,24.27405166625977,5560507,-0.1225195974111557,0.0405244827270507,0.0
40097,5560539,5560547,66.16957092285156,24.27859878540039,5560547,-0.1211889088153839,0.0515104681253433,0.0
40098,5560589,5560607,66.21324920654297,24.285118103027344,5560607,-0.1204747632145881,0.0639943927526474,0.0
40099,5560639,5560647,66.2431640625,24.289365768432617,5560647,-0.1208314672112464,0.0686521530151367,0.0
40100,5560689,5560707,66.28703308105469,24.29549789428711,5560707,-0.1218526139855384,0.0699644982814788,0.0
40101,5560739,5560747,66.3150863647461,24.29913330078125,5560747,-0.1226596310734748,0.0673652365803718,0.0
40102,5560789,5560807,66.35753631591797,24.305145263671875,5560807,-0.1236559525132179,0.0597740821540355,0.0
40103,5560839,5560827,66.37176513671875,24.307350158691406,5560827,-0.1239442974328994,0.0565889291465282,0.0
40104,5560889,5560907,66.42967987060547,24.3172550201416,5560907,-0.1250867694616317,0.0429555922746658,0.0
40105,5560939,5560927,66.44381713867188,24.319629669189453,5560927,-0.1254415959119796,0.0396887473762035,0.0
40106,5560989,5561007,66.50074768066406,24.329917907714844,5561007,-0.1277201026678085,0.0288086421787738,0.0
40107,5561039,5561027,66.51506805419922,24.33260726928711,5561027,-0.1285755485296249,0.0268598683178424,0.0
40108,5561089,5561107,66.57256317138672,24.343564987182617,5561107,-0.1330612003803253,0.0224576964974403,0.0
40109,5561139,5561127,66.58702087402344,24.34618759155273,5561127,-0.1343780010938644,0.02215526252985,0.0
40110,5561189,5561207,66.64562225341797,24.356653213500977,5561207,-0.1398963034152984,0.0223390273749828,0.0
40111,5561239,5561227,66.66014099121094,24.359146118164062,5561227,-0.1412177234888076,0.0223906058818101,0.0
40112,5561289,5561307,66.71864318847656,24.36863136291504,5561307,-0.1461724936962127,0.021490903571248,0.0
40113,5561339,5561327,66.73328399658203,24.371028900146484,5561327,-0.1472884267568588,0.0206292737275362,0.0
40114,5561389,5561407,66.79288482666016,24.38000869750977,5561407,-0.151289626955986,0.0138408169150352,0.0
40115,5561439,5561427,66.80803680419922,24.38210868835449,5561427,-0.1521684974431991,0.0113550443202257,0.0
40116,5561489,5561487,66.85484313964844,24.388376235961918,5561487,-0.1543972343206405,0.0022056486923247,0.0
40117,5561539,5561527,66.88549041748047,24.39227294921875,5561527,-0.1555353105068206,-0.0040818387642502,0.0
40118,5561589,5561587,66.93138122558594,24.39800453186035,5561587,-0.1570660471916198,-0.0121844513341784,0.0
40119,5561639,5561627,66.96224212646484,24.401931762695312,5561627,-0.1581433266401291,-0.0155901163816452,0.0
40120,5561689,5561687,67.00863647460938,24.40790557861328,5561687,-0.1598938852548599,-0.0157775320112705,0.0
40121,5561739,5561727,67.03954315185547,24.41221618652344,5561727,-0.1612453460693359,-0.0123743079602718,0.0
40122,5561789,5561787,67.08641815185547,24.419090270996094,5561787,-0.163498967885971,-0.0020899528171867,0.0
40123,5561840,5561827,67.11682891845703,24.42339515686035,5561827,-0.1653296947479248,0.0078127644956111,0.0
40124,5561889,5561887,67.16191864013672,24.429407119750977,5561887,-0.1686980426311493,0.0251870155334472,0.0
40125,5561939,5561927,67.19116973876953,24.43305969238281,5561927,-0.1713771224021911,0.036988902837038,0.0
40126,5561989,5561987,67.23407745361328,24.43783569335937,5561987,-0.1758053749799728,0.0524306930601596,0.0
40127,5562039,5562027,67.26258850097656,24.44042205810547,5562027,-0.1789978444576263,0.0599222257733345,0.0
40128,5562089,5562087,67.30620574951172,24.443395614624023,5562087,-0.1834107637405395,0.0645987540483474,0.0
40129,5562139,5562147,67.34848022460938,24.444944381713867,5562147,-0.1866281777620315,0.060965109616518,0.0
40130,5562189,5562187,67.37667083740234,24.445518493652344,5562187,-0.1876488775014877,0.054339125752449,0.0
40131,5562239,5562247,67.41951751708984,24.44637489318848,5562247,-0.1872393786907196,0.0394999831914901,0.0
40132,5562289,5562287,67.44839477539062,24.447059631347656,5562287,-0.1857229620218277,0.02797132730484,0.0
40133,5562339,5562347,67.49348449707031,24.448043823242188,5562347,-0.1823203265666961,0.010836930014193,0.0
40134,5562389,5562387,67.52349090576172,24.44879150390625,5562387,-0.1800253093242645,0.0015315386699512,0.0
40135,5562439,5562447,67.56875610351562,24.44999313354492,5562447,-0.1774733662605285,-0.0068325009196996,0.0
40136,5562489,5562487,67.59893035888672,24.450780868530277,5562487,-0.1766155064105987,-0.0074597308412194,0.0
40137,5562539,5562547,67.64419555664062,24.45249938964844,5562547,-0.1764755547046661,-0.0005395823973231,0.0
40138,5562589,5562587,67.67390441894531,24.45388603210449,5562587,-0.1767042130231857,0.0094043985009193,0.0
40139,5562639,5562647,67.71775817871094,24.45628547668457,5562647,-0.1766341775655746,0.0294026788324117,0.0
40140,5562689,5562687,67.74549865722656,24.458208084106445,5562687,-0.1758725643157959,0.0449715256690979,0.0
40141,5562739,5562747,67.78650665283203,24.461200714111328,5562747,-0.173543781042099,0.0687998905777931,0.0
40142,5562789,5562787,67.8134536743164,24.46350860595703,5562787,-0.1713320761919021,0.0831368640065193,0.0
40143,5562839,5562847,67.85355377197266,24.46769905090332,5562847,-0.1676014512777328,0.0984671786427497,0.0
40144,5562889,5562887,67.88053894042969,24.47099876403809,5562887,-0.1648599952459335,0.1030552610754966,0.0
40145,5562939,5562947,67.92228698730469,24.47561836242676,5562947,-0.1611443907022476,0.099547691643238,0.0
40146,5562989,5562987,67.95059204101562,24.478761672973636,5562987,-0.1590777486562729,0.0901733413338661,0.0
40147,5563039,5563047,67.99481201171875,24.483997344970703,5563047,-0.1570483297109604,0.0667963549494743,0.0
40148,5563089,5563087,68.02538299560547,24.487770080566406,5563087,-0.156523197889328,0.0468001924455165,0.0
40149,5563139,5563147,68.0721664428711,24.493179321289062,5563147,-0.1567413508892059,0.0143949314951896,0.0
40150,5563189,5563187,68.10449981689453,24.49699211120605,5563187,-0.1574498862028122,-0.006233419291675,0.0
40151,5563239,5563247,68.15184783935547,24.502838134765625,5563247,-0.1588113158941269,-0.0295836590230464,0.0
40152,5563289,5563287,68.1832275390625,24.50697135925293,5563287,-0.1597608476877212,-0.0388851203024387,0.0
40153,5563339,5563347,68.23008728027344,24.51401710510254,5563347,-0.1610875576734542,-0.0420941822230815,0.0
40154,5563389,5563387,68.26114654541016,24.51898956298828,5563387,-0.1620639264583587,-0.0376559980213642,0.0
40155,5563439,5563447,68.30741119384766,24.526445388793945,5563447,-0.1639519929885864,-0.0232360437512397,0.0
40156,5563489,5563507,68.3541259765625,24.53396415710449,5563507,-0.166594922542572,-0.0045369523577392,0.0
40157,5563539,5563547,68.38412475585938,24.53879737854004,5563547,-0.1685839295387268,0.007966075092554,0.0
40158,5563589,5563607,68.42909240722656,24.546504974365234,5563607,-0.1711531728506088,0.0241262689232826,0.0
40159,5563639,5563647,68.45919036865234,24.552000045776367,5563647,-0.1724826544523239,0.0324494764208793,0.0
40160,5563689,5563707,68.50467681884766,24.56058120727539,5563707,-0.1739871352910995,0.0411944016814231,0.0
40161,5563739,5563747,68.53433990478516,24.56602668762207,5563747,-0.1749523133039474,0.044626198709011,0.0
40162,5563789,5563807,68.57857513427734,24.573583602905277,5563807,-0.1768397986888885,0.0470788925886154,0.0
40163,5563839,5563847,68.60755920410156,24.5782470703125,5563847,-0.1784881651401519,0.0476946793496608,0.0
40164,5563889,5563907,68.65069580078125,24.584680557250977,5563907,-0.1815081983804702,0.0478527545928955,0.0
40165,5563939,5563947,68.67829132080078,24.58896827697754,5563947,-0.1836701780557632,0.0478802360594272,0.0
40166,5563989,5564007,68.71943664550781,24.594873428344727,5564007,-0.1868964731693267,0.0479059666395187,0.0
40167,5564039,5564047,68.74746704101562,24.59865951538086,5564047,-0.188730239868164,0.047525230795145,0.0
40168,5564089,5564107,68.7885513305664,24.60388946533203,5564107,-0.1909874826669693,0.0455275140702724,0.0
40169,5564139,5564127,68.80231475830078,24.605262756347656,5564127,-0.1915773302316665,0.0443395525217056,0.0
40170,5564189,5564207,68.85838317871094,24.61100196838379,5564207,-0.1934778094291687,0.0363413803279399,0.0
40171,5564239,5564227,68.87271118164062,24.61248588562012,5564227,-0.1938207745552063,0.0336392968893051,0.0
40172,5564289,5564307,68.93132781982422,24.618486404418945,5564307,-0.195306122303009,0.0204576794058084,0.0
40173,5564339,5564327,68.9461669921875,24.619752883911133,5564327,-0.1957104057073593,0.0170775819569826,0.0
40174,5564389,5564407,69.00675201416016,24.624557495117188,5564407,-0.1974944919347763,0.0054108621552586,0.0
40175,5564439,5564427,69.02169036865234,24.625680923461918,5564427,-0.1978594064712524,0.0033858476672321,0.0
40176,5564489,5564507,69.08072662353516,24.63019371032715,5564507,-0.1981951296329498,0.0017246755305677,0.0
40177,5564540,5564527,69.09498596191406,24.63170623779297,5564527,-0.1979163885116577,0.0030579569283872,0.0
40178,5564589,5564607,69.15118408203125,24.63804054260254,5564607,-0.195819467306137,0.0153162349015474,0.0
40179,5564639,5564627,69.16578674316406,24.63975143432617,5564627,-0.1951927840709686,0.019824668765068,0.0
40180,5564689,5564707,69.2211685180664,24.646493911743164,5564707,-0.1933020204305648,0.0394078642129898,0.0
40181,5564739,5564727,69.2350082397461,24.648216247558597,5564727,-0.1930175274610519,0.0441208854317665,0.0
40182,5564789,5564787,69.27820587158203,24.65378189086914,5564787,-0.1926560997962951,0.0558516532182693,0.0
40183,5564839,5564827,69.30726623535156,24.65751075744629,5564827,-0.1927949339151382,0.0605927743017673,0.0
40184,5564889,5564887,69.35136413574219,24.663110733032227,5564887,-0.1930171400308609,0.0614601895213127,0.0
40185,5564940,5564927,69.38145446777344,24.66666603088379,5564927,-0.1928338557481765,0.0576061755418777,0.0
40186,5564989,5564987,69.42567443847656,24.67156982421875,5564987,-0.1919371932744979,0.0454673059284687,0.0
40187,5565039,5565027,69.4556884765625,24.674924850463867,5565027,-0.1908653825521469,0.0340864360332489,0.0
40188,5565089,5565087,69.5016098022461,24.67999267578125,5565087,-0.1892287731170654,0.0137687530368566,0.0
40189,5565139,5565127,69.53276062011719,24.68320846557617,5565127,-0.18851999938488,-0.0002026402798946,0.0
40190,5565189,5565187,69.58092498779297,24.68787956237793,5565187,-0.1883017122745514,-0.019481236115098,0.0
40191,5565239,5565227,69.61282348632812,24.69088363647461,5565227,-0.1886588186025619,-0.029239684343338,0.0
40192,5565289,5565287,69.6607666015625,24.695388793945312,5565287,-0.1896643638610839,-0.0373310819268226,0.0
40193,5565339,5565327,69.69271850585938,24.69890022277832,5565327,-0.190427079796791,-0.0373974852263927,0.0
40194,5565389,5565387,69.7402572631836,24.70501518249512,5565387,-0.1914051920175552,-0.0295046307146549,0.0
40195,5565439,5565447,69.78688049316406,24.71145248413086,5565447,-0.192139595746994,-0.012709179893136,0.0
40196,5565489,5565487,69.81829071044922,24.71603202819824,5565487,-0.1925401538610458,0.0018166389781981,0.0
40197,5565539,5565547,69.86341094970703,24.723323822021484,5565547,-0.1930865496397018,0.0255623627454042,0.0
40198,5565589,5565587,69.89320373535156,24.728439331054688,5565587,-0.1934614032506942,0.0408723689615726,0.0
40199,5565639,5565647,69.9378433227539,24.73632431030273,5565647,-0.1942985653877258,0.0604306310415267,0.0
40200,5565689,5565687,69.96760559082031,24.741655349731445,5565687,-0.1951600909233093,0.0701594278216362,0.0
40201,5565739,5565747,70.01148986816406,24.749357223510746,5565747,-0.1970672160387039,0.0795259103178978,0.0
40202,5565789,5565787,70.04119873046875,24.754535675048828,5565787,-0.1986509412527084,0.0822620689868927,0.0
40203,5565839,5565847,70.08443450927734,24.76201629638672,5565847,-0.2014162093400955,0.0821759924292564,0.0
40204,5565889,5565887,70.11308288574219,24.76694679260254,5565887,-0.2034315466880798,0.0797868147492408,0.0
40205,5565939,5565947,70.15550231933594,24.77347946166992,5565947,-0.206655204296112,0.0735375210642814,0.0
40206,5565989,5565987,70.1837387084961,24.777549743652344,5565987,-0.2089337855577469,0.0678070485591888,0.0
40207,5566039,5566047,70.22708892822266,24.783445358276367,5566047,-0.2125707268714904,0.0568813793361187,0.0
40208,5566089,5566087,70.25568389892578,24.787181854248047,5566087,-0.2148802429437637,0.0482903905212879,0.0
40209,5566139,5566147,70.2984619140625,24.792110443115234,5566147,-0.217800572514534,0.0338429808616638,0.0
40210,5566189,5566187,70.32711029052734,24.795246124267575,5566187,-0.2193643897771835,0.0238708276301622,0.0
40211,5566239,5566247,70.37040710449219,24.799959182739254,5566247,-0.2212437838315963,0.0097858477383852,0.0
40212,5566289,5566287,70.39955139160156,24.80314445495605,5566287,-0.2223654687404632,0.0015082763275131,0.0
40213,5566339,5566347,70.44502258300781,24.807937622070312,5566347,-0.224167451262474,-0.0074547990225255,0.0
40214,5566389,5566387,70.4752426147461,24.811058044433597,5566387,-0.22557233273983,-0.010734892450273,0.0
40215,5566439,5566447,70.52082061767578,24.81582260131836,5566447,-0.2279589772224426,-0.0115243224427104,0.0
40216,5566489,5566487,70.55133056640625,24.8190860748291,5566487,-0.2296038568019867,-0.0096906470134854,0.0
40217,5566539,5566547,70.59676361083984,24.82456588745117,5566547,-0.2319007515907287,-0.0047006905078887,0.0
40218,5566589,5566587,70.6270751953125,24.828508377075195,5566587,-0.2331872880458831,-0.0004702262231148,0.0
40219,5566639,5566647,70.67366790771484,24.834848403930664,5566647,-0.2345229536294937,0.0055127711966633,0.0
40220,5566689,5566687,70.7044906616211,24.83919334411621,5566687,-0.2352028489112854,0.0088229794055223,0.0
40221,5566739,5566747,70.75068664550781,24.84602928161621,5566747,-0.2361993640661239,0.0126085951924324,0.0
40222,5566789,5566807,70.79700469970703,24.85266494750977,5566807,-0.2377774119377136,0.0158953126519918,0.0
40223,5566839,5566847,70.82789611816406,24.85671615600586,5566847,-0.2393834143877029,0.0185505002737045,0.0
40224,5566889,5566907,70.87461853027344,24.86227035522461,5566907,-0.2425464242696762,0.0244360696524381,0.0
40225,5566939,5566947,70.90428161621094,24.865997314453125,5566947,-0.2448431253433227,0.0298095550388097,0.0
40226,5566989,5567007,70.9477767944336,24.871294021606445,5567007,-0.2481615096330642,0.0401593968272209,0.0
40227,5567039,5567047,70.9760971069336,24.87470817565918,5567047,-0.2501435279846191,0.0481409281492233,0.0
40228,5567089,5567107,71.01786041259766,24.87972450256348,5567107,-0.2528099715709686,0.0598319545388221,0.0
40229,5567139,5567147,71.04547882080078,24.882862091064453,5567147,-0.2542860805988312,0.0663746893405914,0.0
40230,5567189,5567207,71.0877456665039,24.88763427734375,5567207,-0.2557800114154815,0.0720055773854255,0.0
40231,5567239,5567247,71.11579132080078,24.890718460083008,5567247,-0.2563918530941009,0.0721691101789474,0.0
40232,5567289,5567307,71.15849304199219,24.895103454589844,5567307,-0.2568841576576233,0.0665676668286323,0.0
40233,5567339,5567347,71.18689727783203,24.897048950195312,5567347,-0.257112979888916,0.0594250187277793,0.0
40234,5567389,5567407,71.2298812866211,24.89953994750977,5567407,-0.2574530243873596,0.0454701445996761,0.0
40235,5567439,5567427,71.24423217773438,24.90024757385254,5567427,-0.2575112581253052,0.0405743643641471,0.0
40236,5567489,5567507,71.30213165283203,24.90261459350586,5567507,-0.2572157979011535,0.0223295781761407,0.0
40237,5567539,5567527,71.31658935546875,24.902936935424805,5567527,-0.2569349706172943,0.0186826772987842,0.0
40238,5567589,5567607,71.37396240234375,24.90385627746582,5567607,-0.2550024688243866,0.009121629409492,0.0
40239,5567639,5567627,71.38821411132812,24.90403175354004,5567627,-0.2542782723903656,0.0080430544912815,0.0
40240,5567689,5567707,71.44503784179688,24.904674530029297,5567707,-0.2505794167518616,0.0074518010951578,0.0
40241,5567739,5567727,71.4594955444336,24.904653549194336,5567727,-0.249387502670288,0.0078858295455574,0.0
40242,5567789,5567807,71.51820373535156,24.90496635437012,5567807,-0.2442646622657776,0.0104045551270246,0.0
40243,5567839,5567827,71.53280639648438,24.905147552490234,5567827,-0.2428722977638244,0.0109667629003524,0.0
40244,5567889,5567907,71.59171295166016,24.90641021728516,5567907,-0.2368639260530471,0.0117552792653441,0.0
40245,5567939,5567927,71.60675811767578,24.906524658203125,5567927,-0.2352747619152069,0.011491441167891,0.0
40246,5567989,5568007,71.66748809814453,24.907398223876957,5568007,-0.228643849492073,0.008517138659954,0.0
40247,5568039,5568027,71.68283081054688,24.907665252685547,5568027,-0.2270242720842361,0.0074451570399105,0.0
40248,5568089,5568087,71.73001861572266,24.90843391418457,5568087,-0.2225720435380935,0.0033517712727189,0.0
40249,5568139,5568127,71.76163482666016,24.90930557250977,5568127,-0.2200313061475753,0.0005151296500116,0.0
40250,5568189,5568187,71.80989837646484,24.911088943481445,5568187,-0.2169461250305175,-0.0035785629879683,0.0
40251,5568239,5568227,71.84225463867188,24.91219711303711,5568227,-0.2154042571783065,-0.0055676498450338,0.0
40252,5568289,5568287,71.89083862304688,24.91391372680664,5568287,-0.2136808931827545,-0.0062035857699811,0.0
40253,5568339,5568327,71.92384338378906,24.91529655456543,5568327,-0.2127994298934936,-0.0047811483964324,0.0
40254,5568389,5568387,71.97175598144531,24.917726516723636,5568387,-0.2116793394088745,0.0004223081341478,0.0
40255,5568439,5568427,72.00342559814453,24.91952896118164,5568427,-0.210991770029068,0.0057543278671801,0.0
40256,5568489,5568487,72.05039978027344,24.922494888305664,5568487,-0.2100096493959427,0.0155076570808887,0.0
40257,5568539,5568527,72.08145141601562,24.924861907958984,5568527,-0.2092720568180084,0.0225246176123619,0.0
40258,5568589,5568587,72.12767028808594,24.92898941040039,5568587,-0.2080221176147461,0.0330011323094368,0.0
40259,5568639,5568627,72.15886688232422,24.932056427001957,5568627,-0.2069902569055557,0.0392357818782329,0.0
40260,5568689,5568687,72.20402526855469,24.93699073791504,5568687,-0.2052169442176818,0.0469380281865596,0.0
40261,5568739,5568747,72.24889373779297,24.942501068115234,5568747,-0.203389897942543,0.0516767427325248,0.0
40262,5568789,5568787,72.27883911132812,24.946428298950195,5568787,-0.2023224532604217,0.0528859607875347,0.0
40263,5568839,5568847,72.32402801513672,24.95246124267578,5568847,-0.2013026773929596,0.0513712540268898,0.0
40264,5568889,5568887,72.35517120361328,24.956600189208984,5568887,-0.2011511623859405,0.0480383038520813,0.0
40265,5568939,5568947,72.40133666992188,24.96214866638184,5568947,-0.2016349583864212,0.0402361042797565,0.0
40266,5568989,5568987,72.43238067626953,24.965734481811523,5568987,-0.2022661715745926,0.0335051864385604,0.0
40267,5569039,5569047,72.47911071777344,24.971227645874023,5569047,-0.2033255994319915,0.0224251858890056,0.0
40268,5569089,5569087,72.51031494140625,24.974958419799805,5569087,-0.2039917707443237,0.015178426168859,0.0
40269,5569139,5569147,72.55760955810547,24.98053932189941,5569147,-0.2047013938426971,0.005563601385802,0.0
40270,5569189,5569187,72.59005737304688,24.984437942504883,5569187,-0.204983189702034,0.000903972540982,0.0
40271,5569239,5569247,72.63753509521484,24.990345001220703,5569247,-0.2053516805171966,-0.002727379091084,0.0
40272,5569289,5569287,72.669189453125,24.994422912597656,5569287,-0.205743134021759,-0.0026936666108667,0.0
40273,5569339,5569347,72.71624755859375,25.00092887878418,5569347,-0.2069788128137588,0.0009328668238595,0.0
40274,5569389,5569387,72.74747467041016,25.0053768157959,5569387,-0.2083617448806762,0.0055974409915506,0.0
40275,5569439,5569447,72.79410552978516,25.011964797973636,5569447,-0.2114151865243911,0.015167093835771,0.0
40276,5569489,5569487,72.82569885253906,25.01635360717773,5569487,-0.213841363787651,0.0225636251270771,0.0
40277,5569539,5569547,72.87018585205078,25.02310943603516,5569547,-0.2177643179893493,0.0344284325838089,0.0
40278,5569589,5569587,72.89904022216797,25.0275936126709,5569587,-0.220272421836853,0.0423280000686645,0.0
40279,5569639,5569647,72.9416275024414,25.03400421142578,5569647,-0.2237128019332885,0.0532797910273075,0.0
40280,5569689,5569687,72.9696273803711,25.038070678710938,5569687,-0.2256725877523422,0.059534091502428,0.0
40281,5569739,5569747,73.01101684570312,25.043760299682617,5569747,-0.2283318191766739,0.0664034783840179,0.0
40282,5569789,5569787,73.03912353515625,25.047426223754883,5569787,-0.2298491597175598,0.068799652159214,0.0
40283,5569839,5569847,73.08028411865234,25.052675247192383,5569847,-0.2317602932453155,0.0688866451382637,0.0
40284,5569889,5569887,73.10790252685547,25.05618095397949,5569887,-0.2327541559934616,0.0666592642664909,0.0
40285,5569939,5569947,73.1495132446289,25.06180191040039,5569947,-0.2337526232004165,0.0601832084357738,0.0
40286,5569989,5569987,73.17754364013672,25.06576538085937,5569987,-0.2341903895139694,0.0537932589650154,0.0
40287,5570039,5570047,73.22093200683594,25.07196044921875,5570047,-0.234619066119194,0.0417745858430862,0.0
40288,5570089,5570107,73.26423645019531,25.07805824279785,5570107,-0.2348663508892059,0.0290993321686983,0.0
40289,5570139,5570147,73.29356384277344,25.081039428710938,5570147,-0.234891653060913,0.0211331062018871,0.0
40290,5570189,5570207,73.33769226074219,25.08553504943848,5570207,-0.2345952093601226,0.0108246346935629,0.0
40291,5570239,5570247,73.36713409423828,25.088542938232425,5570247,-0.2340750992298126,0.005767754279077,0.0
40292,5570289,5570307,73.41136932373047,25.093027114868164,5570307,-0.2329690009355545,0.0013747549382969,0.0
40293,5570339,5570347,73.4418716430664,25.09641456604004,5570347,-0.2321456670761108,0.000623641652055,0.0
40294,5570389,5570407,73.4864730834961,25.10100555419922,5570407,-0.2309654951095581,0.0026112096384167,0.0
40295,5570439,5570447,73.51611328125,25.10381126403809,5570447,-0.230236142873764,0.0056411027908325,0.0
40296,5570489,5570507,73.5604019165039,25.10760498046875,5570507,-0.2293237447738647,0.0114106545224785,0.0
40297,5570539,5570547,73.59019470214844,25.10906219482422,5570547,-0.2287849485874176,0.01571561768651,0.0
40298,5570589,5570607,73.63521575927734,25.111053466796875,5570607,-0.2279116362333297,0.0222552493214607,0.0
40299,5570639,5570647,73.66453552246094,25.112253189086918,5570647,-0.2272192984819412,0.0260071475058794,0.0
40300,5570689,5570707,73.70828247070312,25.114072799682617,5570707,-0.2258468568325042,0.0300642270594835,0.0
40301,5570739,5570727,73.72280883789062,25.1143856048584,5570727,-0.2252537012100219,0.0308623854070901,0.0
40302,5570789,5570807,73.78118896484375,25.116140365600582,5570807,-0.2221853286027908,0.0310306455940008,0.0
40303,5570839,5570827,73.7958984375,25.11669158935547,5570827,-0.2212610095739364,0.0303319133818149,0.0
40304,5570889,5570907,73.85606384277344,25.11929702758789,5570907,-0.2174333035945892,0.0248770397156476,0.0
40305,5570939,5570927,73.87127685546875,25.11981201171875,5570927,-0.2165455818176269,0.0230924300849437,0.0
40306,5570989,5571007,73.93244171142578,25.12197494506836,5571007,-0.213730439543724,0.0156138334423303,0.0
40307,5571039,5571027,73.94776153564453,25.122529983520508,5571027,-0.2131681740283966,0.013885136693716,0.0
40308,5571089,5571107,74.00894165039062,25.124853134155277,5571107,-0.2110257595777511,0.0087797036394476,0.0
40309,5571139,5571127,74.02433776855469,25.125675201416016,5571127,-0.2104378789663314,0.0081805121153593,0.0
40310,5571189,5571207,74.08625793457031,25.129207611083984,5571207,-0.2076058238744735,0.0080921836197376,0.0
40311,5571239,5571227,74.1014633178711,25.1301326751709,5571227,-0.2067538201808929,0.0086927497759461,0.0
40312,5571289,5571307,74.16204833984375,25.13408088684082,5571307,-0.2029934078454971,0.0126944165676832,0.0
40313,5571339,5571327,74.17730712890625,25.13503074645996,5571327,-0.2019808143377304,0.0138825457543134,0.0
40314,5571389,5571387,74.22298431396484,25.1380615234375,5571387,-0.1989144533872604,0.0175147429108619,0.0
40315,5571439,5571427,74.25340270996094,25.140254974365234,5571427,-0.1968739032745361,0.0195811446756124,0.0
40316,5571489,5571487,74.29978942871094,25.14388656616211,5571487,-0.193826749920845,0.0216067638248205,0.0
40317,5571539,5571527,74.33053588867188,25.14642143249512,5571527,-0.1918751448392868,0.0222342461347579,0.0
40318,5571589,5571587,74.3771743774414,25.150480270385746,5571587,-0.1891829967498779,0.0216712169349193,0.0
40319,5571639,5571627,74.40837860107422,25.15340232849121,5571627,-0.1875966489315033,0.0203959792852401,0.0
40320,5571689,5571687,74.45533752441406,25.158130645751957,5571687,-0.1856335401535034,0.0179084837436676,0.0
40321,5571739,5571727,74.4870834350586,25.16165351867676,5571727,-0.1846017390489578,0.0162899065762758,0.0
40322,5571789,5571787,74.535888671875,25.16762351989746,5571787,-0.1834586858749389,0.015135845169425,0.0
40323,5571839,5571827,74.5677490234375,25.17186737060547,5571827,-0.1829981952905655,0.0155629059299826,0.0
40324,5571889,5571887,74.6152572631836,25.178815841674805,5571887,-0.1825600713491439,0.018394460901618,0.0
40325,5571939,5571927,74.64643096923828,25.18391227722168,5571927,-0.1824914366006851,0.0214777942746877,0.0
40326,5571989,5571987,74.69264221191406,25.192138671875,5571987,-0.1828147768974304,0.0270326826721429,0.0
40327,5572039,5572047,74.73963165283203,25.20103073120117,5572047,-0.1836409270763397,0.032508872449398,0.0
40328,5572089,5572087,74.77050018310547,25.207069396972656,5572087,-0.1843622177839279,0.0349558033049106,0.0
40329,5572139,5572147,74.81674194335938,25.21603202819824,5572147,-0.1857638359069824,0.0359145067632198,0.0
40330,5572189,5572187,74.84773254394531,25.2219295501709,5572187,-0.1869414895772934,0.0340313017368316,0.0
40331,5572239,5572247,74.89471435546875,25.23055076599121,5572247,-0.188943400979042,0.0275832638144493,0.0
40332,5572289,5572287,74.92643737792969,25.236297607421875,5572287,-0.1903997510671615,0.0212621875107288,0.0
40333,5572339,5572347,74.97441864013672,25.245506286621094,5572347,-0.1924379765987396,0.0108913388103246,0.0
40334,5572389,5572387,75.00589752197266,25.25186538696289,5572387,-0.1937092989683151,0.0046377116814255,0.0
40335,5572439,5572447,75.05339050292969,25.261592864990234,5572447,-0.1955820471048355,-0.0016300125280395,0.0
40336,5572489,5572487,75.08513641357422,25.268198013305664,5572487,-0.196985512971878,-0.0027758977375924,0.0
40337,5572539,5572547,75.1322250366211,25.278459548950195,5572547,-0.1994492709636688,0.0008424361585639,0.0
