nx_bin,ny_bin,packet_index,ping_number,pwr_up_msec,utc_msec,utc_iso,ping_hz,sos_mps,listening_sec,pulse_sec,point_index,angle_rad,angle_deg,tof_s,range_m,y_m,z_m,reserved0,reserved1,beam_order,beam_count,beam_order_reversed,t_sync,boat_x_m,boat_y_m,boat_z_m,roll_rad,pitch_rad,yaw_rad,map_x_m,map_y_m,map_z_m,x_boat_m,y_boat_m,z_boat_m,altitude_like_sonarview_m
32.0,21.5,739,39835,5547439,1776874538358,2026-04-22T16:15:38.358000+00:00,240000,1500.0,0.0104937236756086,9.999999747378752e-05,3,-0.279252678155899,-15.999999876058132,0.0087437238544225,6.0658021050484106,-1.8075726787840496,-6.303755119749059,4294967295,4294967295,3,4,0,5547439,37.755218505859375,19.42621421813965,16.61713409423828,-0.0109931165352463,0.0658981949090957,2.774116039276123,32.07571444601611,21.556282013265797,-2.3744222734765073,6.208765884113524,0.0742214104554141,-1.969150499298891,-2.3744222734765073
32.25,21.0,4296,40089,5560139,1776874551058,2026-04-22T16:15:51.058000+00:00,240000,1500.0,0.009615859016776,9.999999747378752e-05,4,-0.279252678155899,-15.999999876058132,0.0088825263082981,6.324433596038738,-1.8362670345929548,-6.403824231470733,4294967295,4294967295,4,5,0,5560139,38.54011917114258,19.307674407958984,16.6203670501709,0.007729051169008,-0.008346339687705,2.8345298767089844,32.48539556885471,21.13490794820548,-1.9492970978620576,6.307327086937629,0.07285971617995396,-2.00263225944705,-1.9492970978620576
32.25,21.5,4881,40136,5562489,1776874553408,2026-04-22T16:15:53.408000+00:00,240000,1500.0,0.010490408167243,9.999999747378752e-05,5,-0.3316125571727752,-18.999999959540737,0.00934040825814,6.467686138549598,-2.280704604182019,-6.623647135425047,4294967295,4294967295,5,6,0,5562489,38.57781219482422,19.38421440124512,16.93343734741211,-0.0057135759852826,0.0150778461247682,2.7872116565704346,32.49902858648215,21.593140346074044,-2.5547678156621636,6.5053598539546655,0.05176887523760297,-2.4567083125274367,-2.5547678156621636
32.5,20.0,5718,40203,5565839,1776874556758,2026-04-22T16:15:56.758000+00:00,240000,1500.0,0.0105570573359727,9.999999747378752e-05,4,-0.296705961227417,-16.999999334703237,0.0086070569232106,6.00494272839803,-1.8873448572823803,-6.173227124798296,4294967295,4294967295,4,5,0,5565839,38.63487243652344,19.354124069213867,17.05919647216797,-0.0226648319512605,0.0325104221701622,3.023252487182617,32.669127613245315,20.039124707805293,-2.239850824530088,6.074526823022579,0.070435811659415,-2.0424082746364824,-2.239850824530088
32.5,20.25,5656,40198,5565589,1776874556508,2026-04-22T16:15:56.508000+00:00,240000,1500.0,0.0113685214892029,9.999999747378752e-05,2,-0.3141592741012573,-18.000000500895634,0.0087070576846599,5.988401766514288,-2.017971650967655,-6.2106779439235655,4294967295,4294967295,2,3,0,5565589,38.60025787353516,19.385560989379883,16.939504623413086,-0.0278133489191532,0.0503407306969165,2.957169532775879,32.7127218314047,20.480035781143584,-2.479970965254708,6.105605159651041,0.06423690068307071,-2.1745507491734926,-2.479970965254708
32.5,21.0,4307,40090,5560189,1776874551108,2026-04-22T16:15:51.108000+00:00,240000,1500.0,0.009615859016776,9.999999747378752e-05,4,-0.296705961227417,-16.999999334703237,0.0088825263082981,6.2502704889643494,-1.947749445275936,-6.370801637810725,4294967295,4294967295,4,5,0,5560189,38.54011917114258,19.307674407958984,16.6203670501709,-0.0029808245599269,0.0088646952062845,2.832472801208496,32.5677465840855,21.150673829170984,-2.16793694884126,6.2689424268189216,0.06756930431455152,-2.1122563854120426,-2.16793694884126
32.5,21.25,5569,40191,5565239,1776874556158,2026-04-22T16:15:56.158000+00:00,240000,1500.0,0.0113685214892029,9.999999747378752e-05,3,-0.3490658402442932,-19.99999941818584,0.0092018544673919,6.296065271445442,-2.360414621995216,-6.48518607938456,4294967295,4294967295,3,4,0,5565239,38.572853088378906,19.4046630859375,16.937742233276367,-0.005000106524676,0.0257467348128557,2.818257093429565,32.59191046683906,21.371580283012516,-2.6927027232604903,6.363200079435345,0.047986226284760125,-2.529519307954932,-2.6927027232604903
32.5,21.5,4645,40117,5561539,1776874552458,2026-04-22T16:15:52.458000+00:00,240000,1500.0,0.009615859016776,9.999999747378752e-05,3,-0.3665191531181335,-21.00000058437824,0.0094783594831824,6.313807410400861,-2.547555257469924,-6.636608140619096,4294967295,4294967295,3,4,0,5561539,38.55741500854492,19.32096672058105,16.729698181152344,-0.0397266522049903,0.0654271095991134,2.7921955585479736,32.64910117319087,21.54717238012752,-3.142475873857757,6.5053776322209576,0.039105443815589044,-2.7235732521586575,-3.142475873857757
32.5,21.75,5495,40185,5564940,1776874555859,2026-04-22T16:15:55.859000+00:00,240000,1500.0,0.009683970361948,9.999999747378752e-05,2,-0.3490658402442932,-19.99999941818584,0.0092256367206573,6.314333208714948,-2.36651512907784,-6.501947085370863,4294967295,4294967295,2,3,0,5564940,38.56721115112305,19.4034481048584,16.970947265625,-0.0204513426870107,0.0249649286270141,2.758552312850952,32.712025696996314,21.76726010424903,-2.6953240256535733,6.37964581180415,0.04769672595141458,-2.5364186981271617,-2.6953240256535733
32.75,21.0,4571,40111,5561239,1776874552158,2026-04-22T16:15:52.158000+00:00,240000,1500.0,0.009615859016776,9.999999747378752e-05,3,-0.3141592741012573,-18.000000500895634,0.0085158599540591,5.987198860694776,-1.9736591387441988,-6.074298058619381,4294967295,4294967295,3,4,0,5561239,38.55351257324219,19.29019927978516,16.705217361450195,0.0123961493372917,-0.0071136620827019,2.795301675796509,32.890950070328635,21.234919336272014,-2.080207354188094,5.97153256099045,0.06633975654182504,-2.123725675235819,-2.080207354188094
32.75,21.5,4658,40118,5561589,1776874552508,2026-04-22T16:15:52.508000+00:00,240000,1500.0,0.009615859016776,9.999999747378752e-05,3,-0.4014257192611694,-22.999999501668448,0.0091904085129499,6.045480867945863,-2.6932339619721675,-6.34486175446026,4294967295,4294967295,3,4,0,5561589,38.55741500854492,19.32096672058105,16.729698181152344,-0.0570284016430377,0.053958486765623,2.7917447090148926,32.92422006546625,21.515266986718835,-3.182563088958961,6.2069169744273855,0.03219224251223063,-2.8547665529760358,-3.182563088958961
33.0,20.75,5582,40192,5565289,1776874556208,2026-04-22T16:15:56.208000+00:00,240000,1500.0,0.0113685214892029,9.999999747378752e-05,3,-0.3839724361896515,-22.000000043023345,0.0082810213789343,5.552719156647719,-2.326593910899279,-5.758521989655729,4294967295,4294967295,3,5,1,5565289,38.572853088378906,19.4046630859375,16.937742233276367,-0.0088540976867079,0.0337990820407867,2.8507654666900635,33.24540331230034,20.970220148443683,-2.650027320245339,5.639029674358563,0.049591192397191036,-2.460532437499956,-2.650027320245339
33.0,21.0,4584,40112,5561289,1776874552208,2026-04-22T16:15:52.208000+00:00,240000,1500.0,0.009615859016776,9.999999747378752e-05,4,-0.3490658402442932,-19.99999941818584,0.0084700258448719,5.789675082908935,-2.1726895294595647,-5.969415610281843,4294967295,4294967295,4,5,0,5561289,38.55351257324219,19.29019927978516,16.705217361450195,0.0046732667833566,0.028278587386012,2.794663429260254,33.08612501163913,21.194933071390903,-2.4816027496327573,5.85713122500453,0.056894744237502876,-2.317210947194166,-2.4816027496327573
33.0,21.25,4881,40136,5562489,1776874553408,2026-04-22T16:15:53.408000+00:00,240000,1500.0,0.010490408167243,9.999999747378752e-05,4,-0.3665191531181335,-21.00000058437824,0.008440407924354,5.75612068179696,-2.26857882115898,-5.909849699233659,4294967295,4294967295,4,6,1,5562489,38.57781219482422,19.38421440124512,16.93343734741211,-0.0057135759852826,0.0150778461247682,2.7872116565704346,33.16610410536824,21.345423430881542,-2.4973187377089223,5.792989917225396,0.05234430580094809,-2.409990471702719,-2.4973187377089223
33.25,16.75,6080,40232,5567289,1776874558208,2026-04-22T16:15:58.208000+00:00,240000,1500.0,0.0096839629113674,9.999999747378752e-05,7,-0.0523598790168762,-3.0000000834826057,0.0078964624553918,5.885031918485927,-0.3099516937718866,-5.914230470574604,4294967295,4294967295,7,8,0,5567289,38.7548713684082,19.19314384460449,16.961082458496094,-0.020974576473236,0.0172361508011817,-2.7487521171569824,33.371520343834284,16.815512159961745,-0.5605183651572211,5.89225411300421,0.14529120326348757,-0.4560849189743812,-0.5605183651572211
33.25,17.5,5993,40225,5566939,1776874557858,2026-04-22T16:15:57.858000+00:00,240000,1500.0,0.0096839629113674,9.999999747378752e-05,5,-0.1396263390779495,-7.999999938029066,0.007621462456882,5.602817550673375,-0.7955269168588958,-5.660468181982631,4294967295,4294967295,5,6,0,5566939,38.72998046875,19.22074508666992,16.957406997680664,-0.0478846952319145,0.0133808907121419,-2.8891522884368896,33.32466241105377,17.746261719087673,-1.0080735888596406,5.615266062197326,0.12224816978379344,-0.9282345083056561,-1.0080735888596406
33.25,17.75,5955,40222,5566789,1776874557708,2026-04-22T16:15:57.708000+00:00,240000,1500.0,0.0096839629113674,9.999999747378752e-05,7,-0.1396263390779495,-7.999999938029066,0.007621462456882,5.605025947979762,-0.7955269168588958,-5.660468181982631,4294967295,4294967295,7,8,0,5566789,38.72998046875,19.22074508666992,16.957406997680664,-0.0523040518164634,0.0111168436706066,-2.92200255393982,33.276042006740305,17.928123281911176,-0.9957213411208882,5.615266062197326,0.12224816978379344,-0.9282345083056561,-0.9957213411208882
33.25,18.5,5892,40217,5566539,1776874557458,2026-04-22T16:15:57.458000+00:00,240000,1500.0,0.0096839629113674,9.999999747378752e-05,6,-0.1919862180948257,-11.000000021511672,0.0075297956354916,5.483855293345756,-1.0775645575304722,-5.543589060798535,4294967295,4294967295,6,7,0,5566539,38.70700454711914,19.258302688598636,16.98855972290039,-0.031853049993515,0.0012050251243636,-3.020941257476806,33.27194507063897,18.528372989600598,-1.2134189391020516,5.484860763255052,0.10886403795924904,-1.2039540809649707,-1.2134189391020516
33.25,20.0,2731,39963,5553839,1776874544758,2026-04-22T16:15:44.758000+00:00,240000,1500.0,0.009615859016776,9.999999747378752e-05,6,-0.2268927991390228,-12.999999792575526,0.0066366922110319,4.811137366714495,-1.119698165112542,-4.8499456687707,4294967295,4294967295,6,7,0,5553839,38.18986511230469,19.27279663085937,16.549964904785156,-0.0515902489423751,-0.0178465079516172,2.9387595653533936,33.468651111811354,20.198637396294888,-1.1305721459408258,4.7899924757574395,0.1068645822951779,-1.2123482098026783,-1.1305721459408258
33.25,20.25,1690,39895,5550439,1776874541358,2026-04-22T16:15:41.358000+00:00,240000,1500.0,0.0088076954707503,9.999999747378752e-05,6,-0.279252678155899,-15.999999876058132,0.0065576955676078,4.648489109724367,-1.355659389654188,-4.727746175007014,4294967295,4294967295,6,7,0,5550439,37.99176406860352,19.372438430786133,16.597824096679688,-0.0424927808344364,0.0055865584872663,2.8917572498321533,33.479230605864046,20.488454896113822,-1.4705929706551295,4.656505305570985,0.09566701261183248,-1.4418393982873203,-1.4705929706551295
33.25,20.5,1374,39875,5549439,1776874540358,2026-04-22T16:15:40.358000+00:00,240000,1500.0,0.0088076954707503,9.999999747378752e-05,5,-0.279252678155899,-15.999999876058132,0.0065160286612808,4.6297712904897015,-1.347045672805381,-4.697706574208078,4294967295,4294967295,5,6,0,5549439,37.93301773071289,19.410022735595703,16.652591705322266,-0.026702394708991,-0.0017428473802283,2.858788013458252,33.47137046713073,20.646342232171133,-1.4257771047673864,4.626918361746262,0.0960757776317398,-1.4317885575074616,-1.4257771047673864
33.25,20.75,867,39843,5547839,1776874538758,2026-04-22T16:15:38.758000+00:00,240000,1500.0,0.0088076954707503,9.999999747378752e-05,5,-0.279252678155899,-15.999999876058132,0.0065993620082736,4.692290055610465,-1.3642730102377614,-4.75778544008918,4294967295,4294967295,5,7,1,5547839,37.79949188232422,19.37570571899414,16.558609008789062,-0.0497776120901107,-0.0042510940693318,2.794066905975342,33.37996906690441,20.952222147695288,-1.4348974108314252,4.686091918737746,0.09525825216020396,-1.4518901267409259,-1.4348974108314252
33.25,21.0,4735,40124,5561889,1776874552808,2026-04-22T16:15:52.808000+00:00,240000,1500.0,0.010490408167243,9.999999747378752e-05,3,-0.296705961227417,-16.999999334703237,0.0076404088176786,5.405990133990591,-1.6753794494717735,-5.4799194868399015,4294967295,4294967295,3,4,0,5561889,38.56220626831055,19.350303649902344,16.61475372314453,-0.0411802940070629,-0.007693838328123,2.7967023849487305,33.47238944482156,21.17197706523564,-1.7575544203592472,5.39230409603644,0.08049465683208483,-1.7973046529228212,-1.7575544203592472
33.25,21.25,4632,40116,5561489,1776874552408,2026-04-22T16:15:52.408000+00:00,240000,1500.0,0.009615859016776,9.999999747378752e-05,3,-0.4014257192611694,-22.999999501668448,0.0084700258448719,5.53722654810752,-2.48212701666611,-5.847524945892576,4294967295,4294967295,3,4,0,5561489,38.55741500854492,19.32096672058105,16.729698181152344,-0.0397266522049903,0.0654271095991134,2.7921955585479736,33.37626017134968,21.274556339225416,-2.9880303218530377,5.720392854822056,0.04221034923842942,-2.620024221700601,-2.9880303218530377
33.5,16.25,6128,40236,5567489,1776874558408,2026-04-22T16:15:58.408000+00:00,240000,1500.0,0.0096839629113674,9.999999747378752e-05,4,-0.0349065847694873,-1.9999999845072665,0.0077589624561369,5.790562252259818,-0.2030879119170305,-5.8156769294415245,4294967295,4294967295,4,5,0,5567489,38.78238677978516,19.17660140991211,16.887617111206055,-0.0202313102781772,0.0243962220847606,-2.676438808441162,33.67294819301583,16.451853985777376,-0.48901453403490214,5.798993730276539,0.1503624375150897,-0.34468719934401465,-0.48901453403490214
33.5,17.25,6041,40229,5567139,1776874558058,2026-04-22T16:15:58.058000+00:00,240000,1500.0,0.0096839629113674,9.999999747378752e-05,7,-0.1047197580337524,-6.000000166965211,0.0073006292805075,5.402584485451818,-0.5723426855523416,-5.445476750405764,4294967295,4294967295,7,8,0,5567139,38.7548713684082,19.19314384460449,16.961082458496094,-0.0309385117143392,0.0134657016023993,-2.8208930492401123,33.66390120787394,17.384845764365934,-0.7717152214889166,5.411340137226016,0.13283940564101343,-0.6951367614204047,-0.7717152214889166
33.5,20.0,2439,39942,5552789,1776874543708,2026-04-22T16:15:43.708000+00:00,240000,1500.0,0.0088076954707503,9.999999747378752e-05,5,-0.2617993950843811,-15.000000417413029,0.0062660286203026,4.469455315232006,-1.216325691139355,-4.539389145601397,4294967295,4294967295,5,6,0,5552789,38.117801666259766,19.351491928100582,16.61033058166504,-0.013044117949903,0.0049622352235019,2.933481216430664,33.72793885139951,20.191215264422016,-1.3171055532734333,4.475120174760544,0.10227911085546876,-1.2936909438707227,-1.3171055532734333
33.5,20.25,1722,39897,5550539,1776874541458,2026-04-22T16:15:41.458000+00:00,240000,1500.0,0.0088076954707503,9.999999747378752e-05,8,-0.2617993950843811,-15.000000417413029,0.0061826952733099,4.420163561235064,-1.2001494977291511,-4.479018771680703,4294967295,4294967295,8,9,0,5550539,37.9926872253418,19.36059188842773,16.622196197509766,-0.0346025042235851,-0.0032804266083985,2.8949875831604004,33.692252878035006,20.382409060222304,-1.2629340118745755,4.4156045285745105,0.10304675415480272,-1.2746239602762328,-1.2629340118745755
33.5,20.5,993,39851,5548239,1776874539158,2026-04-22T16:15:39.158000+00:00,240000,1500.0,0.0088076954707503,9.999999747378752e-05,5,-0.2094395160675048,-12.000000333930425,0.0059326952323317,4.32086217724923,-0.9251075480113607,-4.352288700150946,4294967295,4294967295,5,6,0,5548239,37.83111190795898,19.35017204284668,16.559934616088867,-0.0442041754722595,-0.018699262291193,2.807969808578491,33.72546375777176,20.69683578025378,-0.9176074193766207,4.3023484150068745,0.11609890458244458,-0.9940686551343237,-0.9176074193766207
33.5,20.75,853,39842,5547789,1776874538708,2026-04-22T16:15:38.708000+00:00,240000,1500.0,0.0088076954707503,9.999999747378752e-05,6,-0.2617993950843811,-15.000000417413029,0.0060160285793244,4.290047878396781,-1.1677971109087433,-4.358278023839317,4294967295,4294967295,6,7,0,5547789,37.79545211791992,19.3796443939209,16.57488441467285,-0.048894252628088,0.005393642000854,2.793736696243286,33.747558846119574,20.80058452603421,-1.2632797320338376,4.296573236202445,0.10458204075347065,-1.236489993087253,-1.2632797320338376
33.5,21.0,4708,40122,5561789,1776874552708,2026-04-22T16:15:52.708000+00:00,240000,1500.0,0.010490408167243,9.999999747378752e-05,5,-0.3316125571727752,-18.999999959540737,0.0076404088176786,5.315194293636229,-1.8656053447263927,-5.418111348033404,4294967295,4294967295,5,6,0,5561789,38.56220626831055,19.350303649902344,16.61475372314453,-0.0553514398634433,0.0031591081060469,2.79472279548645,33.576765031739924,21.193308277081645,-2.001810813415932,5.321352923413375,0.07146746297077132,-1.9840948510664789,-2.001810813415932
33.5,21.25,5143,40157,5563539,1776874554458,2026-04-22T16:15:54.458000+00:00,240000,1500.0,0.0113685214892029,9.999999747378752e-05,2,-0.3490658402442932,-19.99999941818584,0.0078570572659373,5.425947909021167,-2.0154538329303304,-5.537414070886282,4294967295,4294967295,2,4,1,5563539,38.591068267822266,19.38340377807617,16.94715118408203,-0.0268572010099887,0.0034016286954283,2.780031442642212,33.5135007827691,21.296312334735905,-2.158810868738521,5.433255611236652,0.064356384055721,-2.1393846772358263,-2.158810868738521
33.75,15.75,6216,40243,5567839,1776874558758,2026-04-22T16:15:58.758000+00:00,240000,1500.0,0.0096839629113674,9.999999747378752e-05,10,-0.0349065847694873,-1.9999999845072665,0.0078964624553918,5.883665382306083,-0.2066869224671064,-5.918739107920389,4294967295,4294967295,10,11,0,5567839,38.81214904785156,19.173019409179688,16.87192726135254,-0.0256928279995918,0.0413216166198253,-2.568714141845703,33.94573205902321,15.866132047658319,-0.6005145059606867,5.9017602584173945,0.1501916460153259,-0.3532765551922273,-0.6005145059606867
33.75,17.0,6054,40230,5567189,1776874558108,2026-04-22T16:15:58.108000+00:00,240000,1500.0,0.0096839629113674,9.999999747378752e-05,7,-0.1047197580337524,-6.000000166965211,0.0072547956369817,5.367965327425508,-0.5687494952099327,-5.411289828893021,4294967295,4294967295,7,8,0,5567189,38.7548713684082,19.19314384460449,16.961082458496094,-0.0243626739829778,0.0145607758313417,-2.7850492000579834,33.76622709751079,17.21110446687132,-0.7711515881006997,5.377367526740384,0.13300992094208802,-0.6898937393263413,-0.7711515881006997
33.75,20.0,1975,39913,5551340,1776874542259,2026-04-22T16:15:42.259000+00:00,240000,1500.0,0.0088076954707503,9.999999747378752e-05,5,-0.296705961227417,-16.999999334703237,0.0059326952323317,4.169366489685599,-1.3009141145993826,-4.25509851487428,4294967295,4294967295,5,6,0,5551340,38.02242660522461,19.306154251098636,16.58864974975586,-0.0565611645579338,0.0127322487533092,2.914527654647827,33.955410099333285,20.224301116322682,-1.4208679829504258,4.187066106700537,0.09826495654711623,-1.364296216633769,-1.4208679829504258
33.75,20.25,1676,39894,5550389,1776874541308,2026-04-22T16:15:41.308000+00:00,240000,1500.0,0.0088076954707503,9.999999747378752e-05,6,-0.3316125571727752,-18.999999959540737,0.0059326952323317,4.118999987546095,-1.4486224753394297,-4.207105160177324,4294967295,4294967295,6,8,1,5550389,37.99146270751953,19.374794006347656,16.59304428100586,-0.0430462285876274,0.008536702953279,2.89078950881958,33.99490577168417,20.371635797220698,-1.5470835286895135,4.131973284628605,0.09125543765089826,-1.5093367955369632,-1.5470835286895135
33.75,20.5,1027,39853,5548339,1776874539258,2026-04-22T16:15:39.258000+00:00,240000,1500.0,0.0088076954707503,9.999999747378752e-05,5,-0.296705961227417,-16.999999334703237,0.0057243620976805,4.046119195008486,-1.2552310810382707,-4.1056760387251146,4294967295,4294967295,5,6,0,5548339,37.83638381958008,19.35051727294922,16.609498977661133,-0.0485868975520134,-0.0045348145067691,2.813345193862915,33.99464326794887,20.620206240440247,-1.2964670604372128,4.040032663578968,0.10043285066887636,-1.3114711963045091,-1.2964670604372128
33.75,20.75,631,39828,5547089,1776874538008,2026-04-22T16:15:38.008000+00:00,240000,1500.0,0.0104937236756086,9.999999747378752e-05,3,-0.3316125571727752,-18.999999959540737,0.0057937237434089,4.020651815343033,-1.4146889570309429,-4.108555066961936,4294967295,4294967295,3,4,0,5547089,37.7275505065918,19.462865829467773,16.630001068115234,-0.0074735395610332,0.0102975191548466,2.7586817741394043,33.968254409249376,20.888815994349866,-1.5128281974731155,4.035183131575601,0.09286575704383433,-1.470701608453385,-1.5128281974731155
33.75,21.0,121,39796,5545489,1776874536408,2026-04-22T16:15:36.408000+00:00,240000,1500.0,0.0096808588132262,9.999999747378752e-05,2,-0.3141592741012573,-18.000000500895634,0.0057391924783587,3.9990002878005044,-1.3301310431397524,-4.093722291983037,4294967295,4294967295,2,3,0,5545489,37.5713005065918,19.459157943725582,16.657224655151367,-0.0374827906489372,0.0180523097515106,2.675470352172852,33.97897486501264,21.21620085346951,-1.4606968524498665,4.024464345726462,0.09687846351674813,-1.3856189555099845,-1.4606968524498665
33.75,21.25,76,39793,5545339,1776874536258,2026-04-22T16:15:36.258000+00:00,240000,1500.0,0.0096808588132262,9.999999747378752e-05,5,-0.296705961227417,-16.999999334703237,0.0057850261218845,4.0639992753182606,-1.2685334136619515,-4.149186010026194,4294967295,4294967295,5,6,0,5545339,37.56098175048828,19.454345703125,16.66695213317871,-0.0458615273237228,0.0140097942203283,2.6643640995025635,33.933360766406736,21.286409049638593,-1.387100959929526,4.082846978101049,0.09980158679578005,-1.3268531868707112,-1.387100959929526
34.0,15.5,6242,40245,5567939,1776874558858,2026-04-22T16:15:58.858000+00:00,240000,1500.0,0.0096839629113674,9.999999747378752e-05,8,-0.0349065847694873,-1.9999999845072665,0.0078964624553918,5.883322840030164,-0.2066869224671064,-5.918739107920389,4294967295,4294967295,8,9,0,5567939,38.81214904785156,19.173019409179688,16.87192726135254,-0.0312882624566555,0.0417574755847454,-2.532338380813598,34.06831283062875,15.69314791957181,-0.6038612115342822,5.9017602584173945,0.1501916460153259,-0.3532765551922273,-0.6038612115342822
34.0,16.5,6141,40237,5567539,1776874558458,2026-04-22T16:15:58.458000+00:00,240000,1500.0,0.0096839629113674,9.999999747378752e-05,9,-0.0872664600610733,-4.99999985454646,0.0070256292819976,5.206692731181774,-0.4592429404308811,-5.249170982279009,4294967295,4294967295,9,10,0,5567539,38.78238677978516,19.17660140991211,16.887617111206055,-0.0202313102781772,0.0243962220847606,-2.676438808441162,34.18705111920769,16.72863503686568,-0.7026376082634319,5.220744679774625,0.1382065683162632,-0.5727763425338763,-0.7026376082634319
34.0,18.0,5967,40223,5566839,1776874557758,2026-04-22T16:15:57.758000+00:00,240000,1500.0,0.0096839629113674,9.999999747378752e-05,7,-0.1919862180948257,-11.000000021511672,0.0063839624635875,4.6392062864880925,-0.9135880999136444,-4.700003318932266,4294967295,4294967295,7,8,0,5566839,38.72998046875,19.22074508666992,16.957406997680664,-0.0523040518164634,0.0111168436706066,-2.92200255393982,34.21660263009833,18.147592975290266,-1.0558043135431374,4.650211894939187,0.11664556144540342,-0.9994402744777123,-1.0558043135431374
34.0,19.75,2655,39957,5553539,1776874544458,2026-04-22T16:15:44.458000+00:00,240000,1500.0,0.009615859016776,9.999999747378752e-05,4,-0.3316125571727752,-18.999999959540737,0.0057658590376377,4.011227866348799,-1.4078850614205782,-4.088795119274416,4294967295,4294967295,4,6,1,5553539,38.17735290527344,19.297372817993164,16.665517807006836,-0.0056052743457257,0.0037043036427348,2.9495720863342285,34.224513617347185,19.979289645472743,-1.478319939117245,4.015776063569949,0.09318863676851478,-1.4629549970524143,-1.478319939117245
34.0,20.0,1975,39913,5551340,1776874542259,2026-04-22T16:15:42.259000+00:00,240000,1500.0,0.0088076954707503,9.999999747378752e-05,4,-0.3490658402442932,-19.99999941818584,0.0056410287506878,3.8814443923886524,-1.4470090559900828,-3.9756248326906434,4294967295,4294967295,4,6,1,5551340,38.02242660522461,19.306154251098636,16.58864974975586,-0.0565611645579338,0.0127322487533092,2.914527654647827,34.23913631136701,20.173521026810164,-1.5488136356601838,3.900843544273901,0.09133200266969685,-1.4965000359496141,-1.5488136356601838
34.0,20.25,1329,39872,5549289,1776874540208,2026-04-22T16:15:40.208000+00:00,240000,1500.0,0.0088076954707503,9.999999747378752e-05,2,-0.3665191531181335,-21.00000058437824,0.0057660290040075,3.875958494549653,-1.5497700345663128,-4.037288846760865,4294967295,4294967295,2,3,0,5549289,37.91166687011719,19.400671005249023,16.59065055847168,-0.0423376075923442,0.0480058975517749,2.8540291786193848,34.18963904015338,20.482134404743675,-1.7922989790519992,3.9574565805362187,0.08645546746535859,-1.6020152143779294,-1.7922989790519992
34.0,20.5,708,39833,5547339,1776874538258,2026-04-22T16:15:38.258000+00:00,240000,1500.0,0.0104937236756086,9.999999747378752e-05,3,-0.4014257192611694,-22.999999501668448,0.0056937239132821,3.745052585422986,-1.668536343268868,-3.9308253868079737,4294967295,4294967295,3,5,1,5547339,37.74394226074219,19.4398193359375,16.61198616027832,-0.0001722428278299,0.0555537156760692,2.7669873237609863,34.229942799754795,20.734897192965295,-1.926226525725565,3.8453646054206265,0.08081939730038175,-1.7153445054537695,-1.926226525725565
34.0,20.75,631,39828,5547089,1776874538008,2026-04-22T16:15:38.008000+00:00,240000,1500.0,0.0104937236756086,9.999999747378752e-05,2,-0.3839724361896515,-22.000000043023345,0.0054937237873673,3.725221430776691,-1.5434888677338685,-3.8202689966633736,4294967295,4294967295,2,4,1,5547089,37.7275505065918,19.462865829467773,16.630001068115234,-0.0074735395610332,0.0102975191548466,2.7586817741394043,34.244818693591405,20.78493005900919,-1.6242651051385806,3.740996435355228,0.08675354102992683,-1.5852228025949522,-1.6242651051385806
34.0,21.0,284,39806,5545989,1776874536908,2026-04-22T16:15:36.908000+00:00,240000,1500.0,0.0104937236756086,9.999999747378752e-05,3,-0.3839724361896515,-22.000000043023345,0.0055937236174941,3.7430097809564953,-1.571584314565552,-3.8898076676069935,4294967295,4294967295,3,5,1,5545989,37.61751937866211,19.489561080932617,16.650737762451172,-0.0295633040368556,0.0391536764800548,2.7017781734466557,34.214892423375474,21.04912897733623,-1.7663062752615721,3.8090921428424838,0.08542026805554888,-1.6166262720571445,-1.7663062752615721
34.0,21.25,27,39790,5545189,1776874536108,2026-04-22T16:15:36.108000+00:00,240000,1500.0,0.0096808588132262,9.999999747378752e-05,3,-0.3141592741012573,-18.000000500895634,0.0056475261226296,3.9507851138015524,-1.3088861962686051,-4.028337378462871,4294967295,4294967295,3,4,0,5545189,37.55229187011719,19.448888778686523,16.713708877563477,-0.0549093186855316,0.0068697449751198,2.657377243041992,34.04502523806307,21.267620146183027,-1.391745422678914,3.9601856198036898,0.09788664040561526,-1.3612517766063013,-1.391745422678914
34.25,17.5,6041,40229,5567139,1776874558058,2026-04-22T16:15:58.058000+00:00,240000,1500.0,0.0096839629113674,9.999999747378752e-05,6,-0.1570796370506286,-9.000000250447817,0.0062464624643325,4.575864226901511,-0.7328715307273093,-4.627168606286363,4294967295,4294967295,6,8,1,5567139,38.7548713684082,19.19314384460449,16.961082458496094,-0.0309385117143392,0.0134657016023993,-2.8208930492401123,34.44484434529857,17.65619866565318,-0.8807709317370177,4.586217980147397,0.1252214890382946,-0.8156071814823722,-0.8807709317370177
34.25,17.75,5993,40225,5566939,1776874557858,2026-04-22T16:15:57.858000+00:00,240000,1500.0,0.0096839629113674,9.999999747378752e-05,4,-0.1919862180948257,-11.000000021511672,0.0063839624635875,4.63687176042272,-0.9135880999136444,-4.700003318932266,4294967295,4294967295,4,6,1,5566939,38.72998046875,19.22074508666992,16.957406997680664,-0.0478846952319145,0.0133808907121419,-2.8891522884368896,34.25771527713946,17.99623547931094,-1.0660103163108752,4.650211894939187,0.11664556144540342,-0.9994402744777123,-1.0660103163108752
34.25,18.0,5955,40222,5566789,1776874557708,2026-04-22T16:15:57.708000+00:00,240000,1500.0,0.0096839629113674,9.999999747378752e-05,6,-0.2094395160675048,-12.000000333930425,0.0062922956421971,4.551347515426937,-0.981181396474278,-4.616095408423672,4294967295,4294967295,6,8,1,5566789,38.72998046875,19.22074508666992,16.957406997680664,-0.0523040518164634,0.0111168436706066,-2.92200255393982,34.30085538849568,18.17307375001653,-1.1179460387174451,4.563128076329889,0.11343791302844437,-1.0628083319981054,-1.1179460387174451
34.25,19.75,2803,39969,5554139,1776874545058,2026-04-22T16:15:45.058000+00:00,240000,1500.0,0.009615859016776,9.999999747378752e-05,3,-0.3490658402442932,-19.99999941818584,0.0054450258612632,3.758316666974852,-1.396731355142878,-3.837487980546361,4294967295,4294967295,3,5,1,5554139,38.18574523925781,19.25152015686035,16.53868865966797,-0.0312530845403671,0.0050324350595474,2.9328062534332275,34.49926440903085,19.982822596094685,-1.4607940745878703,3.765305038858978,0.09371793730725678,-1.4396382914406156,-1.4607940745878703
34.25,20.0,1772,39900,5550689,1776874541608,2026-04-22T16:15:41.608000+00:00,240000,1500.0,0.0088076954707503,9.999999747378752e-05,4,-0.3665191531181335,-21.00000058437824,0.0052660289220511,3.6030535225576985,-1.4153820278882092,-3.687196130810423,4294967295,4294967295,4,7,2,5550689,37.99370956420898,19.33963203430176,16.6545352935791,-0.0182943493127822,0.0080727208405733,2.897180795669556,34.4822934379378,20.14706715527319,-1.481541611234761,3.6142865040014547,0.09283286727885362,-1.4509567043786111,-1.481541611234761
34.25,20.25,1041,39854,5548389,1776874539308,2026-04-22T16:15:39.308000+00:00,240000,1500.0,0.0088076954707503,9.999999747378752e-05,4,-0.3665191531181335,-21.00000058437824,0.0051410286687314,3.528585037510161,-1.3817849636394015,-3.5996727887982143,4294967295,4294967295,4,7,2,5548389,37.83757781982422,19.35163116455078,16.624422073364258,-0.0499354042112827,-7.870569788792636e-06,2.8143868446350098,34.488641093027354,20.463177459966175,-1.4161159747167658,3.52849382506677,0.0944272202019351,-1.413192006536693,-1.4161159747167658
34.25,20.5,739,39835,5547439,1776874538358,2026-04-22T16:15:38.358000+00:00,240000,1500.0,0.0104937236756086,9.999999747378752e-05,1,-0.4712388813495636,-26.99999904379616,0.0055437237024307,3.474660417082923,-1.8875983587373104,-3.7046205218745536,4294967295,4294967295,1,4,2,5547439,37.755218505859375,19.42621421813965,16.61713409423828,-0.0109931165352463,0.0658981949090957,2.774116039276123,34.49515869247828,20.62841013695674,-2.157056023253377,3.6088131721537025,0.07042378171588541,-1.9229310130515085,-2.157056023253377
34.25,20.75,455,39817,5546539,1776874537458,2026-04-22T16:15:37.458000+00:00,240000,1500.0,0.0104937236756086,9.999999747378752e-05,1,-0.4363323152065277,-25.00000012650595,0.0052937236614525,3.470665207233265,-1.6779182268988757,-3.598307228891195,4294967295,4294967295,1,2,0,5546539,37.687931060791016,19.491962432861328,16.639558792114258,0.0058077084831893,0.0247200764715671,2.732990503311157,34.46818218036043,20.787622159666753,-1.794387250714898,3.512783259531188,0.08037417882894807,-1.7085772880273016,-1.794387250714898
34.25,21.0,121,39796,5545489,1776874536408,2026-04-22T16:15:36.408000+00:00,240000,1500.0,0.0096808588132262,9.999999747378752e-05,1,-0.4188790321350097,-24.00000066786085,0.0054183593019843,3.5969226874970235,-1.652883998374281,-3.712438126885847,4294967295,4294967295,1,3,1,5545489,37.5713005065918,19.459157943725582,16.657224655151367,-0.0374827906489372,0.0180523097515106,2.675470352172852,34.349964507182285,21.059422671431324,-1.7562207460796775,3.627992660224103,0.08156218130230983,-1.6891361687953763,-1.7562207460796775
34.5,15.25,6303,40250,5568189,1776874559108,2026-04-22T16:15:59.108000+00:00,240000,1500.0,0.0096839629113674,9.999999747378752e-05,8,-0.0174532923847436,-0.9999999922536332,0.0074381292797625,5.567056588188497,-0.0973599407384963,-5.577747312497521,4294967295,4294967295,8,9,0,5568189,38.83964157104492,19.177017211914062,16.923154830932617,-0.0440646857023239,0.0052380771376192,-2.429903030395508,34.72020195261995,15.432376202919517,-0.26344056742845534,5.566466273476994,0.15537977172773454,-0.22766278009579294,-0.26344056742845534
34.5,15.5,6290,40249,5568139,1776874559058,2026-04-22T16:15:59.058000+00:00,240000,1500.0,0.0096839629113674,9.999999747378752e-05,6,-0.0349065847694873,-1.9999999845072665,0.0074381292797625,5.552809929695102,-0.1946902246963563,-5.575198629335246,4294967295,4294967295,6,7,0,5568139,38.83964157104492,19.177017211914062,16.923154830932617,-0.0425255596637725,0.0207987241446971,-2.462794065475464,34.60495409764221,15.58520428277554,-0.44630563858476285,5.5592052806251955,0.15076095082173616,-0.324645378727835,-0.44630563858476285
34.5,16.0,6242,40245,5567939,1776874558858,2026-04-22T16:15:58.858000+00:00,240000,1500.0,0.0096839629113674,9.999999747378752e-05,7,-0.0698131695389747,-3.999999969014533,0.0071631292812526,5.3108680274011455,-0.3747559768268258,-5.3592601939585,4294967295,4294967295,7,9,1,5567939,38.81214904785156,19.173019409179688,16.87192726135254,-0.0312882624566555,0.0417574755847454,-2.532338380813598,34.530582194301964,16.030806099574956,-0.7202993972272366,5.334797426138859,0.14221590783434876,-0.49382333251748123,-0.7202993972272366
34.5,16.25,6216,40243,5567839,1776874558758,2026-04-22T16:15:58.758000+00:00,240000,1500.0,0.0096839629113674,9.999999747378752e-05,9,-0.1047197580337524,-6.000000166965211,0.0069339624606072,5.109405395073381,-0.543597345343796,-5.171983114967621,4294967295,4294967295,9,11,1,5567839,38.81214904785156,19.173019409179688,16.87192726135254,-0.0256928279995918,0.0413216166198253,-2.568714141845703,34.583248771169934,16.305542130963342,-0.8681791589825579,5.1395609791179595,0.1342035193875915,-0.6531928510085416,-0.8681791589825579
34.5,16.5,6154,40238,5567589,1776874558508,2026-04-22T16:15:58.508000+00:00,240000,1500.0,0.0096839629113674,9.999999747378752e-05,8,-0.1221730485558509,-7.000000052497138,0.0066589624620974,4.89994776115603,-0.6086425418033383,-4.956995673701435,4294967295,4294967295,8,9,0,5567589,38.78238677978516,19.17660140991211,16.887617111206055,-0.0210015401244163,0.0295178331434726,-2.641063690185547,34.54050695559062,16.723859348636754,-0.855205259650714,4.921675340012002,0.1311167913824397,-0.7076611708490994,-0.855205259650714
34.5,16.75,6128,40236,5567489,1776874558408,2026-04-22T16:15:58.408000+00:00,240000,1500.0,0.0096839629113674,9.999999747378752e-05,3,-0.1221730485558509,-7.000000052497138,0.006429795641452,4.735749264874313,-0.587696234175313,-4.786401689284076,4294967295,4294967295,3,5,1,5567489,38.78238677978516,19.17660140991211,16.887617111206055,-0.0202313102781772,0.0243962220847606,-2.676438808441162,34.60421149843357,16.947213059251744,-0.7967467648143979,4.752296897598643,0.1321108010538559,-0.6784890863669168,-0.7967467648143979
34.5,17.0,6141,40237,5567539,1776874558458,2026-04-22T16:15:58.458000+00:00,240000,1500.0,0.0096839629113674,9.999999747378752e-05,8,-0.1396263390779495,-7.999999938029066,0.0062464624643325,4.584257141043269,-0.6520046583760603,-4.639254241471207,4294967295,4294967295,8,10,1,5567539,38.78238677978516,19.17660140991211,16.887617111206055,-0.0202313102781772,0.0243962220847606,-2.676438808441162,34.73767027368913,17.01889848306594,-0.8500187099721344,4.6022071069947765,0.1290590366692084,-0.7355126456354544,-0.8500187099721344
34.5,17.25,6080,40232,5567289,1776874558208,2026-04-22T16:15:58.208000+00:00,240000,1500.0,0.0096839629113674,9.999999747378752e-05,6,-0.1570796370506286,-9.000000250447817,0.0062464624643325,4.572714997242087,-0.7328715307273093,-4.627168606286363,4294967295,4294967295,6,8,1,5567289,38.7548713684082,19.19314384460449,16.961082458496094,-0.020974576473236,0.0172361508011817,-2.7487521171569824,34.57303915996664,17.343278491006163,-0.8969773749806322,4.586217980147397,0.1252214890382946,-0.8156071814823722,-0.8969773749806322
34.5,18.0,5967,40223,5566839,1776874557758,2026-04-22T16:15:57.758000+00:00,240000,1500.0,0.0096839629113674,9.999999747378752e-05,6,-0.2443460971117019,-14.000000104994276,0.0059714624658226,4.275116832511276,-1.0834706473887965,-4.345563380668509,4294967295,4294967295,6,8,1,5566839,38.72998046875,19.22074508666992,16.957406997680664,-0.0523040518164634,0.0111168436706066,-2.92200255393982,34.56829241095322,18.242493359754548,-1.2034388787500625,4.287958876437354,0.10858376371981351,-1.151740989436,-1.2034388787500625
34.5,18.5,5879,40216,5566489,1776874557408,2026-04-22T16:15:57.408000+00:00,240000,1500.0,0.0096839629113674,9.999999747378752e-05,4,-0.296705961227417,-16.999999334703237,0.0058797956444323,4.148472326972557,-1.2893143580199715,-4.217157419117044,4294967295,4294967295,4,5,0,5566489,38.70700454711914,19.258302688598636,16.98855972290039,-0.031853049993515,0.0012050251243636,-3.020941257476806,34.595770714006214,18.70370462051266,-1.3583443103322668,4.1497316300624805,0.09881542445920691,-1.3508829791721602,-1.3583443103322668
34.5,18.75,5866,40215,5566439,1776874557358,2026-04-22T16:15:57.358000+00:00,240000,1500.0,0.0096839629113674,9.999999747378752e-05,4,-0.296705961227417,-16.999999334703237,0.0058797956444323,4.147973625938597,-1.2893143580199715,-4.217157419117044,4294967295,4294967295,4,5,0,5566439,38.70700454711914,19.258302688598636,16.98855972290039,-0.0228980053216218,0.0017054297495633,-3.0559120178222656,34.580607336023284,18.835773094673506,-1.359866431524402,4.1497316300624805,0.09881542445920691,-1.3508829791721602,-1.359866431524402
34.5,19.0,5818,40211,5566239,1776874557158,2026-04-22T16:15:57.158000+00:00,240000,1500.0,0.0096839629113674,9.999999747378752e-05,5,-0.3490658402442932,-19.99999941818584,0.0057422956451773,3.9575736094275684,-1.4729855435909427,-4.046994648065708,4294967295,4294967295,5,6,0,5566239,38.67531967163086,19.305116653442383,17.0413761138916,-0.0174754373729228,0.0089359376579523,-3.127747058868408,34.71951163051199,19.186915063534162,-1.5626417004460298,3.9708708972757747,0.09009928517298015,-1.5258782369475097,-1.5626417004460298
34.5,19.75,2105,39921,5551739,1776874542658,2026-04-22T16:15:42.658000+00:00,240000,1500.0,0.0088076954707503,9.999999747378752e-05,3,-0.4014257192611694,-22.999999501668448,0.0050576953217387,3.380584613230562,-1.4821492200940491,-3.491724831099177,4294967295,4294967295,3,5,1,5551739,38.053741455078125,19.318342208862305,16.612491607666016,-0.030626842752099,0.0229192804545164,2.9258127212524414,34.74252502303809,19.99966303446453,-1.5880125325707337,3.415810613831526,0.08966442174828614,-1.508089610308815,-1.5880125325707337
34.5,20.0,1520,39884,5549889,1776874540808,2026-04-22T16:15:40.808000+00:00,240000,1500.0,0.0088076954707503,9.999999747378752e-05,2,-0.4014257192611694,-22.999999501668448,0.0050160288810729,3.363962636455506,-1.4699389388081523,-3.462959210348814,4294967295,4294967295,2,4,1,5549889,37.97276306152344,19.4127197265625,16.671031951904297,0.0253804177045822,0.0171945188194513,2.865516424179077,34.703605406999124,20.205722153629257,-1.549766742430653,3.387670391613153,0.09024386218735687,-1.494512274468799,-1.549766742430653
34.5,20.25,1137,39860,5548689,1776874539608,2026-04-22T16:15:39.608000+00:00,240000,1500.0,0.0088076954707503,9.999999747378752e-05,2,-0.4188790321350097,-24.00000066786085,0.0049743619747459,3.287076129504136,-1.5174415080166532,-3.408229322336597,4294967295,4294967295,2,4,1,5548689,37.84139251708984,19.36678504943848,16.641183853149414,-0.0401403382420539,0.0275520980358123,2.815596103668213,34.719164102288325,20.39467570848833,-1.6327133107373835,3.330703581629807,0.08798962177186756,-1.5392510237104662,-1.6327133107373835
34.5,20.5,583,39825,5546939,1776874537858,2026-04-22T16:15:37.858000+00:00,240000,1500.0,0.0104937236756086,9.999999747378752e-05,2,-0.4537855982780456,-25.99999958515105,0.0048437239602208,3.195538535362412,-1.5925115967376693,-3.265132704552866,4294967295,4294967295,2,6,3,5546939,37.720123291015625,19.47571563720703,16.656349182128906,-0.0271024238318204,-0.0069715096615254,2.7540981769561768,34.74631465599343,20.64530049229604,-1.5866684281605836,3.1841384890372684,0.08442716123954337,-1.607207942048634,-1.5866684281605836
34.5,20.75,76,39793,5545339,1776874536258,2026-04-22T16:15:36.258000+00:00,240000,1500.0,0.0096808588132262,9.999999747378752e-05,2,-0.4537855982780456,-25.99999958515105,0.0048683593049645,3.1773637896735765,-1.6006111648625692,-3.2817392804996546,4294967295,4294967295,2,6,3,5545339,37.56098175048828,19.454345703125,16.66695213317871,-0.0458615273237228,0.0140097942203283,2.6643640995025635,34.73410359582388,20.90500091736787,-1.6629237638880183,3.200333125650217,0.08404279521220245,-1.6160943010453157,-1.6629237638880183
34.5,21.0,5469,40183,5564839,1776874555758,2026-04-22T16:15:55.758000+00:00,240000,1500.0,0.009683970361948,9.999999747378752e-05,2,-0.4363323152065277,-25.00000012650595,0.0065214703790843,4.285964269316217,-2.067069366489044,-4.4328445360557724,4294967295,4294967295,2,3,0,5564839,38.56721115112305,19.4034481048584,16.970947265625,-0.0252049807459115,0.019056037068367,2.7532076835632324,34.59742648476792,21.019090212698817,-2.220261374165716,4.327485422404955,0.06190696239803359,-2.137308525774135,-2.220261374165716
34.75,16.0,6242,40245,5567939,1776874558858,2026-04-22T16:15:58.858000+00:00,240000,1500.0,0.0096839629113674,9.999999747378752e-05,6,-0.1221730485558509,-7.000000052497138,0.0067506292834877,4.956072929339143,-0.6170210733670238,-5.025233336796926,4294967295,4294967295,6,9,2,5567939,38.81214904785156,19.173019409179688,16.87192726135254,-0.0312882624566555,0.0417574755847454,-2.532338380813598,34.81065623477375,16.24885899158716,-0.9307222725183842,4.989426785811903,0.13071918710991262,-0.7193300164973627,-0.9307222725183842
34.75,16.25,6231,40244,5567889,1776874558808,2026-04-22T16:15:58.808000+00:00,240000,1500.0,0.0096839629113674,9.999999747378752e-05,7,-0.1396263390779495,-7.999999938029066,0.0064756292849779,4.735833618485466,-0.6759250509917474,-4.809456680172154,4294967295,4294967295,7,8,0,5567889,38.81214904785156,19.173019409179688,16.87192726135254,-0.0312882624566555,0.0417574755847454,-2.532338380813598,34.988771407415264,16.378398955416976,-0.9697559396537148,4.771050380556981,0.1279238914194436,-0.7676329778363937,-0.9697559396537148
34.75,16.5,6216,40243,5567839,1776874558758,2026-04-22T16:15:58.758000+00:00,240000,1500.0,0.0096839629113674,9.999999747378752e-05,8,-0.1396263390779495,-7.999999938029066,0.0063381292857229,4.636006858049229,-0.6615728251434638,-4.707335286121011,4294967295,4294967295,8,11,2,5567839,38.81214904785156,19.173019409179688,16.87192726135254,-0.0256928279995918,0.0413216166198253,-2.568714141845703,34.97665797184787,16.568875059537078,-0.9436827233789459,4.669744485036726,0.12860497810798507,-0.7483607915693735,-0.9436827233789459
34.75,17.25,6080,40232,5567289,1776874558208,2026-04-22T16:15:58.208000+00:00,240000,1500.0,0.0096839629113674,9.999999747378752e-05,5,-0.2094395160675048,-12.000000333930425,0.0058797956444323,4.247436626833597,-0.91685871571238,-4.313480996461284,4294967295,4294967295,5,8,2,5567289,38.7548713684082,19.19314384460449,16.961082458496094,-0.020974576473236,0.0172361508011817,-2.7487521171569824,34.868664734109124,17.479050529029927,-1.0595279037410832,4.263986009853586,0.11649035396000011,-0.9839565960857916,-1.0595279037410832
34.75,18.75,5892,40217,5566539,1776874557458,2026-04-22T16:15:57.458000+00:00,240000,1500.0,0.0096839629113674,9.999999747378752e-05,4,-0.3490658402442932,-19.99999941818584,0.0055589624680578,3.842581596118464,-1.4259578152669214,-3.917787022324844,4294967295,4294967295,4,7,2,5566539,38.70700454711914,19.258302688598636,16.98855972290039,-0.031853049993515,0.0012050251243636,-3.020941257476806,34.89808503110204,18.750793631209124,-1.4795166984181263,3.8440936599978053,0.09233099195438278,-1.4726920604171694,-1.4795166984181263
34.75,19.0,5818,40211,5566239,1776874557158,2026-04-22T16:15:57.158000+00:00,240000,1500.0,0.0096839629113674,9.999999747378752e-05,4,-0.4014257192611694,-22.999999501668448,0.0054672956466674,3.678030283393207,-1.6021819155263095,-3.7745041474476304,4294967295,4294967295,4,6,1,5566239,38.67531967163086,19.305116653442383,17.0413761138916,-0.0174754373729228,0.0089359376579523,-3.127747058868408,34.99882239786457,19.19893491515105,-1.6757071410384992,3.692441974227415,0.0839682550412631,-1.6415610823828062,-1.6757071410384992
34.75,19.25,5792,40209,5566139,1776874557058,2026-04-22T16:15:57.058000+00:00,240000,1500.0,0.0105570573359727,9.999999747378752e-05,5,-0.3665191531181335,-21.00000058437824,0.0056070573627948,3.829713868637779,-1.5070422776080945,-3.925979237743424,4294967295,4294967295,5,6,0,5566139,38.67531967163086,19.305116653442383,17.0413761138916,-0.0182137545198202,0.0121036656200885,3.1218762397766118,34.845636524026176,19.320456294547323,-1.6018050045327816,3.8483479778568728,0.08848311856304245,-1.5539871837428634,-1.6018050045327816
34.75,19.5,5744,40205,5565939,1776874556858,2026-04-22T16:15:56.858000+00:00,240000,1500.0,0.0105570573359727,9.999999747378752e-05,3,-0.3490658402442932,-19.99999941818584,0.0055070575326681,3.774719165959843,-1.4126434155574004,-3.8812060086135487,4294967295,4294967295,3,4,0,5565939,38.63487243652344,19.354124069213867,17.05919647216797,-0.0202184915542602,0.0226435791701078,3.056220054626465,34.8690202643645,19.61270132906166,-1.545065460780514,3.8082007331790226,0.09296282847256021,-1.4576340927333598,-1.545065460780514
34.75,19.75,1992,39914,5551389,1776874542308,2026-04-22T16:15:42.308000+00:00,240000,1500.0,0.0088076954707503,9.999999747378752e-05,2,-0.4188790321350097,-24.00000066786085,0.004682695493102,3.1179012316937302,-1.4284679214560865,-3.208391381284408,4294967295,4294967295,2,4,1,5551389,38.023887634277344,19.305953979492188,16.58840560913086,-0.0535424798727035,0.0119978059083223,2.9149858951568604,34.9823684972953,19.9918617210794,-1.4811733165271856,3.135411280831299,0.09221187454845997,-1.4407899064115819,-1.4811733165271856
34.75,20.0,1266,39868,5549089,1776874540008,2026-04-22T16:15:40.008000+00:00,240000,1500.0,0.0088076954707503,9.999999747378752e-05,3,-0.4886921942234039,-28.000000209988556,0.0048910286277532,3.0099473900087146,-1.7221491519968997,-3.2388914587974678,4294967295,4294967295,3,5,1,5549089,37.87995910644531,19.3841552734375,16.55733871459961,-0.0306908339262008,0.0764220356941223,2.844090461730957,34.99500758730432,20.24254797076569,-1.972410592623966,3.1516476432898304,0.07827519469752549,-1.7352743192233921,-1.972410592623966
34.75,20.25,1201,39864,5548889,1776874539808,2026-04-22T16:15:39.808000+00:00,240000,1500.0,0.0088076954707503,9.999999747378752e-05,1,-0.4886921942234039,-28.000000209988556,0.0048910286277532,3.0488870076613304,-1.7221491519968997,-3.2388914587974678,4294967295,4294967295,1,2,0,5548889,37.85345458984375,19.373512268066406,16.587848663330078,-0.0248729344457387,0.0564283728599548,2.8268637657165527,34.94365626438242,20.283888943200658,-1.911668080768581,3.1516476432898304,0.07827519469752549,-1.7352743192233921,-1.911668080768581
34.75,20.5,203,39801,5545739,1776874536658,2026-04-22T16:15:36.658000+00:00,240000,1500.0,0.0096808588132262,9.999999747378752e-05,2,-0.5235987901687622,-30.000000834826057,0.0046391924843192,2.865939972382464,-1.7396972255240637,-3.0132438830015134,4294967295,4294967295,2,5,2,5545739,37.59214019775391,19.473787307739254,16.684120178222656,-0.0263024643063545,0.0332933329045772,2.6902401447296143,34.999571926364986,20.69534438110383,-1.8396848098480403,2.9254154834408657,0.07744244865414239,-1.7418378343795684,-1.8396848098480403
34.75,20.75,59,39792,5545289,1776874536208,2026-04-22T16:15:36.208000+00:00,240000,1500.0,0.0096808588132262,9.999999747378752e-05,1,-0.4886921942234039,-28.000000209988556,0.004685026127845,2.999181263704122,-1.649614914819652,-3.102474400500649,4294967295,4294967295,1,4,2,5545289,37.557838439941406,19.451812744140625,16.679771423339844,-0.0493970476090908,0.0117682227864861,2.660884141921997,34.89863809821369,20.838802937007554,-1.6937168206927813,3.0189051584751874,0.08171731607487571,-1.6562906887490927,-1.6937168206927813
35.0,15.75,6290,40249,5568139,1776874559058,2026-04-22T16:15:59.058000+00:00,240000,1500.0,0.0096839629113674,9.999999747378752e-05,5,-0.0698131695389747,-3.999999969014533,0.0067047956399619,4.984366384130242,-0.3507771730512163,-5.016347321263345,4294967295,4294967295,5,7,1,5568139,38.83964157104492,19.177017211914062,16.923154830932617,-0.0425255596637725,0.0207987241446971,-2.462794065475464,35.03919738301533,15.952031595679525,-0.5627032828753952,4.993449806423317,0.1433538249930778,-0.4532680745399341,-0.5627032828753952
35.0,16.5,6242,40245,5567939,1776874558858,2026-04-22T16:15:58.858000+00:00,240000,1500.0,0.0096839629113674,9.999999747378752e-05,5,-0.1570796370506286,-9.000000250447817,0.0061089624650776,4.449184291244691,-0.7167392261622261,-4.525313246784919,4294967295,4294967295,5,9,3,5567939,38.81214904785156,19.173019409179688,16.87192726135254,-0.0312882624566555,0.0417574755847454,-2.532338380813598,35.22226295691584,16.54471982359878,-0.9846674369294454,4.485264044627247,0.12598704958694565,-0.7945719175242332,-0.9846674369294454
35.0,17.0,6154,40238,5567589,1776874558508,2026-04-22T16:15:58.508000+00:00,240000,1500.0,0.0096839629113674,9.999999747378752e-05,7,-0.1919862180948257,-11.000000021511672,0.0057422956451773,4.156061626149399,-0.8217612489957993,-4.227595125215903,4294967295,4294967295,7,9,1,5567589,38.78238677978516,19.17660140991211,16.887617111206055,-0.0210015401244163,0.0295178331434726,-2.641063690185547,35.18639835180836,17.092923059924164,-1.0103214251172927,4.1828083522996415,0.1210032162420849,-0.884912499625847,-1.0103214251172927
35.0,18.0,5982,40224,5566889,1776874557808,2026-04-22T16:15:57.808000+00:00,240000,1500.0,0.0096839629113674,9.999999747378752e-05,5,-0.296705961227417,-16.999999334703237,0.0053297956474125,3.74525622946277,-1.168711035055846,-3.8226817080194,4294967295,4294967295,5,7,1,5566889,38.72998046875,19.22074508666992,16.957406997680664,-0.0478846952319145,0.0133808907121419,-2.8891522884368896,35.115303213386404,18.240412202448038,-1.2652628708542515,3.761562972138391,0.10453867036775429,-1.2114247932608913,-1.2652628708542515
35.0,18.25,5955,40222,5566789,1776874557708,2026-04-22T16:15:57.708000+00:00,240000,1500.0,0.0096839629113674,9.999999747378752e-05,5,-0.296705961227417,-16.999999334703237,0.0052381292916834,3.6836418473676034,-1.1486105493015812,-3.756935978826845,4294967295,4294967295,5,8,2,5566789,38.72998046875,19.22074508666992,16.957406997680664,-0.0523040518164634,0.0111168436706066,-2.92200255393982,35.144458906853,18.376202376767406,-1.2330951224787658,3.6968684149148214,0.10549254145542847,-1.1881818409911689,-1.2330951224787658
35.0,19.0,5818,40211,5566239,1776874557158,2026-04-22T16:15:57.158000+00:00,240000,1500.0,0.0096839629113674,9.999999747378752e-05,3,-0.4363323152065277,-25.00000012650595,0.0052839624695479,3.4912869786716674,-1.6748242834178138,-3.5916722457226404,4294967295,4294967295,3,6,2,5566239,38.67531967163086,19.305116653442383,17.0413761138916,-0.0174754373729228,0.0089359376579523,-3.127747058868408,35.18543772163519,19.20607755744107,-1.7375789560786739,3.50630597554203,0.08052100230722431,-1.7051686632458058,-1.7375789560786739
35.0,19.25,5792,40209,5566139,1776874557058,2026-04-22T16:15:57.058000+00:00,240000,1500.0,0.0105570573359727,9.999999747378752e-05,4,-0.4014257192611694,-22.999999501668448,0.0054570576176047,3.665815864017789,-1.5991816781008894,-3.767436030840001,4294967295,4294967295,4,6,1,5566139,38.67531967163086,19.305116653442383,17.0413761138916,-0.0182137545198202,0.0121036656200885,3.1218762397766118,35.009548071597976,19.32313123855676,-1.6839723144897059,3.6855275268136016,0.08411063168684536,-1.638224940473302,-1.6839723144897059
35.0,19.5,5704,40202,5565789,1776874556708,2026-04-22T16:15:56.708000+00:00,240000,1500.0,0.0105570573359727,9.999999747378752e-05,1,-0.4537855982780456,-25.99999958515105,0.0054570576176047,3.5261177191663187,-1.7941624278079211,-3.6785781857515847,4294967295,4294967295,1,3,1,5565789,38.63487243652344,19.354124069213867,17.05919647216797,-0.0226648319512605,0.0325104221701622,3.023252487182617,35.12963015583583,19.73724640359102,-1.9453121656073746,3.5873281260059904,0.07485779560754253,-1.8284471055739782,-1.9453121656073746
35.0,19.75,1881,39907,5551039,1776874541958,2026-04-22T16:15:41.958000+00:00,240000,1500.0,0.0088076954707503,9.999999747378752e-05,4,-0.4886921942234039,-28.000000209988556,0.0045160287991166,2.8436263194588824,-1.5901103343909109,-2.990562562268461,4294967295,4294967295,4,6,1,5551039,38.00534057617188,19.313783645629883,16.619735717773438,-0.0587181411683559,0.0401968844234943,2.9056787490844727,35.242597027394055,19.98717708813268,-1.7093680575674974,2.910007813285466,0.08454111344719126,-1.5914952490365737,-1.7093680575674974
35.0,20.0,1266,39868,5549089,1776874540008,2026-04-22T16:15:40.008000+00:00,240000,1500.0,0.0088076954707503,9.999999747378752e-05,2,-0.5235987901687622,-30.000000834826057,0.004641028586775,2.784973123849448,-1.7403857639623854,-3.0144364665195216,4294967295,4294967295,2,5,2,5549089,37.87995910644531,19.3841552734375,16.55733871459961,-0.0306908339262008,0.0764220356941223,2.844090461730957,35.21041728132059,20.17764235239563,-1.9624837601839553,2.926573306180857,0.07740977397567458,-1.7425826293155193,-1.9624837601839553
35.0,20.25,409,39814,5546389,1776874537308,2026-04-22T16:15:37.308000+00:00,240000,1500.0,0.0104937236756086,9.999999747378752e-05,0,-0.5759586691856384,-33.000000918308665,0.0043937237933278,2.6228440345629096,-1.7947451594851356,-2.763665093093872,4294967295,4294967295,0,3,2,5546389,37.67212677001953,19.493087768554688,16.610553741455078,0.007750978693366,0.0286048855632543,2.731480360031128,35.23280388323675,20.456941846545725,-1.8597544400840254,2.6734635374006395,0.07483014200227338,-1.7846541880968623,-1.8597544400840254
35.0,20.5,107,39795,5545439,1776874536358,2026-04-22T16:15:36.358000+00:00,240000,1500.0,0.0096808588132262,9.999999747378752e-05,1,-0.5410520434379578,-30.99999858592387,0.0042725261300802,2.635490117472214,-1.6503851569901729,-2.746702308307056,4294967295,4294967295,1,6,4,5545439,37.56829833984375,19.457578659057617,16.657981872558594,-0.0398360453546047,0.0168704073876142,2.672089099884033,35.21065234908502,20.635421408134494,-1.6864546701006367,2.6635144488787983,0.0816807641354873,-1.6398038135649267,-1.6864546701006367
35.0,20.75,5368,40175,5564439,1776874555358,2026-04-22T16:15:55.358000+00:00,240000,1500.0,0.0105572156608104,9.999999747378752e-05,2,-0.4537855982780456,-25.99999958515105,0.0055072153918445,3.627515397099222,-1.810653218323522,-3.7123893175177343,4294967295,4294967295,2,3,0,5564439,38.57661819458008,19.389442443847656,16.851877212524414,-0.0667760074138641,-0.003737803781405,2.7534308433532715,35.2379375258064,20.807920271714163,-1.8338223715750612,3.6203005457377793,0.07407522306287725,-1.8465398090861802,-1.8338223715750612
35.25,16.0,6290,40249,5568139,1776874559058,2026-04-22T16:15:59.058000+00:00,240000,1500.0,0.0096839629113674,9.999999747378752e-05,4,-0.1047197580337524,-6.000000166965211,0.006200629286468,4.584441769283409,-0.4861067014328498,-4.6249961914240965,4294967295,4294967295,4,7,2,5568139,38.83964157104492,19.177017211914062,16.923154830932617,-0.0425255596637725,0.0207987241446971,-2.462794065475464,35.3432206984992,16.211861664901896,-0.6700715596080561,4.596003008057243,0.136931745148344,-0.569305083452944,-0.6700715596080561
35.25,16.5,6242,40245,5567939,1776874558858,2026-04-22T16:15:58.858000+00:00,240000,1500.0,0.0096839629113674,9.999999747378752e-05,4,-0.1919862180948257,-11.000000021511672,0.0057422956451773,4.143130991808418,-0.8217612489957993,-4.227595125215903,4294967295,4294967295,4,9,4,5567939,38.81214904785156,19.173019409179688,16.87192726135254,-0.0312882624566555,0.0417574755847454,-2.532338380813598,35.46870107755403,16.726207179931862,-1.0621031998441706,4.1828083522996415,0.1210032162420849,-0.884912499625847,-1.0621031998441706
35.25,16.75,6204,40242,5567789,1776874558708,2026-04-22T16:15:58.708000+00:00,240000,1500.0,0.0096839629113674,9.999999747378752e-05,8,-0.1396263390779495,-7.999999938029066,0.0057881292887032,4.234556163025078,-0.6041639217503297,-4.298849709916442,4294967295,4294967295,8,10,1,5567789,38.81214904785156,19.173019409179688,16.87192726135254,-0.0256928279995918,0.0413216166198253,-2.568714141845703,35.31677151663659,16.782663408059516,-0.8500154033400148,4.264520902955707,0.13132932486215107,-0.671272046501293,-0.8500154033400148
35.25,17.25,6141,40237,5567539,1776874558458,2026-04-22T16:15:58.458000+00:00,240000,1500.0,0.0096839629113674,9.999999747378752e-05,6,-0.2443460971117019,-14.000000104994276,0.0053297956474125,3.8024464183084414,-0.9670457067432086,-3.878608452184488,4294967295,4294967295,6,10,3,5567539,38.78238677978516,19.17660140991211,16.887617111206055,-0.0202313102781772,0.0243962220847606,-2.676438808441162,35.42695260481108,17.387841990224075,-1.108095123936763,3.827193871974066,0.11410872396822175,-1.0129362434218772,-1.108095123936763
35.25,17.5,6115,40235,5567439,1776874558358,2026-04-22T16:15:58.358000+00:00,240000,1500.0,0.0096839629113674,9.999999747378752e-05,5,-0.2443460971117019,-14.000000104994276,0.0053297956474125,3.806838529157223,-0.9670457067432086,-3.878608452184488,4294967295,4294967295,5,7,1,5567439,38.78238677978516,19.17660140991211,16.887617111206055,-0.0200114827603101,0.0204094275832176,-2.712493896484375,35.360756137474375,17.507930281536062,-1.092910783514914,3.827193871974066,0.11410872396822175,-1.0129362434218772,-1.092910783514914
35.25,17.75,6067,40231,5567239,1776874558158,2026-04-22T16:15:58.158000+00:00,240000,1500.0,0.0096839629113674,9.999999747378752e-05,5,-0.296705961227417,-16.999999334703237,0.0051006292924284,3.583485528384001,-1.11845971856055,-3.658317051052434,4294967295,4294967295,5,8,2,5567239,38.7548713684082,19.19314384460449,16.961082458496094,-0.0243626739829778,0.0145607758313417,-2.7850492000579834,35.42507009343147,17.868835722866613,-1.2078716349019296,3.599826250433799,0.1069233529325653,-1.1533172945133519,-1.2078716349019296
35.25,18.0,6041,40229,5567139,1776874558058,2026-04-22T16:15:58.058000+00:00,240000,1500.0,0.0096839629113674,9.999999747378752e-05,5,-0.3141592741012573,-18.000000500895634,0.0049631292931735,3.4647226082064746,-1.1502685036021445,-3.5401623315600825,4294967295,4294967295,5,8,2,5567139,38.7548713684082,19.19314384460449,16.961082458496094,-0.0309385117143392,0.0134657016023993,-2.8208930492401123,35.489161089592095,18.035802440069123,-1.2287743603073673,3.4802695603823937,0.10541386302490066,-1.1793222142077004,-1.2287743603073673
35.25,18.25,5982,40224,5566889,1776874557808,2026-04-22T16:15:57.808000+00:00,240000,1500.0,0.0096839629113674,9.999999747378752e-05,4,-0.3490658402442932,-19.99999941818584,0.0049631292931735,3.414527054130992,-1.2731176086269884,-3.497861992529141,4294967295,4294967295,4,7,2,5566889,38.72998046875,19.22074508666992,16.957406997680664,-0.0478846952319145,0.0133808907121419,-2.8891522884368896,35.433175141644355,18.331886471050815,-1.348919762890687,3.4320673973363514,0.09958404324529732,-1.2998368853749813,-1.348919762890687
35.25,18.5,5905,40218,5566589,1776874557508,2026-04-22T16:15:57.508000+00:00,240000,1500.0,0.0096839629113674,9.999999747378752e-05,3,-0.4014257192611694,-22.999999501668448,0.0049631292931735,3.346707091089677,-1.4544368023683665,-3.426438464658678,4294967295,4294967295,3,5,1,5566589,38.70700454711914,19.258302688598636,16.98855972290039,-0.0422863401472568,0.0036056858953088,-2.9873926639556885,35.40449590921606,18.716191030242662,-1.4918763983944687,3.3519436500204773,0.09097951802810961,-1.477274529673859,-1.4918763983944687
